~Version
 VERS              .         2.0                           : CWLS LOG ASCII STANDARD - VERSION 2.0
 WRAP              .         NO                            : ONE LINE PER DEPTH STEP
 DLM               .         SPACE                         : DELIMITING CHARACTER(SPACE TAB OR COMMA)
~Well Information
#_______________________________________________________________________________
#
#PARAMETER_NAME    .UNIT     VALUE                         : DESCRIPTION
#_______________________________________________________________________________
STRT               .ft       6000                          : First reference value
STOP               .ft       10942                         : Last reference value
STEP               .ft       0.5                           : Step increment
NULL               .         -9999                         : Missing value
COMP               .         University of Utah            : Company
WELL               .         Forge 16A(78)-32              : Well name
FLD                .         Wildcat                       : Field
LOC                .                                       : Location
CNTY               .         Beaver                        : County
STAT               .         Utah                          : State
CTRY               .         USA                           : Country
SRVC               .         Schlumberger                  : Service Company
DATE               .         26-Dec-2020                   : Date
UWI                .         0000000000                    : Unique Well ID
APD                .ft       32                            : Elevation of Depth Reference (LMF) Above Permanent Datum
API                .                                       : API NUMBER
BHS                .         OPEN                          : Borehole Status (Open or Cased Hole)
BHT                .degF     270                           : Bottom Hole Temperature
BLI                .ft       -999.25                       : Bottom Log Interval
BS                 .in       8.75                          : Bit Size
CBDR               .ft       5132                          : Casing Bottom of Driller
CBLO               .ft       5110                          : Logger Casing Shoe Depth
CSIZ               .in       9.625                         : Current Casing Size
CWEI               .lbm/ft   40                            : Casing Weight
DFD                .lbm/gal  9                             : Drilling Fluid Density
DFT                .         WBM                           : Drilling Fluid Type
DLAB               .         26-Dec-2020                   : Date Logger At Bottom
EDF                .ft       5434.5                        : Elevation of Drill Floor
EGL                .ft       5403.5                        : Elevation of Ground Level
EKB                .ft       5435.5                        : Elevation of Kelly Bushing
EPD                .ft       5403.5                        : Elevation of Permanent Datum (PDAT) above Mean Sea Level
GDAT               .                                       : Geodetic Datum
LMF                .         KB                            : Logging Measured From (Name of Logging Elevation Reference)
LUL                .         Fort Morgan, CO               : Logging Unit Location
LUN                .         2801                          : Logging Unit Number
LATI               .         38° 30' 14.447" N             : Latitude
LONG               .         112° 53' 47.066" W            : Longitude
MCST               .degF     68                            : Mudcake Sample Temperature
MFST               .degF     68                            : Mud Filtrate Sample Temperature
MRT                .degF     322                           : Maximum Recorded Temperature
MST                .degF     68                            : Mud Sample Temperature
ORIGINALWELLNAME   .         Forge 16A(78)-32              : 
PDAT               .         GL                            : Permanent Datum
PRODUCER-CODE      .         440                           : 
PRODUCER-NAME      .         Schlumberger                  : 
RMB                .ohm.m    0.05403042                    : Resistivity of Mud at Bottom Hole Temperature
RMCS               .ohm.m    -999.25                       : Resistivity of Mud Cake Sample
RMFS               .ohm.m    0.15                          : Resistivity of Mud Filtrate Sample
RMS                .ohm.m    0.2                           : Resistivity of Mud Sample
RUN                .         5B                            : Run Number
TDD                .ft       10987                         : Driller Total Depth
TDL                .ft       10987                         : Logger Total Depth
TLAB               .         17_37_17                      : Time Logger At Bottom
TLI                .ft       -999.25                       : Top Log Interval
~Parameter Information Block
#_______________________________________________________________________________
#
#PARAMETER_NAME    .UNIT     VALUE                         : DESCRIPTION
#_______________________________________________________________________________
SET                .         LQC_SonicFracture             : 
TLFamily_BS_RM     .         Bit Size                      : 
TLFamily_C1_13     .         Caliper                       : 
TLFamily_C1_24     .         Caliper                       : 
TLFamily_DEVI      .         Hole Deviation                : 
TLFamily_DPHI      .         Density Porosity              : 
TLFamily_DTCO_MPS_final .         Compressional Slowness        : 
TLFamily_DTSH_FAST_final .        Fast Shear Slowness           : 
TLFamily_DTSH_SLOW_final .        Slow Shear Slowness           : 
TLFamily_DTST_MLF_FA_R_4 .        Stoneley Slowness             : 
TLFamily_DTST_STM_2 .        Stoneley Slowness             : 
TLFamily_GR_TMG    .         Gamma Ray                     : 
TLFamily_MD        .         Measured Depth                : 
TLFamily_RB        .         Relative Bearing              : 
TLFamily_RHOB_model .        Bulk Density                  : 
TLFamily_STRC_DN_7 .         Reflection Coefficient        : 
TLFamily_STRC_DN_STM_6 .     Reflection Coefficient        : 
TLFamily_STTC_R_5  .         Transmission Coefficient      : 
TLFamily_STTC_R_STM_8 .      Transmission Coefficient      : 
TLFamily_TENS      .         Tension                       : 
TLFamily_TNPH      .         Thermal Neutron Porosity      : 
TLFamily_TVD       .         True Vertical Depth           : 
~Curve Information
#_______________________________________________________________________________
#
#LOGNAME           .UNIT     LOG_ID                        : DESCRIPTION
#_______________________________________________________________________________
MD                 .ft                                     : Measured Depth 
BS_RM              .in                                     : Bit Size 
C1_13              .in                                     : Caliper Section 1, Pads 1-3 
C1_24              .in                                     : Caliper Section 1, Pads 2-4 
DEVI               .deg                                    : Hole Deviation 
DPHI               .ft3/ft3                                : Density Porosity using sandstone matrix 
DTCO_MPS           .us/ft                                  : Compressional slowness 
DTSH_FAST          .us/ft                                  : Fast Shear Slowness 
DTSH_SLOW          .us/ft                                  : Slow Shear Slowness 
DTST               .us/ft                                  : Stoneley slowness 
DTST_STM_2         .us/ft                                  : Modeled Stoneley slowness computed from wavenumber at dominant frequency of source wavelet 
GR_TMG             .gAPI                                   : Gamma Ray 
RB                 .deg                                    : Relative Bearing 
RHOB_model         .g/cm3                                  : Bulk density (g/cc) 
STRC_DN_7          .unitless                               : Down-going reflection coefficient for Stoneley waveform 
STRC_DN_STM_6      .unitless                               : Down-going reflection coefficient for Modeled Stoneley waveform 
STTC_R_5           .unitless                               : Transmission coefficient for Stoneley waveform from receiver array 
STTC_R_STM_8       .unitless                               : Transmission coefficient for Modeled Stoneley waveform from receiver array 
TENS               .lbf                                    : Cable Tension 
TNPH               .ft3/ft3                                : Thermal Neutron Porosity (Ratio Method) in Selected Lithology 
TVD                .ft                                     : True Vertical Depth 
~Ascii
# ...
7312.5     8.75       9.293526   8.766834   62.52006   0.01550936 49.99627   97.13411   97.13785   208.1779   210.0588   66.25651   185.1441   2.62441    0.001701526 0.0000155  1.09821    1.00915    -9999      0.07437879 7020.513  
7313       8.75       9.293591   8.766766   63.98671   0.01290633 49.7538    96.94898   96.94898   208.5362   210.3377   67.70953   185.5732   2.628705   0.001832424 0.0000130  1.096954   1.010751   -9999      0.0761537  7020.715  
7313.5     8.75       9.293573   8.766962   62.86774   0.0122582  49.66753   96.86191   96.86191   208.7901   210.198    69.45309   185.2736   2.629774   0.001556403 0.0000123  1.067795   1.009642   -9999      0.07509504 7020.917  
7314       8.75       9.293621   8.766855   61.84162   0.01339878 49.73891   97.18168   97.18168   208.8562   210.3577   77.00862   185.5518   2.627892   0.001249601 0.0000091  1.113796   1.011635   -9999      0.07292188 7021.118  
7314.5     8.75       9.293609   8.76684    62.38979   0.01482575 49.89004   97.73313   97.73313   208.8562   210.358    66.37277   186.2294   2.625537   0.001378417 0.0000078  1.104232   1.0102     -9999      0.07178642 7021.319  
7315       8.75       9.293584   8.766841   62.61697   0.01621031 50.05315   98.18982   98.18982   208.3645   210.3975   64.55763   186.4291   2.623253   0.001401233 0.0000069  1.077776   1.013439   -9999      0.0727577  7021.521  
7315.5     8.75       9.29363    8.766908   62.82137   0.01751063 50.18501   98.37286   98.37286   208.9289   210.5954   71.48725   186.0183   2.621108   0.001905326 0.0000061  1.048223   1.010752   -9999      0.07117063 7021.722  
7316       8.75       9.293614   8.766857   61.58238   0.01803667 50.2521    98.45863   98.46561   209.0959   210.4165   68.87189   185.5447   2.620239   0.002232077 0.0000051  1.066663   1.014884   -9999      0.06940051 7021.923  
7316.5     8.75       9.293584   8.76683    62.8647    0.01773301 50.26633   98.6235    98.71594   208.9217   210.386    68.58132   186.1296   2.62074    0.002988332 0.0000043  1.060967   1.010881   -9999      0.06728335 7022.125  
7317       8.75       9.293647   8.766909   61.85225   0.0176591  50.2902    98.73714   99.21667   209.2735   210.5363   65.67532   186.4277   2.620862   0.004113088 0.0000060  1.120831   1.010353   -9999      0.06849884 7022.326  
7317.5     8.75       9.293639   8.766902   62.86642   0.01846423 50.36904   98.94939   100.0869   209.4637   210.7955   65.75832   186.4765   2.619534   0.003941249 0.0000041  1.135647   1.016402   -9999      0.068846   7022.527  
7318       8.75       9.293635   8.766803   62.37546   0.01950995 50.50178   99.54706   101.1249   209.1408   210.8947   65.53004   186.2982   2.617809   0.004141863 0.0000053  1.08379    1.014356   -9999      0.06771499 7022.728  
7318.5     8.75       9.293673   8.766763   62.3774    0.020786   50.68826   100.3535   102.0753   209.2312   210.9691   72.06848   186.4291   2.615703   0.006510583 0.0000095  1.048108   1.021425   -9999      0.06646967 7022.929  
7319       8.75       9.293652   8.766908   62.86117   0.02294636 50.92884   101.0064   102.8045   208.8696   211.1599   73.81205   186.2569   2.612139   0.01032726 0.0000075  1.071775   1.023678   -9999      0.0685725  7023.129  
7319.5     8.75       9.293657   8.766832   62.33447   0.02523062 51.18448   101.5326   103.2697   208.8696   211.1833   80.55399   186.4273   2.608369   0.01521691 0.0000086  1.070782   1.017369   -9999      0.07670515 7023.33   
7320       8.75       9.293619   8.766909   63.80799   0.02672666 51.42538   101.9469   103.4592   208.8964   210.9845   80.98014   186.6378   2.605901   0.02566006 0.0000126  1.10501    1.019416   -9999      0.08681607 7023.53   
7320.5     8.75       9.293657   8.766896   63.12754   0.02858936 51.67078   101.9317   103.9932   209.0538   210.8888   75.94312   186.9771   2.602828   0.0243722  0.0000128  1.091807   1.017193   -9999      0.08571355 7023.73   
7321       8.75       9.293653   8.766917   63.1138    0.03093511 51.90874   101.6511   105.421    208.9474   211.613    79.04287   186.8249   2.598957   0.0176604  0.0000170  1.038374   1.017807   -9999      0.07465326 7023.931  
7321.5     8.75       9.293629   8.766935   63.14954   0.0322191  52.07821   102.1101   107.3952   208.9259   211.6285   89.79502   187.0227   2.596838   0.01720034 0.0000141  1.074536   1.022712   -9999      0.06283089 7024.131  
7322       8.75       9.293603   8.766774   64.71798   0.03266762 52.14964   103.4758   109.4484   208.5462   211.7245   90.08556   186.914    2.596098   0.009958534 0.0000101  1.087113   1.018323   -9999      0.05697923 7024.331  
7322.5     8.75       9.293655   8.767014   62.7061    0.03258822 52.12645   104.5272   110.8662   208.5462   211.7184   76.48561   187.5954   2.59623    0.006871319 0.0000105  1.081786   1.016771   -9999      0.05696869 7024.531  
7323       8.75       9.293642   8.766802   63.42671   0.03149273 52.02661   104.9983   111.3086   208.7938   211.8729   93.96027   187.5977   2.598037   0.004357316 0.0000130  1.067935   1.017403   -9999      0.05885748 7024.73   
7323.5     8.75       9.293632   8.766792   63.38391   0.03031934 51.89967   105.2441   111.9099   208.9512   211.4946   96.40611   185.1238   2.599973   0.003788439 0.0000142  1.100812   1.017034   -9999      0.05967731 7024.93   
7324       8.75       9.293639   8.767029   64.03079   0.02954513 51.79071   105.2377   112.9621   208.8456   211.9048   95.60702   184.131    2.601251   0.004003588 0.0000143  1.129261   1.015701   -9999      0.05987836 7025.129  
7324.5     8.75       9.293677   8.766836   63.28881   0.02883609 51.71889   105.1638   113.4641   208.8456   211.9073   86.88905   184.3159   2.60242    0.004541164 0.0000132  1.141738   1.017339   -9999      0.05709025 7025.329  
7325       8.75       9.293647   8.766839   63.25157   0.02875488 51.69068   105.5184   113.508    208.9887   211.711    88.72944   184.7639   2.602554   0.004404397 0.0000090  1.115451   1.01402    -9999      0.05465442 7025.528  
7325.5     8.75       9.293653   8.766981   63.48694   0.02900941 51.67863   105.6752   113.2667   209.4169   211.6172   96.98734   184.6904   2.602134   0.003728123 0.0000075  1.076404   1.015017   -9999      0.05156234 7025.727  
7326       8.75       9.293623   8.766888   62.90165   0.0285812  51.64603   105.3045   112.4991   209.2012   211.6873   96.62405   184.974    2.602841   0.003523884 0.0000073  1.086612   1.012213   -9999      0.05073037 7025.926  
7326.5     8.75       9.293633   8.766885   63.76524   0.0280621  51.60183   104.919    111.3035   208.8202   211.4612   89.64967   185.5209   2.603698   0.003721665 0.0000065  1.111091   1.014001   -9999      0.05255937 7026.125  
7327       8.75       9.293679   8.767015   63.4391    0.02796001 51.56586   104.5593   109.899    208.7717   211.2238   80.20528   185.0622   2.603866   0.003544352 0.0000082  1.132688   1.01024    -9999      0.05434918 7026.323  
7327.5     8.75       9.293633   8.766994   63.24559   0.02771061 51.52805   103.8002   108.3431   209.1334   210.9173   89.21381   184.6368   2.604278   0.003004833 0.0000085  1.112711   1.011446   -9999      0.05575062 7026.521  
7328       8.75       9.29367    8.767027   62.72662   0.0272639  51.47853   102.6916   106.8192   209.1334   210.9069   98.0286    184.887    2.605015   0.003448703 0.0000099  1.129988   1.010638   -9999      0.05591479 7026.72   
7328.5     8.75       9.293665   8.766932   63.36342   0.02678273 51.42493   101.7256   105.532    209.0148   210.9285   103.8407   185.7284   2.605808   0.004217993 0.0000129  1.082554   1.011588   -9999      0.055408   7026.918  
7329       8.75       9.293679   8.766792   63.20007   0.02651455 51.36743   101.3701   104.6343   208.9075   211.1287   102.2908   185.7766   2.606251   0.004968233 0.0000124  1.079404   1.012666   -9999      0.05353333 7027.117  
7329.5     8.75       9.293621   8.766885   63.44458   0.02602304 51.28286   101.6337   104.0636   208.9368   211.2818   91.63543   186.1369   2.607062   0.005648674 0.0000118  1.112032   1.011437   -9999      0.0507103  7027.315  
