~Version
 VERS              .         3.0                           : CWLS LOG ASCII STANDARD - VERSION 3.0
 WRAP              .         NO                            : ONE LINE PER DEPTH STEP
 DLM               .         SPACE                         : DELIMITING CHARACTER(SPACE TAB OR COMMA)
~Well Information
#_______________________________________________________________________________
#
#PARAMETER_NAME    .UNIT     VALUE                         : DESCRIPTION
#_______________________________________________________________________________
STRT               .ft       5000                          : First reference value
STOP               .ft       6000                          : Last reference value
STEP               .ft       0.5                           : Step increment
NULL               .         -9999                         : Missing value
COMP               .         University of Utah            : Company
WELL               .         Forge 16A(78)-32              : Well name
FLD                .         Wildcat                       : Field
LOC                .                                       : Location
SRVC               .         Schlumberger                  : Service Company
CTRY               .         US                            : Country
STAT               .         Utah                          : State
CNTY               .         Beaver                        : County
API                .                                       : API NUMBER
DATE               .         26-Dec-2020                   : Service Date
LATI               .         38° 30' 14.447" N             : Latitude
LONG               .         112° 53' 47.066" W            : Longitude
GDAT               .                                       : Geodetic Datum
APD                .ft       32                            : Elevation of Depth Reference (LMF) Above Permanent Datum
BHS                .         OPEN                          : Borehole Status (Open or Cased Hole)
BHT                .degF     270                           : Bottom Hole Temperature
BLI                .ft       -999.25                       : Bottom Log Interval
BS                 .in       8.75                          : Bit Size
CBDR               .ft       5132                          : Casing Bottom of Driller
CBLO               .ft       5110                          : Logger Casing Shoe Depth
CSIZ               .in       9.625                         : Current Casing Size
CWEI               .lbm/ft   40                            : Casing Weight
COUNTRY            .         USA                           : Country
DFD                .lbm/gal  9                             : Drilling Fluid Density
DFT                .         WBM                           : Drilling Fluid Type
DLAB               .         26-Dec-2020                   : Date Logger At Bottom
EDF                .ft       5434.5                        : Elevation of Drill Floor
EGL                .ft       5403.5                        : Elevation of Ground Level
EKB                .ft       5435.5                        : Elevation of Kelly Bushing
EPD                .ft       5403.5                        : Elevation of Permanent Datum (PDAT) above Mean Sea Level
LMF                .         KB                            : Logging Measured From (Name of Logging Elevation Reference)
LUL                .         Fort Morgan, CO               : Logging Unit Location
LUN                .         2801                          : Logging Unit Number
MCST               .degF     68                            : Mudcake Sample Temperature
MFST               .degF     68                            : Mud Filtrate Sample Temperature
MRT                .degF     322                           : Maximum Recorded Temperature
MST                .degF     68                            : Mud Sample Temperature
ORIGINALWELLNAME   .         Forge 16A(78)-32              : 
PDAT               .         GL                            : Permanent Datum
PRODUCER-CODE      .         440                           : 
PRODUCER-NAME      .         Schlumberger                  : 
RMB                .ohm.m    0.05403042                    : Resistivity of Mud at Bottom Hole Temperature
RMCS               .ohm.m    -999.25                       : Resistivity of Mud Cake Sample
RMFS               .ohm.m    0.15                          : Resistivity of Mud Filtrate Sample
RMS                .ohm.m    0.2                           : Resistivity of Mud Sample
RUN                .         5B                            : Run Number
TDD                .ft       10987                         : Driller Total Depth
TDL                .ft       10987                         : Logger Total Depth
TLAB               .         17_37_17                      : Time Logger At Bottom
TLI                .ft       -999.25                       : Top Log Interval
UWI                .         0000000000                    : UNIQUE WELL ID
~Parameter Information Block
#_______________________________________________________________________________
#
#PARAMETER_NAME    .UNIT     VALUE                         : DESCRIPTION
#_______________________________________________________________________________
SET                .         ThruBitDP_Aniso_5000ft-6000ft : 
TLFamily_BS_RM     .         Bit Size                      : 
TLFamily_C1_13     .         Caliper                       : 
TLFamily_C1_24     .         Caliper                       : 
TLFamily_DEVI      .         Hole Deviation                : 
TLFamily_DPHI      .         Density Porosity              : 
TLFamily_DTCO_MPS_final .    Compressional Slowness        : 
TLFamily_DTSH_FAST .         Fast Shear Slowness           : 
TLFamily_DTSH_SLOW .         Slow Shear Slowness           : 
TLFamily_FSA_TOH_REF0_ERRMINUS .        Fast Shear Azimuth            : 
TLFamily_FSA_TOH_REF0_ERRPLUS .         Fast Shear Azimuth            : 
TLFamily_FSA_TOH_REF0_OVERALL .         Fast Shear Azimuth            : 
TLFamily_GR_TMG    .         Gamma Ray                     : 
TLFamily_MAXXENE_OVERALL .   Acoustic Energy               : 
TLFamily_MINXENE_OVERALL .   Acoustic Energy               : 
TLFamily_PR_FAST   .         Poisson Ratio (Dynamic)       : 
TLFamily_RB_TBDS   .         Relative Bearing              : 
TLFamily_SENSOR_AZIM_QCI .   Sensor Azimuth                : 
TLFamily_SLOANI    .         Acoustic Anisotropy           : 
TLFamily_TDEP      .         Measured Depth                : 
TLFamily_TIMANI    .         Acoustic Anisotropy           : 
TLFamily_TNPH      .         Thermal Neutron Porosity      : 
TLFamily_TW_B_L10  .         Travel Time                   : 
TLFamily_TW_E_L10  .         Travel Time                   : 
TLFamily_VPVS_FAST .         VpVs (Compressional To Shear) Ratio: 
~Curve Information
#_______________________________________________________________________________
#
#LOGNAME           .UNIT     LOG_ID                        : DESCRIPTION
#_______________________________________________________________________________
TDEP               .ft                                     : Measured Depth {F}
BS_RM              .in                                     : Bit Size {F}
C1_13              .in                                     : Caliper Section 1, Pads 1-3 {F}
C1_24              .in                                     : Caliper Section 1, Pads 2-4 {F}
DEVI               .deg                                    : Hole Deviation {F}
DPHI               .ft3/ft3                                : Density Porosity {F}
DTCO_MPS_final     .us/ft                                  : Compressional slowness {F}
DTSH_FAST          .us/ft                                  : Fast Shear Slowness {F}
DTSH_SLOW          .us/ft                                  : Slow Shear Slowness {F}
FSA_TOH_REF0_ERRMINUS .deg                                 : Fast shear azimuth error minus(TOH REF0) - swapped {F}
FSA_TOH_REF0_ERRPLUS .deg                                  : Fast shear azimuth error plus(TOH REF0) - swapped {F}
FSA_TOH_REF0_OVERALL .deg                                  : Fast shear azimuth(TOH REF0) - overall - swapped {F}
GR_TMG             .gAPI                                   : Gamma Ray {F}
MAXXENE_OVERALL    .%                                      : Maximum cross energy - overall {F}
MINXENE_OVERALL    .%                                      : Minimum cross energy - overall {F}
PR_FAST            .unitless                               : Possion's Ratio {F}
RB_TBDS            .deg                                    : TBDS Relatvie Bearing 6inch {F}
SENSOR_AZIM_QCI    .deg                                    : Tool azimuth for input QC {F}
SLOANI             .unitless                               : Slowness-based anisotropy {F}
TIMANI             .unitless                               : Time-based anisotropy {F}
TNPH               .ft3/ft3                                : Thermal Neutron Porosity (Ratio Method) in Selected Lithology {F}
TW_B_L10           .us                                     : Time window begin - packed {F}
TW_E_L10           .us                                     : Time window end - packed {F}
VPVS_FAST          .unitless                               : VpVs Ratio {F}
~Ascii
# ...
5790.5     8.75       9.374019   9.015913   1.896831   0.03145573 52.02704   97.74033   97.74033   -89.14941  -68.62491  -78.88716  159.5968   2.612016   1.580633   0.3023174  111.4074   106.8696   0          0.007525988 0.05739379 1050.075   2300.075   1.878645  
5791       8.75       9.374045   9.015812   1.854427   0.03134303 52.02404   97.66142   97.66142   -89.16043  -69.05861  -79.10952  155.9546   2.678144   1.583452   0.3019031  111.4074   107.4599   0          0.007748289 0.05931941 1048.164   2298.164   1.877237  
5791.5     8.75       9.374077   9.016797   1.827035   0.03131514 52.04574   97.54957   97.54957   -89.11018  -68.82919  -78.96968  168.8379   2.722446   1.581662   0.301036   111.4074   108.0114   0          0.008026962 0.06053379 1046.273   2296.273   1.874305  
5792       8.75       9.374781   9.019381   1.896568   0.03185758 52.11993   97.54443   97.54443   -88.56519  -67.87834  -78.22176  150.2396   2.772468   1.592385   0.3002121  111.4074   108.4868   0          0.008310248 0.06249295 1044.41    2294.41    1.871538  
5792.5     8.75       9.376483   9.019557   1.65002    0.03310544 52.23981   97.66985   97.66985   -87.61289  -67.04781  -77.33035  155.7609   2.787266   1.57866    0.2996449  111.4074   108.9308   0          0.008515842 0.06099364 1042.567   2292.566   1.869644  
5793       8.75       9.376372   9.019495   1.762373   0.0340334  52.36648   97.87424   97.87424   -86.59601  -66.62877  -76.61239  160.8949   2.79709    1.55257    0.2994587  111.4074   109.3407   0          0.008733685 0.06087455 1040.804   2290.804   1.869025  
5793.5     8.75       9.376366   9.019728   1.827177   0.03494185 52.47354   98.15955   98.15955   -85.39539  -66.32716  -75.86127  173.1968   2.815056   1.521857   0.299946   111.4074   109.73     0          0.008876232 0.06009444 1039.202   2289.202   1.870648  
5794       8.75       9.376386   9.01958    1.704618   0.03549093 52.54419   98.46066   98.46066   -84.54243  -65.99676  -75.26959  163.1712   2.818647   1.501215   0.3009052  111.4074   110.1134   0          0.008971883 0.06196736 1037.86    2287.86    1.873864  
5794.5     8.75       9.376335   9.019606   1.792037   0.03578484 52.55809   98.60133   98.60133   -83.64442  -65.1791   -74.41176  176.9747   2.795288   1.487186   0.3015514  111.4074   110.4787   0          0.008944635 0.06165927 1036.879   2286.879   1.876045  
5795       8.75       9.376369   9.020396   1.883569   0.03517391 52.50489   98.49178   98.49178   -82.76701  -64.3825   -73.57475  151.1113   2.795762   1.477154   0.3014965  111.4074   110.7784   0          0.008932711 0.06202595 1036.218   2286.218   1.875859  
5795.5     8.75       9.376381   9.021748   1.884212   0.03428063 52.4116    98.18757   98.18757   -81.90429  -63.77546  -72.83987  155.7609   2.815646   1.466541   0.3007654  122.943    111.0379   0          0.009100066 0.06085334 1035.801   2285.801   1.873394  
5796       8.75       9.376447   9.021858   1.855196   0.03352853 52.31784   97.90918   97.90918   -81.06039  -63.30912  -72.18475  153.2424   2.819292   1.442731   0.3001798  111.4074   111.2199   0          0.009168527 0.06158571 1035.493   2285.493   1.87143   
5796.5     8.75       9.376423   9.021927   1.92126    0.03300126 52.24075   97.71537   97.71537   -80.53277  -62.99696  -71.76486  156.6326   2.818495   1.434632   0.2998961  88.62856   111.3361   0          0.009127071 0.06185358 1035.299   2285.299   1.870482  
5797       8.75       9.376453   9.021798   1.872721   0.03251214 52.18098   97.49456   97.49456   -80.25966  -62.79963  -71.52965  151.2275   2.810447   1.440531   0.2992686  111.4074   111.4315   0          0.009093739 0.06191414 1035.246   2285.246   1.868392  
5797.5     8.75       9.376474   9.021809   1.837675   0.03219151 52.14207   97.38836   97.38836   -80.62134  -62.88702  -71.75418  150.5302   2.775687   1.449747   0.299075   111.4074   111.5042   0          0.009072537 0.06202628 1035.408   2285.408   1.86775   
5798       8.75       9.376477   9.022354   1.731686   0.03208545 52.13146   97.36834   97.36834   -81.24587  -63.07227  -72.15907  147.8566   2.739022   1.468416   0.2990738  94.50788   111.5323   0          0.008722771 0.06271903 1035.736   2285.736   1.867746  
5798.5     8.75       9.376481   9.022383   2.035031   0.03223269 52.1562    97.33493   97.33648   -82.29774  -63.59701  -72.94737  149.2225   2.738608   1.501007   0.2986126  111.4074   111.4978   0.0000159  0.008625179 0.06410839 1036.134   2286.134   1.86622   
5799       8.75       9.376431   9.02242    1.848483   0.03279145 52.21584   97.45547   97.47429   -83.99747  -64.11417  -74.05582  142.248    2.673212   1.545426   0.2986661  94.50788   111.3255   0.0001931128 0.008510591 0.06447704 1036.53    2286.53    1.866397  
5799.5     8.75       9.376437   9.022541   1.782659   0.03342724 52.2985    97.70583   97.79019   -85.27379  -64.46236  -74.86807  157.272    2.63299    1.57323    0.2992207  111.4074   110.9849   0.0008630953 0.008425993 0.06325688 1036.867   2286.867   1.868234  
5800       8.75       9.376412   9.022548   1.934747   0.03417154 52.38893   98.01891   98.15801   -86.71416  -65.25494  -75.98455  161.8051   2.628252   1.598745   0.3000469  111.4074   110.4301   0.001418099 0.008383392 0.06253071 1037.054   2287.054   1.870985  
5800.5     8.75       9.376457   9.022466   1.925303   0.03501698 52.45635   98.34962   98.43399   -88.26316  -66.11788  -77.19052  167.2879   2.589679   1.607571   0.3012082  102.9577   109.659    0.0008574479 0.008292154 0.0621951  1037.1     2287.1     1.874885  
5801       8.75       9.376486   9.022497   1.986683   0.03492061 52.4677    98.54152   98.56034   -89.96672  -67.04343  -78.50507  161.8054   2.536106   1.597279   0.302168   111.4074   108.7475   0.0001909847 0.008027928 0.06124607 1037.136   2287.136   1.878137  
5801.5     8.75       9.376491   9.022523   2.096682   0.0344757  52.43607   98.53958   98.54112   -91.68443  -68.01592  -79.85017  158.5216   2.494699   1.602781   0.3024899  102.4761   107.7919   0.0000156  0.007824156 0.06129487 1037.241   2287.241   1.879233  
5802       8.75       9.376405   9.022487   2.107484   0.03420188 52.39441   98.41856   98.41856   -93.68391  -68.95361  -81.31876  162.154    2.454265   1.608321   0.3022504  106.9418   106.9271   0          0.007543845 0.0627097  1037.424   2287.424   1.878417  
5802.5     8.75       9.376434   9.022555   1.746426   0.03387763 52.35783   98.33144   98.33144   -94.51247  -69.53284  -82.02266  161.1371   2.434179   1.608569   0.3021472  102.4761   106.2513   0          0.00714227 0.06355044 1037.674   2287.674   1.878066  
5803       8.75       9.376433   9.022802   1.792316   0.03355873 52.34268   98.29825   98.29825   -96.17888  -70.28624  -83.23256  163.704    2.400209   1.60116    0.3021205  111.4074   105.8342   0          0.006810409 0.06184873 1038.027   2288.027   1.877975  
5803.5     8.75       9.376398   9.022712   1.87855    0.03396187 52.35773   98.311     98.311     -97.47031  -70.79343  -84.13187  164.9147   2.383845   1.59507    0.3020333  106.9418   105.6678   0          0.006692927 0.06163704 1038.481   2288.481   1.877679  
5804       8.75       9.376349   9.022476   1.776552   0.03417819 52.37863   98.37049   98.37049   -98.75217  -70.64359  -84.69788  156.4874   2.319562   1.598264   0.3021471  111.4074   105.7114   0          0.006280494 0.06147666 1039.014   2289.014   1.878065  
5804.5     8.75       9.37647    9.022489   1.8696     0.03407328 52.3945    98.38268   98.38268   -98.40917  -69.59576  -84.00246  156.8071   2.296634   1.604612   0.3020481  111.4074   105.8887   0          0.005706172 0.0641206  1039.601   2289.602   1.877729  
5805       8.75       9.376437   9.02265    1.818673   0.03436429 52.42166   98.34088   98.34088   -98.06673  -68.95572  -83.51122  151.8862   2.282032   1.608641   0.301526   111.4074   106.1269   0          0.005200365 0.06357896 1040.245   2290.245   1.875959  
5805.5     8.75       9.376447   9.022572   1.910661   0.0346569  52.46729   98.3261    98.3261    -98.33748  -68.0264   -83.18194  157.8533   2.228501   1.627905   0.3009591  111.4074   106.3787   0          0.004750445 0.06384077 1040.914   2290.914   1.874046  
