~Version
 VERS              .         3.0                           : CWLS LOG ASCII STANDARD - VERSION 3.0
 WRAP              .         NO                            : ONE LINE PER DEPTH STEP
 DLM               .         SPACE                         : DELIMITING CHARACTER(SPACE TAB OR COMMA)
~Well Information
#_______________________________________________________________________________
#
#PARAMETER_NAME    .UNIT     VALUE                         : DESCRIPTION
#_______________________________________________________________________________
STRT               .ft       5000                          : First reference value
STOP               .ft       6000                          : Last reference value
STEP               .ft       0.5                           : Step increment
NULL               .         -9999                         : Missing value
COMP               .         University of Utah            : Company
WELL               .         Forge 16A(78)-32              : Well name
FLD                .         Wildcat                       : Field
LOC                .                                       : Location
SRVC               .         Schlumberger                  : Service Company
CTRY               .         US                            : Country
STAT               .         Utah                          : State
CNTY               .         Beaver                        : County
API                .                                       : API NUMBER
DATE               .         26-Dec-2020                   : Service Date
LATI               .         38° 30' 14.447" N             : Latitude
LONG               .         112° 53' 47.066" W            : Longitude
GDAT               .                                       : Geodetic Datum
APD                .ft       32                            : Elevation of Depth Reference (LMF) Above Permanent Datum
BHS                .         OPEN                          : Borehole Status (Open or Cased Hole)
BHT                .degF     270                           : Bottom Hole Temperature
BLI                .ft       -999.25                       : Bottom Log Interval
BS                 .in       8.75                          : Bit Size
CBDR               .ft       5132                          : Casing Bottom of Driller
CBLO               .ft       5110                          : Logger Casing Shoe Depth
CSIZ               .in       9.625                         : Current Casing Size
CWEI               .lbm/ft   40                            : Casing Weight
COUNTRY            .         USA                           : Country
DFD                .lbm/gal  9                             : Drilling Fluid Density
DFT                .         WBM                           : Drilling Fluid Type
DLAB               .         26-Dec-2020                   : Date Logger At Bottom
EDF                .ft       5434.5                        : Elevation of Drill Floor
EGL                .ft       5403.5                        : Elevation of Ground Level
EKB                .ft       5435.5                        : Elevation of Kelly Bushing
EPD                .ft       5403.5                        : Elevation of Permanent Datum (PDAT) above Mean Sea Level
LMF                .         KB                            : Logging Measured From (Name of Logging Elevation Reference)
LUL                .         Fort Morgan, CO               : Logging Unit Location
LUN                .         2801                          : Logging Unit Number
MCST               .degF     68                            : Mudcake Sample Temperature
MFST               .degF     68                            : Mud Filtrate Sample Temperature
MRT                .degF     322                           : Maximum Recorded Temperature
MST                .degF     68                            : Mud Sample Temperature
ORIGINALWELLNAME   .         Forge 16A(78)-32              : 
PDAT               .         GL                            : Permanent Datum
PRODUCER-CODE      .         440                           : 
PRODUCER-NAME      .         Schlumberger                  : 
RMB                .ohm.m    0.05403042                    : Resistivity of Mud at Bottom Hole Temperature
RMCS               .ohm.m    -999.25                       : Resistivity of Mud Cake Sample
RMFS               .ohm.m    0.15                          : Resistivity of Mud Filtrate Sample
RMS                .ohm.m    0.2                           : Resistivity of Mud Sample
RUN                .         5B                            : Run Number
TDD                .ft       10987                         : Driller Total Depth
TDL                .ft       10987                         : Logger Total Depth
TLAB               .         17_37_17                      : Time Logger At Bottom
TLI                .ft       -999.25                       : Top Log Interval
UWI                .         0000000000                    : UNIQUE WELL ID
~Parameter Information Block
#_______________________________________________________________________________
#
#PARAMETER_NAME    .UNIT     VALUE                         : DESCRIPTION
#_______________________________________________________________________________
SET                .         ThruBitDP_Aniso_5000ft-6000ft : 
TLFamily_BS_RM     .         Bit Size                      : 
TLFamily_C1_13     .         Caliper                       : 
TLFamily_C1_24     .         Caliper                       : 
TLFamily_DEVI      .         Hole Deviation                : 
TLFamily_DPHI      .         Density Porosity              : 
TLFamily_DTCO_MPS_final .    Compressional Slowness        : 
TLFamily_DTSH_FAST .         Fast Shear Slowness           : 
TLFamily_DTSH_SLOW .         Slow Shear Slowness           : 
TLFamily_FSA_TOH_REF0_ERRMINUS .        Fast Shear Azimuth            : 
TLFamily_FSA_TOH_REF0_ERRPLUS .         Fast Shear Azimuth            : 
TLFamily_FSA_TOH_REF0_OVERALL .         Fast Shear Azimuth            : 
TLFamily_GR_TMG    .         Gamma Ray                     : 
TLFamily_MAXXENE_OVERALL .   Acoustic Energy               : 
TLFamily_MINXENE_OVERALL .   Acoustic Energy               : 
TLFamily_PR_FAST   .         Poisson Ratio (Dynamic)       : 
TLFamily_RB_TBDS   .         Relative Bearing              : 
TLFamily_SENSOR_AZIM_QCI .   Sensor Azimuth                : 
TLFamily_SLOANI    .         Acoustic Anisotropy           : 
TLFamily_TDEP      .         Measured Depth                : 
TLFamily_TIMANI    .         Acoustic Anisotropy           : 
TLFamily_TNPH      .         Thermal Neutron Porosity      : 
TLFamily_TW_B_L10  .         Travel Time                   : 
TLFamily_TW_E_L10  .         Travel Time                   : 
TLFamily_VPVS_FAST .         VpVs (Compressional To Shear) Ratio: 
~Curve Information
#_______________________________________________________________________________
#
#LOGNAME           .UNIT     LOG_ID                        : DESCRIPTION
#_______________________________________________________________________________
TDEP               .ft                                     : Measured Depth {F}
BS_RM              .in                                     : Bit Size {F}
C1_13              .in                                     : Caliper Section 1, Pads 1-3 {F}
C1_24              .in                                     : Caliper Section 1, Pads 2-4 {F}
DEVI               .deg                                    : Hole Deviation {F}
DPHI               .ft3/ft3                                : Density Porosity {F}
DTCO_MPS_final     .us/ft                                  : Compressional slowness {F}
DTSH_FAST          .us/ft                                  : Fast Shear Slowness {F}
DTSH_SLOW          .us/ft                                  : Slow Shear Slowness {F}
FSA_TOH_REF0_ERRMINUS .deg                                 : Fast shear azimuth error minus(TOH REF0) - swapped {F}
FSA_TOH_REF0_ERRPLUS .deg                                  : Fast shear azimuth error plus(TOH REF0) - swapped {F}
FSA_TOH_REF0_OVERALL .deg                                  : Fast shear azimuth(TOH REF0) - overall - swapped {F}
GR_TMG             .gAPI                                   : Gamma Ray {F}
MAXXENE_OVERALL    .%                                      : Maximum cross energy - overall {F}
MINXENE_OVERALL    .%                                      : Minimum cross energy - overall {F}
PR_FAST            .unitless                               : Possion's Ratio {F}
RB_TBDS            .deg                                    : TBDS Relatvie Bearing 6inch {F}
SENSOR_AZIM_QCI    .deg                                    : Tool azimuth for input QC {F}
SLOANI             .unitless                               : Slowness-based anisotropy {F}
TIMANI             .unitless                               : Time-based anisotropy {F}
TNPH               .ft3/ft3                                : Thermal Neutron Porosity (Ratio Method) in Selected Lithology {F}
TW_B_L10           .us                                     : Time window begin - packed {F}
TW_E_L10           .us                                     : Time window end - packed {F}
VPVS_FAST          .unitless                               : VpVs Ratio {F}
~Ascii
# ...
5666.5     8.75       9.343497   8.917003   1.818075   0.03405883 52.39249   93.41949   94.5743    49.36678   75.03394   62.20036   177.0715   2.420195   1.667218   0.2705728  91.56822   64.61323   0.0122856  0.003694875 0.06650747 1001.73    2251.73    1.78307   
5667       8.75       9.343479   8.916956   1.838022   0.03417327 52.40344   93.99393   94.87228   50.31046   75.64299   62.97672   167.6755   2.479619   1.673585   0.2744918  85.19681   66.21642   0.009301286 0.003323761 0.07064629 1003.974   2253.974   1.79366   
5667.5     8.75       9.343477   8.917212   1.925207   0.03436545 52.45014   95.04002   95.38754   51.03513   76.39992   63.71752   170.1456   2.481791   1.665061   0.2810254  94.50788   67.95007   0.003649801 0.004122256 0.07136254 1006.293   2256.293   1.812007  
5668       8.75       9.343446   8.917139   1.751764   0.03532115 52.52277   95.91586   95.97911   52.40463   78.45079   65.42771   169.419    2.467765   1.669856   0.28586    72.60674   69.54153   0.0006591906 0.00482939 0.07203577 1008.599   2258.599   1.826177  
5668.5     8.75       9.343462   8.917167   1.839875   0.03573152 52.58289   96.35039   96.35492   54.18294   80.48349   67.33321   174.3591   2.471034   1.674219   0.2879124  111.4074   70.85641   0.0000470  0.005620518 0.07094871 1010.821   2260.821   1.832353  
5669       8.75       9.343481   8.917616   1.942583   0.03593453 52.61064   96.51686   96.51702   56.59418   82.66037   69.62727   172.2005   2.517892   1.686978   0.2886349  60.01667   71.89063   0.0000017  0.006272974 0.07038594 1012.858   2262.858   1.83455   
5669.5     8.75       9.343439   8.917774   1.892655   0.03582963 52.61532   96.632     96.634     59.22179   84.73033   71.97606   168.7409   2.606697   1.715882   0.2892971  85.19681   72.86076   0.0000207  0.007182605 0.06967894 1014.651   2264.651   1.836576  
5670       8.75       9.343446   8.917843   1.761892   0.03582241 52.61397   96.78081   96.79057   62.12375   87.54414   74.83395   157.9694   2.661114   1.745698   0.2902314  50.70565   73.93432   0.0001008995 0.007844697 0.06866817 1016.252   2266.252   1.839451  
5670.5     8.75       9.343428   8.917954   1.704437   0.03590304 52.60991   96.88876   96.91425   64.92715   89.49426   77.2107    169.2738   2.737461   1.751648   0.2909398  82.9625    75.32088   0.0002629699 0.00845806 0.06836706 1017.705   2267.705   1.841645  
5671       8.75       9.343388   8.917855   1.801649   0.0356321  52.60534   96.92387   96.98724   67.27246   90.56915   78.92081   173.5843   2.791213   1.737007   0.2912058  72.60674   76.93155   0.0006536746 0.009001594 0.06945822 1018.988   2268.988   1.842472  
5671.5     8.75       9.343414   8.918654   1.688098   0.03578426 52.61689   96.92696   97.047     68.91409   91.41321   80.16365   154.1625   2.837332   1.735462   0.2910948  50.70565   78.51075   0.00123778 0.009406514 0.06957462 1020.114   2270.114   1.842126  
5672       8.75       9.343441   8.919162   1.870755   0.0361127  52.63923   96.89629   97.01469   70.21144   91.90604   81.05874   155.6157   2.837001   1.724509   0.2906552  72.60676   79.78595   0.001221264 0.009623939 0.06998114 1021.112   2271.112   1.840762  
5672.5     8.75       9.343471   8.919128   1.690987   0.03628609 52.64166   96.81085   96.86552   71.32843   92.32541   81.82692   157.4076   2.846475   1.707889   0.2901029  67.42888   80.43755   0.0005645732 0.009897601 0.06851381 1021.883   2271.883   1.839054  
5673       8.75       9.343477   8.919249   1.663671   0.0357636  52.61246   96.67233   96.68313   72.35152   92.88433   82.61793   144.1369   2.849614   1.706437   0.2895793  72.60678   80.25422   0.0001117447 0.01007239 0.06874111 1022.375   2272.375   1.837442  
5673.5     8.75       9.343402   8.920145   1.743494   0.03559815 52.56705   96.49184   96.49265   72.80772   93.43007   83.1189    147.8179   2.839304   1.700801   0.2889771  94.50788   79.28923   0.0000085  0.01014892 0.06859794 1022.586   2272.586   1.835595  
5674       8.75       9.343453   8.920186   1.848229   0.03509761 52.50664   96.35162   96.35162   73.24504   94.19218   83.71861   163.3165   2.806419   1.691754   0.2887943  72.60674   77.72427   0          0.01004829 0.06798609 1022.509   2272.509   1.835037  
5674.5     8.75       9.343461   8.92023    1.699964   0.0344757  52.43451   96.32484   96.32484   73.13821   94.5673    83.85275   166.513    2.787242   1.699675   0.2894518  72.60674   75.85909   0          0.009938528 0.06724004 1022.134   2272.134   1.83705   
5675       8.75       9.343413   8.921594   1.905759   0.03385943 52.37065   96.27145   96.27145   72.71806   95.7261    84.22208   162.2994   2.70347    1.697229   0.2898489  72.60676   74.04531   0          0.009529149 0.06871893 1021.499   2271.499   1.838271  
5675.5     8.75       9.34345    8.922017   1.791612   0.03368733 52.32825   95.96085   95.96085   72.00397   96.71824   84.36111   159.9745   2.591184   1.699393   0.2883968  72.60676   72.57861   0          0.008464463 0.06806862 1020.606   2270.606   1.833825  
5676       8.75       9.343378   8.922323   1.578957   0.03346726 52.29993   95.36297   95.36297   70.84721   96.87101   83.85911   170.2908   2.490072   1.696993   0.2849219  61.6562    71.67906   0          0.007076559 0.06902187 1019.457   2269.458   1.823386  
5676.5     8.75       9.343415   8.922463   1.764161   0.03325038 52.28209   94.78693   94.78693   69.36024   96.60392   82.98208   163.704    2.429204   1.693978   0.2813667  111.4074   71.37674   0          0.005514541 0.06753363 1018.158   2268.158   1.812991  
5677       8.75       9.343465   8.922445   1.892655   0.03335875 52.2725    94.43855   94.43855   67.65578   95.93777   81.79678   151.8379   2.387628   1.695724   0.2791534  111.4074   71.66069   0          0.003976421 0.06916823 1016.781   2266.781   1.806659  
5677.5     8.75       9.343467   8.922544   1.658158   0.03323029 52.25541   94.1785    94.1785    66.64074   95.34223   80.99149   145.4446   2.391649   1.687096   0.2775986  61.6562    72.34695   0          0.002769751 0.0678515  1015.355   2265.355   1.802273  
5678       8.75       9.343454   8.922492   1.919324   0.03288971 52.22789   93.94894   93.94894   65.58707   94.11801   79.85254   160.5558   2.397511   1.670352   0.2763644  88.62856   73.30268   0          0.001288309 0.06760921 1013.956   2263.956   1.798827  
5678.5     8.75       9.343472   8.922589   1.772937   0.03274666 52.20111   93.79778   93.79778   64.42494   92.94038   78.68266   143.1199   2.416595   1.661223   0.2756524  88.62856   74.40147   0          -0.3335921 0.06668248 1012.633   2262.633   1.796854  
5679       8.75       9.343499   8.922635   1.896704   0.03257457 52.17776   93.72237   93.72237   63.4114    91.80478   77.60809   144.9506   2.468993   1.667677   0.2754203  88.62856   75.55175   0          -0.3324264 0.06485405 1011.406   2261.406   1.796213  
5679.5     8.75       9.343415   8.922539   1.772682   0.03229815 52.16772   93.72412   93.72621   62.61961   91.0603    76.83996   155.4703   2.534953   1.669695   0.2755577  82.9625    76.83467   0.0000223  -0.3312841 0.06509721 1010.265   2260.265   1.796592  
5680       8.75       9.343436   8.92261    1.682935   0.03249148 52.19479   93.81762   93.84306   62.52523   90.58883   76.55703   157.9405   2.578968   1.662201   0.2758684  94.50788   78.258     0.0002711706 -0.3301544 0.06639472 1009.261   2259.261   1.797452  
5680.5     8.75       9.343455   8.922684   1.871264   0.03314244 52.26526   94.09543   94.20947   63.75105   90.5089    77.12997   162.3865   2.723338   1.655798   0.2769089  50.70565   79.82326   0.001211191 -0.3287643 0.06872539 1008.452   2258.452   1.800344  
5681       8.75       9.34347    8.922627   1.690987   0.03392662 52.36541   94.39802   94.58604   65.23872   90.28098   77.75985   136.9301   2.898648   1.646261   0.2777433  94.50788   81.45463   0.001989865 -0.3278337 0.07039497 1007.885   2257.885   1.802679  
5681.5     8.75       9.343455   8.922511   2.070503   0.0347303  52.48969   94.33831   94.45235   66.56631   90.62524   78.59578   126.2652   3.021415   1.648966   0.275804   77.78464   82.97211   0.001208155 -0.3271064 0.06964363 1007.613   2257.613   1.797273  
