~Version
 VERS              .         3.0                           : CWLS LOG ASCII STANDARD - VERSION 3.0
 WRAP              .         NO                            : ONE LINE PER DEPTH STEP
 DLM               .         SPACE                         : DELIMITING CHARACTER(SPACE TAB OR COMMA)
~Well Information
#_______________________________________________________________________________
#
#PARAMETER_NAME    .UNIT     VALUE                         : DESCRIPTION
#_______________________________________________________________________________
STRT               .ft       5000                          : First reference value
STOP               .ft       6000                          : Last reference value
STEP               .ft       0.5                           : Step increment
NULL               .         -9999                         : Missing value
COMP               .         University of Utah            : Company
WELL               .         Forge 16A(78)-32              : Well name
FLD                .         Wildcat                       : Field
LOC                .                                       : Location
SRVC               .         Schlumberger                  : Service Company
CTRY               .         US                            : Country
STAT               .         Utah                          : State
CNTY               .         Beaver                        : County
API                .                                       : API NUMBER
DATE               .         26-Dec-2020                   : Service Date
LATI               .         38° 30' 14.447" N             : Latitude
LONG               .         112° 53' 47.066" W            : Longitude
GDAT               .                                       : Geodetic Datum
APD                .ft       32                            : Elevation of Depth Reference (LMF) Above Permanent Datum
BHS                .         OPEN                          : Borehole Status (Open or Cased Hole)
BHT                .degF     270                           : Bottom Hole Temperature
BLI                .ft       -999.25                       : Bottom Log Interval
BS                 .in       8.75                          : Bit Size
CBDR               .ft       5132                          : Casing Bottom of Driller
CBLO               .ft       5110                          : Logger Casing Shoe Depth
CSIZ               .in       9.625                         : Current Casing Size
CWEI               .lbm/ft   40                            : Casing Weight
COUNTRY            .         USA                           : Country
DFD                .lbm/gal  9                             : Drilling Fluid Density
DFT                .         WBM                           : Drilling Fluid Type
DLAB               .         26-Dec-2020                   : Date Logger At Bottom
EDF                .ft       5434.5                        : Elevation of Drill Floor
EGL                .ft       5403.5                        : Elevation of Ground Level
EKB                .ft       5435.5                        : Elevation of Kelly Bushing
EPD                .ft       5403.5                        : Elevation of Permanent Datum (PDAT) above Mean Sea Level
LMF                .         KB                            : Logging Measured From (Name of Logging Elevation Reference)
LUL                .         Fort Morgan, CO               : Logging Unit Location
LUN                .         2801                          : Logging Unit Number
MCST               .degF     68                            : Mudcake Sample Temperature
MFST               .degF     68                            : Mud Filtrate Sample Temperature
MRT                .degF     322                           : Maximum Recorded Temperature
MST                .degF     68                            : Mud Sample Temperature
ORIGINALWELLNAME   .         Forge 16A(78)-32              : 
PDAT               .         GL                            : Permanent Datum
PRODUCER-CODE      .         440                           : 
PRODUCER-NAME      .         Schlumberger                  : 
RMB                .ohm.m    0.05403042                    : Resistivity of Mud at Bottom Hole Temperature
RMCS               .ohm.m    -999.25                       : Resistivity of Mud Cake Sample
RMFS               .ohm.m    0.15                          : Resistivity of Mud Filtrate Sample
RMS                .ohm.m    0.2                           : Resistivity of Mud Sample
RUN                .         5B                            : Run Number
TDD                .ft       10987                         : Driller Total Depth
TDL                .ft       10987                         : Logger Total Depth
TLAB               .         17_37_17                      : Time Logger At Bottom
TLI                .ft       -999.25                       : Top Log Interval
UWI                .         0000000000                    : UNIQUE WELL ID
~Parameter Information Block
#_______________________________________________________________________________
#
#PARAMETER_NAME    .UNIT     VALUE                         : DESCRIPTION
#_______________________________________________________________________________
SET                .         ThruBitDP_Aniso_5000ft-6000ft : 
TLFamily_BS_RM     .         Bit Size                      : 
TLFamily_C1_13     .         Caliper                       : 
TLFamily_C1_24     .         Caliper                       : 
TLFamily_DEVI      .         Hole Deviation                : 
TLFamily_DPHI      .         Density Porosity              : 
TLFamily_DTCO_MPS_final .    Compressional Slowness        : 
TLFamily_DTSH_FAST .         Fast Shear Slowness           : 
TLFamily_DTSH_SLOW .         Slow Shear Slowness           : 
TLFamily_FSA_TOH_REF0_ERRMINUS .        Fast Shear Azimuth            : 
TLFamily_FSA_TOH_REF0_ERRPLUS .         Fast Shear Azimuth            : 
TLFamily_FSA_TOH_REF0_OVERALL .         Fast Shear Azimuth            : 
TLFamily_GR_TMG    .         Gamma Ray                     : 
TLFamily_MAXXENE_OVERALL .   Acoustic Energy               : 
TLFamily_MINXENE_OVERALL .   Acoustic Energy               : 
TLFamily_PR_FAST   .         Poisson Ratio (Dynamic)       : 
TLFamily_RB_TBDS   .         Relative Bearing              : 
TLFamily_SENSOR_AZIM_QCI .   Sensor Azimuth                : 
TLFamily_SLOANI    .         Acoustic Anisotropy           : 
TLFamily_TDEP      .         Measured Depth                : 
TLFamily_TIMANI    .         Acoustic Anisotropy           : 
TLFamily_TNPH      .         Thermal Neutron Porosity      : 
TLFamily_TW_B_L10  .         Travel Time                   : 
TLFamily_TW_E_L10  .         Travel Time                   : 
TLFamily_VPVS_FAST .         VpVs (Compressional To Shear) Ratio: 
~Curve Information
#_______________________________________________________________________________
#
#LOGNAME           .UNIT     LOG_ID                        : DESCRIPTION
#_______________________________________________________________________________
TDEP               .ft                                     : Measured Depth {F}
BS_RM              .in                                     : Bit Size {F}
C1_13              .in                                     : Caliper Section 1, Pads 1-3 {F}
C1_24              .in                                     : Caliper Section 1, Pads 2-4 {F}
DEVI               .deg                                    : Hole Deviation {F}
DPHI               .ft3/ft3                                : Density Porosity {F}
DTCO_MPS_final     .us/ft                                  : Compressional slowness {F}
DTSH_FAST          .us/ft                                  : Fast Shear Slowness {F}
DTSH_SLOW          .us/ft                                  : Slow Shear Slowness {F}
FSA_TOH_REF0_ERRMINUS .deg                                 : Fast shear azimuth error minus(TOH REF0) - swapped {F}
FSA_TOH_REF0_ERRPLUS .deg                                  : Fast shear azimuth error plus(TOH REF0) - swapped {F}
FSA_TOH_REF0_OVERALL .deg                                  : Fast shear azimuth(TOH REF0) - overall - swapped {F}
GR_TMG             .gAPI                                   : Gamma Ray {F}
MAXXENE_OVERALL    .%                                      : Maximum cross energy - overall {F}
MINXENE_OVERALL    .%                                      : Minimum cross energy - overall {F}
PR_FAST            .unitless                               : Possion's Ratio {F}
RB_TBDS            .deg                                    : TBDS Relatvie Bearing 6inch {F}
SENSOR_AZIM_QCI    .deg                                    : Tool azimuth for input QC {F}
SLOANI             .unitless                               : Slowness-based anisotropy {F}
TIMANI             .unitless                               : Time-based anisotropy {F}
TNPH               .ft3/ft3                                : Thermal Neutron Porosity (Ratio Method) in Selected Lithology {F}
TW_B_L10           .us                                     : Time window begin - packed {F}
TW_E_L10           .us                                     : Time window end - packed {F}
VPVS_FAST          .unitless                               : VpVs Ratio {F}
~Ascii
# ...
5930       8.75       9.516378   8.833119   2.776569   0.0372928  52.83533   100.2446   100.7734   -25.76154  -13.89525  -19.82839  123.2139   27.54066   4.895911   0.3076742  94.50788   98.1719    0.005261382 0.05397232 0.1083171  1084.848   2334.848   1.897302  
5930.5     8.75       9.51885    8.815444   2.798015   0.03765577 52.87742   100.1396   100.7233   -25.09823  -13.26773  -19.18298  134.4019   28.17882   4.875221   0.3066888  102.4761   97.33515   0.005812249 0.0548223  0.1107669  1083.289   2333.289   1.893806  
5931       8.75       9.519586   8.807513   2.674811   0.0379897  52.99108   100.1829   100.5158   -24.2782   -12.79107  -18.53463  136.1455   28.41797   4.709949   0.3057667  98.492     96.7279    0.003316813 0.05501647 0.1114526  1082.167   2332.167   1.890562  
5931.5     8.75       9.527905   8.808044   2.563364   0.04033459 53.15538   100.2807   100.3543   -23.30996  -12.40633  -17.85814  111.0088   28.75175   4.599237   0.3046189  102.4761   96.44845   0.0007332981 0.05546369 0.1077733  1081.86    2331.86    1.886558  
5932       8.75       9.544044   8.820052   2.62114    0.04162479 53.2261    100.4321   100.4382   -22.75475  -12.15896  -17.45686  116.8207   29.18364   4.641877   0.3047163  94.50788   96.4817    0.0000601  0.05607221 0.1092025  1081.605   2331.605   1.886896  
5932.5     8.75       9.55107    8.83424    2.483505   0.03905088 53.17926   100.4569   100.4569   -22.64618  -11.96231  -17.30424  104.1796   29.65692   4.81944    0.305327   94.50788   96.75626   0          0.05686283 0.1100321  1080.821   2330.821   1.889023  
5933       8.75       9.551442   8.856442   2.996876   0.03974721 53.20613   100.2535   100.2535   -23.26775  -12.04488  -17.65631  104.848    29.81312   5.052106   0.3039516  111.4074   97.1956    0          0.05713294 0.111052   1079.65    2329.65    1.884248  
5933.5     8.75       9.544677   8.860421   2.68903    0.04082905 53.40493   100.0576   100.058    -23.60716  -12.28639  -17.94677  88.26936   29.85446   5.077473   0.3008163  100.018    97.65192   0.0000034  0.05737244 0.1086915  1078.45    2328.45    1.873565  
5934       8.75       9.539877   8.861154   3.058968   0.04431993 53.72498   100.0372   100.0445   -23.8655   -12.49651  -18.18101  65.23943   29.71908   5.099917   0.2973356  111.4074   98.0817    0.0000735  0.05728137 0.1092981  1077.368   2327.368   1.862024  
5934.5     8.75       9.539927   8.865615   2.886247   0.04692549 54.00892   99.99964   100.057    -24.07176  -12.75665  -18.4142   57.92603   29.5647    5.085876   0.2940859  91.56822   98.43361   0.000573873 0.0571867  0.1069141  1076.074   2326.074   1.851539  
5935       8.75       9.535512   8.86278    2.714826   0.04726794 54.16228   99.80849   100.0126   -24.43734  -13.37587  -18.9066   61.7522    29.3351    5.15274    0.2913008  88.62856   98.71727   0.002042614 0.05689339 0.1047031  1074.704   2324.704   1.842768  
5935.5     8.75       9.508351   8.858288   2.950144   0.04785272 54.22021   99.62778   99.93729   -24.75879  -14.20725  -19.48302  68.58127   29.19114   5.163225   0.2895871  91.56822   98.97575   0.003101838 0.05682343 0.09957776 1073.037   2323.037   1.837466  
5936       8.75       9.498162   8.877251   2.84197    0.04816425 54.1665    99.38816   99.63129   -25.18682  -14.90319  -20.04501  62.76935   28.8427    5.265389   0.2887377  94.50788   99.21885   0.002443238 0.05642417 0.1005516  1071.891   2321.891   1.834864  
5936.5     8.75       9.498369   8.892657   3.113246   0.04596546 53.95189   98.70404   99.05248   -26.02486  -15.60268  -20.81377  74.16079   28.10263   5.290451   0.2869627  111.4074   99.46797   0.00352395 0.05539827 0.1009921  1070.764   2320.764   1.829483  
5937       8.75       9.498282   8.89873    2.761042   0.04329878 53.60822   97.61432   98.24499   -27.32758  -16.52278  -21.92518  74.82913   27.79323   5.391384   0.2840748  111.4074   99.68126   0.006440017 0.05500662 0.1063119  1069.333   2319.333   1.820883  
5937.5     8.75       9.498415   8.898734   3.460152   0.04145458 53.10596   96.68879   97.57208   -28.46922  -17.46181  -22.96551  68.43603   26.94767   5.271228   0.2840046  102.4761   99.80688   0.009093887 0.05351958 0.1047343  1067.954   2317.954   1.820677  
5938       8.75       9.498559   8.916021   3.131724   0.0326721  52.50658   96.01894   97.32748   -29.3117   -18.56053  -23.93611  56.14367   26.21097   5.00199    0.2867035  94.50788   99.78578   0.01353579 0.05218389 0.1060092  1066.611   2316.611   1.828703  
5938.5     8.75       9.498534   8.889719   3.199824   0.03123697 52.13425   95.6773    97.07438   -29.74059  -19.56903  -24.65481  55.44622   25.32631   4.723679   0.2888509  91.56822   99.6132    0.01449616 0.0503706  0.1089552  1065.508   2315.508   1.83521   
5939       8.75       9.498575   8.87376    3.252053   0.0312715  52.04734   95.58743   96.41039   -30.35993  -20.5755   -25.46771  58.8947    24.43245   4.60343    0.289288   94.50788   99.35886   0.008572676 0.04832424 0.1109056  1064.593   2314.593   1.836548  
5939.5     8.75       9.498256   8.869513   3.253146   0.03170788 52.10387   95.60455   95.85783   -30.94743  -21.84348  -26.39546  56.88469   23.95397   4.486469   0.2887442  98.492     99.12561   0.002645748 0.04708503 0.1119409  1064.079   2314.08    1.834884  
5940       8.75       9.520029   8.870335   3.336808   0.03268482 52.25384   95.80991   95.86219   -31.21609  -23.22727  -27.22168  57.15109   23.27968   4.271224   0.2883058  94.50788   99.00999   0.0005454796 0.04549388 0.1045875  1063.949   2313.949   1.833548  
5940.5     8.75       9.539155   8.880884   3.213884   0.03480905 52.48216   96.14808   96.21364   -31.39721  -24.55313  -27.97517  59.47589   22.72103   4.098214   0.2878008  94.50788   99.04357   0.0006816261 0.0440536  0.1043548  1064.199   2314.199   1.832014  
5941       8.75       9.539384   8.882512   3.092153   0.03697635 52.72757   96.79881   96.90303   -31.71922  -25.76868  -28.74395  62.42059   21.92945   3.873384   0.2890535  94.50788   99.16755   0.001076061 0.04221058 0.1035877  1064.695   2314.695   1.835829  
5941.5     8.75       9.539158   8.882636   3.512399   0.03833577 52.92736   98.35798   98.4212    -32.05183  -26.87213  -29.46198  61.80065   21.0299    3.584327   0.296209   88.62856   99.25481   0.0006425189 0.04010414 0.1074249  1065.159   2315.159   1.858358  
5942       8.75       9.539117   8.882584   3.288362   0.03964549 53.04417   100.1143   100.1284   -32.2954   -27.34677  -29.82108  59.76649   20.52234   3.471116   0.3048542  94.50788   99.16476   0.0001409728 0.03888061 0.1081693  1065.414   2315.414   1.887376  
5942.5     8.75       9.539085   8.882507   3.324884   0.03938611 53.05014   101.084    101.0891   -32.32006  -27.2526   -29.78633  56.72485   19.43667   3.311216   0.3099373  88.62856   98.80949   0.0000502  0.03667993 0.1096911  1065.734   2315.734   1.905442  
5943       8.75       9.539336   8.882558   3.515683   0.03851278 52.97157   101.5001   101.5477   -32.31295  -27.12032  -29.71664  59.57275   18.80391   3.284041   0.3128413  88.62856   98.1855    0.0004696045 0.0354767  0.1100721  1066.105   2316.105   1.916124  
5943.5     8.75       9.539325   8.882895   3.680023   0.03792179 52.84977   101.6371   101.8595   -32.26429  -26.66639  -29.46534  60.44456   18.22285   3.3601     0.3147078  102.9577   97.37943   0.00218553 0.03453831 0.1132918  1066.54    2316.54    1.923133  
5944       8.75       9.539345   8.882899   3.781487   0.03596242 52.73637   101.7633   102.2216   -32.30074  -26.39187  -29.3463   53.17955   17.78881   3.387069   0.3164188  94.50788   96.50882   0.004493522 0.03398366 0.1110526  1067.139   2317.139   1.929661  
5944.5     8.75       9.539122   8.882896   3.283033   0.03642062 52.70362   102.0721   102.7661   -32.05777  -25.6579   -28.85784  53.66388   17.32349   3.29679    0.3182399  94.50788   95.65772   0.006775787 0.03345064 0.1111766  1068.251   2318.251   1.936718  
5945       8.75       9.539255   8.882838   3.827823   0.03681813 52.71871   101.9493   102.8427   -31.47623  -24.29962  -27.88792  59.28217   16.68414   3.261038   0.3174997  94.50788   94.91217   0.008724374 0.03251065 0.1081213  1069.32    2319.32    1.933836  
