~Version
 VERS              .         2.0                           : CWLS LOG ASCII STANDARD - VERSION 2.0
 WRAP              .         NO                            : ONE LINE PER DEPTH STEP
 DLM               .         SPACE                         : DELIMITING CHARACTER(SPACE TAB OR COMMA)
~Well Information
#_______________________________________________________________________________
#
#PARAMETER_NAME    .UNIT     VALUE                         : DESCRIPTION
#_______________________________________________________________________________
STRT               .ft       6000                          : First reference value
STOP               .ft       10942                         : Last reference value
STEP               .ft       0.5                           : Step increment
NULL               .         -9999                         : Missing value
COMP               .         University of Utah            : Company
WELL               .         Forge 16A(78)-32              : Well name
FLD                .         Wildcat                       : Field
LOC                .                                       : Location
CNTY               .         Beaver                        : County
STAT               .         Utah                          : State
CTRY               .         USA                           : Country
SRVC               .         Schlumberger                  : Service Company
DATE               .         26-Dec-2020                   : Date
UWI                .         0000000000                    : Unique Well ID
APD                .ft       32                            : Elevation of Depth Reference (LMF) Above Permanent Datum
API                .                                       : API NUMBER
BHS                .         OPEN                          : Borehole Status (Open or Cased Hole)
BHT                .degF     270                           : Bottom Hole Temperature
BLI                .ft       -999.25                       : Bottom Log Interval
BS                 .in       8.75                          : Bit Size
CBDR               .ft       5132                          : Casing Bottom of Driller
CBLO               .ft       5110                          : Logger Casing Shoe Depth
CSIZ               .in       9.625                         : Current Casing Size
CWEI               .lbm/ft   40                            : Casing Weight
DFD                .lbm/gal  9                             : Drilling Fluid Density
DFT                .         WBM                           : Drilling Fluid Type
DLAB               .         26-Dec-2020                   : Date Logger At Bottom
EDF                .ft       5434.5                        : Elevation of Drill Floor
EGL                .ft       5403.5                        : Elevation of Ground Level
EKB                .ft       5435.5                        : Elevation of Kelly Bushing
EPD                .ft       5403.5                        : Elevation of Permanent Datum (PDAT) above Mean Sea Level
GDAT               .                                       : Geodetic Datum
LMF                .         KB                            : Logging Measured From (Name of Logging Elevation Reference)
LUL                .         Fort Morgan, CO               : Logging Unit Location
LUN                .         2801                          : Logging Unit Number
LATI               .         38° 30' 14.447" N             : Latitude
LONG               .         112° 53' 47.066" W            : Longitude
MCST               .degF     68                            : Mudcake Sample Temperature
MFST               .degF     68                            : Mud Filtrate Sample Temperature
MRT                .degF     322                           : Maximum Recorded Temperature
MST                .degF     68                            : Mud Sample Temperature
ORIGINALWELLNAME   .         Forge 16A(78)-32              : 
PDAT               .         GL                            : Permanent Datum
PRODUCER-CODE      .         440                           : 
PRODUCER-NAME      .         Schlumberger                  : 
RMB                .ohm.m    0.05403042                    : Resistivity of Mud at Bottom Hole Temperature
RMCS               .ohm.m    -999.25                       : Resistivity of Mud Cake Sample
RMFS               .ohm.m    0.15                          : Resistivity of Mud Filtrate Sample
RMS                .ohm.m    0.2                           : Resistivity of Mud Sample
RUN                .         5B                            : Run Number
TDD                .ft       10987                         : Driller Total Depth
TDL                .ft       10987                         : Logger Total Depth
TLAB               .         17_37_17                      : Time Logger At Bottom
TLI                .ft       -999.25                       : Top Log Interval
~Parameter Information Block
#_______________________________________________________________________________
#
#PARAMETER_NAME    .UNIT     VALUE                         : DESCRIPTION
#_______________________________________________________________________________
SET                .         LQC_SonicFracture             : 
TLFamily_BS_RM     .         Bit Size                      : 
TLFamily_C1_13     .         Caliper                       : 
TLFamily_C1_24     .         Caliper                       : 
TLFamily_DEVI      .         Hole Deviation                : 
TLFamily_DPHI      .         Density Porosity              : 
TLFamily_DTCO_MPS_final .         Compressional Slowness        : 
TLFamily_DTSH_FAST_final .        Fast Shear Slowness           : 
TLFamily_DTSH_SLOW_final .        Slow Shear Slowness           : 
TLFamily_DTST_MLF_FA_R_4 .        Stoneley Slowness             : 
TLFamily_DTST_STM_2 .        Stoneley Slowness             : 
TLFamily_GR_TMG    .         Gamma Ray                     : 
TLFamily_MD        .         Measured Depth                : 
TLFamily_RB        .         Relative Bearing              : 
TLFamily_RHOB_model .        Bulk Density                  : 
TLFamily_STRC_DN_7 .         Reflection Coefficient        : 
TLFamily_STRC_DN_STM_6 .     Reflection Coefficient        : 
TLFamily_STTC_R_5  .         Transmission Coefficient      : 
TLFamily_STTC_R_STM_8 .      Transmission Coefficient      : 
TLFamily_TENS      .         Tension                       : 
TLFamily_TNPH      .         Thermal Neutron Porosity      : 
TLFamily_TVD       .         True Vertical Depth           : 
~Curve Information
#_______________________________________________________________________________
#
#LOGNAME           .UNIT     LOG_ID                        : DESCRIPTION
#_______________________________________________________________________________
MD                 .ft                                     : Measured Depth 
BS_RM              .in                                     : Bit Size 
C1_13              .in                                     : Caliper Section 1, Pads 1-3 
C1_24              .in                                     : Caliper Section 1, Pads 2-4 
DEVI               .deg                                    : Hole Deviation 
DPHI               .ft3/ft3                                : Density Porosity using sandstone matrix 
DTCO_MPS           .us/ft                                  : Compressional slowness 
DTSH_FAST          .us/ft                                  : Fast Shear Slowness 
DTSH_SLOW          .us/ft                                  : Slow Shear Slowness 
DTST               .us/ft                                  : Stoneley slowness 
DTST_STM_2         .us/ft                                  : Modeled Stoneley slowness computed from wavenumber at dominant frequency of source wavelet 
GR_TMG             .gAPI                                   : Gamma Ray 
RB                 .deg                                    : Relative Bearing 
RHOB_model         .g/cm3                                  : Bulk density (g/cc) 
STRC_DN_7          .unitless                               : Down-going reflection coefficient for Stoneley waveform 
STRC_DN_STM_6      .unitless                               : Down-going reflection coefficient for Modeled Stoneley waveform 
STTC_R_5           .unitless                               : Transmission coefficient for Stoneley waveform from receiver array 
STTC_R_STM_8       .unitless                               : Transmission coefficient for Modeled Stoneley waveform from receiver array 
TENS               .lbf                                    : Cable Tension 
TNPH               .ft3/ft3                                : Thermal Neutron Porosity (Ratio Method) in Selected Lithology 
TVD                .ft                                     : True Vertical Depth 
~Ascii
# ...
10270      8.75       9.293655   8.76117    61.53201   0.03289997 52.39839   100.9069   103.6557   212.0721   210.8889   157.9196   181.901    2.595715   0.0009324223 0.0000070  0.9836447  1.009146   -9999      0.04763043 8289.314  
10270.5    8.75       9.293633   8.761267   61.53201   0.03446906 52.49021   100.7898   102.7937   211.8407   210.8791   155.7609   181.901    2.593126   0.002342577 0.0000048  0.9721712  1.009227   -9999      0.05434353 8289.536  
10271      8.75       9.293637   8.76123    62.11586   0.03590058 52.78399   100.6132   101.6305   212.6836   210.7388   164.2852   182.0141   2.590764   0.00323504 0.0000034  1.008274   1.008441   -9999      0.06333652 8289.757  
10271.5    8.75       9.293642   8.761247   61.5027    0.04165398 53.12478   100.2053   100.6219   212.9012   210.2518   150.3365   181.4788   2.581271   0.003640207 0.0000108  1.063353   1.005398   -9999      0.0681558  8289.978  
10272      8.75       9.293649   8.760625   62.0416    0.04129751 53.22715   99.1637    99.78667   212.5316   210.1077   151.5472   181.8465   2.581859   0.003363397 0.0000100  1.029886   1.003419   -9999      0.06015948 8290.198  
10272.5    8.75       9.293605   8.759598   61.15593   0.03958855 53.054     97.58572   98.9194    211.9226   209.7621   147.3917   182.0365   2.584679   0.004155762 0.0000080  0.9951936  1.004973   -9999      0.04943749 8290.419  
10273      8.75       9.293706   8.759635   63.14032   0.03686177 52.74138   96.06549   98.12762   211.7345   209.5723   142.3933   181.9256   2.589178   0.004235841 0.0000201  0.9784046  1.005293   -9999      0.04046784 8290.641  
10273.5    8.75       9.293667   8.74056    61.82298   0.03392127 52.40553   94.71651   97.47115   211.843    209.3868   135.1768   181.8363   2.59403    0.002010326 0.0000177  1.009853   1.00457    -9999      0.03751969 8290.861  
10274      8.75       9.293616   8.664912   61.47448   0.03199095 52.11259   93.64146   96.7887    210.8622   209.4908   128.9935   182.0599   2.597215   0.001369992 0.0000196  1.013502   1.002887   -9999      0.03619992 8291.082  
10274.5    8.75       9.293674   8.625319   61.55959   0.03004545 51.86666   93.07397   95.93219   211.3762   209.5026   133.0942   182.4509   2.600425   0.001261259 0.0000161  1.02047    1.002068   -9999      0.03596397 8291.304  
10275      8.75       9.293649   8.60918    61.42105   0.02836063 51.67446   93.03956   95.16183   211.9297   209.488    142.1028   182.28     2.603205   0.0008202333 0.0000089  1.029056   1.004088   -9999      0.03594565 8291.524  
10275.5    8.75       9.293645   8.608781   60.80478   0.02770794 51.54209   93.19359   94.78378   211.8101   209.6038   132.1255   182.2767   2.604282   0.001296164 0.0000167  1.034291   1.005864   -9999      0.03760488 8291.746  
10276      8.75       9.293708   8.602358   62.85833   0.02700179 51.438     93.42889   94.67426   211.6474   209.7213   138.4702   183.017    2.605447   0.0007360476 0.0000146  1.037876   1.007524   -9999      0.03909805 8291.967  
10276.5    8.75       9.293764   8.574559   61.84133   0.02594667 51.35786   93.85182   94.76788   211.7154   209.6811   147.3336   182.5256   2.607188   0.0007937678 0.0000130  1.031119   1.00687    -9999      0.04045156 8292.188  
10277      8.75       9.293884   8.545721   62.0207    0.02582299 51.34405   94.25683   95.00333   211.2963   209.7697   166.0564   182.6242   2.607392   0.0005184312 0.0000197  1.022813   1.006627   -9999      0.04053636 8292.409  
10277.5    8.75       9.294153   8.566112   61.32286   0.02670239 51.39827   94.48531   95.30552   211.2963   209.7714   158.2794   182.6811   2.605941   0.0005625971 0.0000255  1.023717   1.00705    -9999      0.04032294 8292.631  
10278      8.75       9.293868   8.647488   61.67946   0.0271327  51.48565   94.68134   95.75322   211.6706   209.8292   177.4106   182.5243   2.605231   0.0007239719 0.0000280  1.005533   1.012983   -9999      0.03991894 8292.853  
10278.5    8.75       9.293734   8.657784   60.94759   0.02794852 51.61448   94.90398   96.25717   212.0057   209.9089   167.6754   182.3174   2.603885   0.0009275533 0.0000252  1.011893   1.010895   -9999      0.03967416 8293.073  
10279      8.75       9.293681   8.648749   61.66612   0.02964794 51.79397   95.19701   96.85639   211.6894   209.9559   169.7097   182.6485   2.601081   0.001342436 0.0000184  1.013848   1.009484   -9999      0.04054553 8293.295  
10279.5    8.75       9.293698   8.644747   60.93397   0.03136427 51.97506   95.50452   97.55556   211.9748   209.9717   159.8294   182.2427   2.598249   0.001540652 0.0000142  1.016007   1.007071   -9999      0.04131532 8293.517  
10280      8.75       9.293689   8.656793   61.51526   0.03224974 52.09921   95.6742    98.15836   211.8373   209.8678   172.325    182.1587   2.596788   0.001495113 0.0000110  1.021415   1.007969   -9999      0.04215007 8293.738  
10280.5    8.75       9.293692   8.666963   61.47362   0.03262427 52.14736   95.63078   98.2723    211.8421   209.9524   164.1883   181.9898   2.59617    0.001359981 0.0000091  1.022392   1.006978   -9999      0.04282326 8293.96   
10281      8.75       9.293702   8.66736    62.10915   0.03244062 52.11698   95.51952   97.90905   211.8421   209.9507   145.1056   182.4512   2.596473   0.0009370449 0.0000061  1.027737   1.007518   -9999      0.04313437 8294.182  
10281.5    8.75       9.293737   8.667684   60.76006   0.03153145 52.01009   95.52926   97.42376   211.4923   209.8497   169.3221   181.6346   2.597973   0.0006773117 0.0000033  1.026235   1.010316   -9999      0.04307261 8294.403  
10282      8.75       9.293664   8.667405   61.87985   0.03012059 51.84759   95.42761   96.92104   211.1016   209.6573   184.2397   182.6495   2.600301   0.0009704268 0.0000029  1.004447   1.007451   -9999      0.04233648 8294.625  
10282.5    8.75       9.293676   8.666504   61.97197   0.02868545 51.65798   94.9946    96.21059   210.7423   209.6398   177.4977   182.3851   2.602669   0.0008501232 0.0000016  1.001282   1.008651   -9999      0.04194753 8294.847  
10283      8.75       9.293706   8.666548   61.39453   0.02704297 51.45821   94.46112   95.49198   211.4662   209.6473   156.8264   182.7321   2.605379   0.001095045 0.0000011  1.016935   1.009237   -9999      0.04255274 8295.068  
10283.5    8.75       9.293716   8.666631   61.2635    0.02566    51.25018   94.19683   95.29727   211.4662   209.6376   146.0259   182.1573   2.607661   0.001084816 0.0000009  1.015169   1.009973   -9999      0.04242376 8295.29   
10284      8.75       9.29372    8.666326   61.13836   0.02374788 51.02761   94.18861   95.64454   211.092    209.6802   144.1369   182.0267   2.610816   0.00125691 0.0000013  1.000088   1.00987    -9999      0.04490512 8295.512  
10284.5    8.75       9.293675   8.666814   62.3369    0.02195569 50.80692   94.294     96.02034   211.1891   209.7165   136.1939   181.5603   2.613773   0.001712452 0.0000014  1.000292   1.01022    -9999      0.04733814 8295.734  
10285      8.75       9.29363    8.667137   61.74482   0.0202661  50.61739   94.45997   96.60318   211.4887   209.6108   111.9774   181.5478   2.616561   0.001836492 0.0000078  1.004601   1.009744   -9999      0.05169249 8295.956  
10285.5    8.75       9.293683   8.66711    61.20341   0.01951934 50.45677   94.515     97.90361   211.5436   209.6028   87.7608    181.8998   2.617793   0.001882683 0.0000087  0.9948226  1.010684   -9999      0.05559841 8296.178  
10286      8.75       9.293724   8.667046   61.17982   0.01821758 50.28027   94.38068   99.34094   211.1565   209.5903   71.77789   182.3408   2.619941   0.002177105 0.0000079  0.9902112  1.009413   -9999      0.06103957 8296.4    
10286.5    8.75       9.293773   8.667005   61.39762   0.01575089 50.11581   94.26104   99.69051   211.0532   209.5244   69.88902   182.4108   2.624011   0.002220523 0.0000133  0.9889805  1.011768   -9999      0.06684324 8296.622  
10287      8.75       9.293792   8.667053   60.85018   0.01580001 50.06499   94.38207   99.25733   211.0426   210.29     72.88215   182.5983   2.62393    0.001906058 0.0000117  0.9786892  1.014146   -9999      0.07065835 8296.845  
