~Version
 VERS              .         2.0                           : CWLS LOG ASCII STANDARD - VERSION 2.0
 WRAP              .         NO                            : ONE LINE PER DEPTH STEP
 DLM               .         SPACE                         : DELIMITING CHARACTER(SPACE TAB OR COMMA)
~Well Information
#_______________________________________________________________________________
#
#PARAMETER_NAME    .UNIT     VALUE                         : DESCRIPTION
#_______________________________________________________________________________
STRT               .ft       6000                          : First reference value
STOP               .ft       10942                         : Last reference value
STEP               .ft       0.5                           : Step increment
NULL               .         -9999                         : Missing value
COMP               .         University of Utah            : Company
WELL               .         Forge 16A(78)-32              : Well name
FLD                .         Wildcat                       : Field
LOC                .                                       : Location
CNTY               .         Beaver                        : County
STAT               .         Utah                          : State
CTRY               .         USA                           : Country
SRVC               .         Schlumberger                  : Service Company
DATE               .         26-Dec-2020                   : Date
UWI                .         0000000000                    : Unique Well ID
APD                .ft       32                            : Elevation of Depth Reference (LMF) Above Permanent Datum
API                .                                       : API NUMBER
BHS                .         OPEN                          : Borehole Status (Open or Cased Hole)
BHT                .degF     270                           : Bottom Hole Temperature
BLI                .ft       -999.25                       : Bottom Log Interval
BS                 .in       8.75                          : Bit Size
CBDR               .ft       5132                          : Casing Bottom of Driller
CBLO               .ft       5110                          : Logger Casing Shoe Depth
CSIZ               .in       9.625                         : Current Casing Size
CWEI               .lbm/ft   40                            : Casing Weight
DFD                .lbm/gal  9                             : Drilling Fluid Density
DFT                .         WBM                           : Drilling Fluid Type
DLAB               .         26-Dec-2020                   : Date Logger At Bottom
EDF                .ft       5434.5                        : Elevation of Drill Floor
EGL                .ft       5403.5                        : Elevation of Ground Level
EKB                .ft       5435.5                        : Elevation of Kelly Bushing
EPD                .ft       5403.5                        : Elevation of Permanent Datum (PDAT) above Mean Sea Level
GDAT               .                                       : Geodetic Datum
LMF                .         KB                            : Logging Measured From (Name of Logging Elevation Reference)
LUL                .         Fort Morgan, CO               : Logging Unit Location
LUN                .         2801                          : Logging Unit Number
LATI               .         38° 30' 14.447" N             : Latitude
LONG               .         112° 53' 47.066" W            : Longitude
MCST               .degF     68                            : Mudcake Sample Temperature
MFST               .degF     68                            : Mud Filtrate Sample Temperature
MRT                .degF     322                           : Maximum Recorded Temperature
MST                .degF     68                            : Mud Sample Temperature
ORIGINALWELLNAME   .         Forge 16A(78)-32              : 
PDAT               .         GL                            : Permanent Datum
PRODUCER-CODE      .         440                           : 
PRODUCER-NAME      .         Schlumberger                  : 
RMB                .ohm.m    0.05403042                    : Resistivity of Mud at Bottom Hole Temperature
RMCS               .ohm.m    -999.25                       : Resistivity of Mud Cake Sample
RMFS               .ohm.m    0.15                          : Resistivity of Mud Filtrate Sample
RMS                .ohm.m    0.2                           : Resistivity of Mud Sample
RUN                .         5B                            : Run Number
TDD                .ft       10987                         : Driller Total Depth
TDL                .ft       10987                         : Logger Total Depth
TLAB               .         17_37_17                      : Time Logger At Bottom
TLI                .ft       -999.25                       : Top Log Interval
~Parameter Information Block
#_______________________________________________________________________________
#
#PARAMETER_NAME    .UNIT     VALUE                         : DESCRIPTION
#_______________________________________________________________________________
SET                .         LQC_SonicFracture             : 
TLFamily_BS_RM     .         Bit Size                      : 
TLFamily_C1_13     .         Caliper                       : 
TLFamily_C1_24     .         Caliper                       : 
TLFamily_DEVI      .         Hole Deviation                : 
TLFamily_DPHI      .         Density Porosity              : 
TLFamily_DTCO_MPS_final .         Compressional Slowness        : 
TLFamily_DTSH_FAST_final .        Fast Shear Slowness           : 
TLFamily_DTSH_SLOW_final .        Slow Shear Slowness           : 
TLFamily_DTST_MLF_FA_R_4 .        Stoneley Slowness             : 
TLFamily_DTST_STM_2 .        Stoneley Slowness             : 
TLFamily_GR_TMG    .         Gamma Ray                     : 
TLFamily_MD        .         Measured Depth                : 
TLFamily_RB        .         Relative Bearing              : 
TLFamily_RHOB_model .        Bulk Density                  : 
TLFamily_STRC_DN_7 .         Reflection Coefficient        : 
TLFamily_STRC_DN_STM_6 .     Reflection Coefficient        : 
TLFamily_STTC_R_5  .         Transmission Coefficient      : 
TLFamily_STTC_R_STM_8 .      Transmission Coefficient      : 
TLFamily_TENS      .         Tension                       : 
TLFamily_TNPH      .         Thermal Neutron Porosity      : 
TLFamily_TVD       .         True Vertical Depth           : 
~Curve Information
#_______________________________________________________________________________
#
#LOGNAME           .UNIT     LOG_ID                        : DESCRIPTION
#_______________________________________________________________________________
MD                 .ft                                     : Measured Depth 
BS_RM              .in                                     : Bit Size 
C1_13              .in                                     : Caliper Section 1, Pads 1-3 
C1_24              .in                                     : Caliper Section 1, Pads 2-4 
DEVI               .deg                                    : Hole Deviation 
DPHI               .ft3/ft3                                : Density Porosity using sandstone matrix 
DTCO_MPS           .us/ft                                  : Compressional slowness 
DTSH_FAST          .us/ft                                  : Fast Shear Slowness 
DTSH_SLOW          .us/ft                                  : Slow Shear Slowness 
DTST               .us/ft                                  : Stoneley slowness 
DTST_STM_2         .us/ft                                  : Modeled Stoneley slowness computed from wavenumber at dominant frequency of source wavelet 
GR_TMG             .gAPI                                   : Gamma Ray 
RB                 .deg                                    : Relative Bearing 
RHOB_model         .g/cm3                                  : Bulk density (g/cc) 
STRC_DN_7          .unitless                               : Down-going reflection coefficient for Stoneley waveform 
STRC_DN_STM_6      .unitless                               : Down-going reflection coefficient for Modeled Stoneley waveform 
STTC_R_5           .unitless                               : Transmission coefficient for Stoneley waveform from receiver array 
STTC_R_STM_8       .unitless                               : Transmission coefficient for Modeled Stoneley waveform from receiver array 
TENS               .lbf                                    : Cable Tension 
TNPH               .ft3/ft3                                : Thermal Neutron Porosity (Ratio Method) in Selected Lithology 
TVD                .ft                                     : True Vertical Depth 
~Ascii
# ...
7960       8.75       9.346994   8.819069   55.57668   0.02686365 51.51067   101.9537   102.0327   210.1844   211.2133   107.5215   177.0259   2.605675   0.001960661 0.0000239  1.047192   1.030225   -9999      0.07950986 7324.234  
7960.5     8.75       9.346995   8.823425   56.56061   0.02795026 51.6416    101.8427   101.8558   210.1781   211.1828   97.6412    177.4128   2.603882   0.001917469 0.0000149  1.02413    1.025646   -9999      0.07891269 7324.495  
7961       8.75       9.347006   8.876089   55.69421   0.03031811 51.88645   101.7579   101.7589   210.1906   211.2174   94.83205   177.1637   2.599975   0.00274631 0.0000220  1.041452   1.035047   -9999      0.07825163 7324.755  
7961.5     8.75       9.34703    8.905738   56.48585   0.03255824 52.17304   101.7695   101.7695   210.1261   211.0412   97.83486   177.209    2.596279   0.002532196 0.0000279  1.045941   1.028887   -9999      0.07983161 7325.016  
7962       8.75       9.347063   8.822327   55.46982   0.03479576 52.44281   101.8757   101.8757   210.4434   211.1438   108.9746   177.0143   2.592587   0.00204193 0.0000330  1.068604   1.02844    -9999      0.08550493 7325.277  
7962.5     8.75       9.347001   8.752245   56.24456   0.03665759 52.63666   101.9868   101.9878   210.3975   211.1647   109.2651   176.9534   2.589515   0.002623948 0.0000359  1.069897   1.021815   -9999      0.08744936 7325.539  
7963       8.75       9.346981   8.7115     55.83934   0.03689818 52.71809   102.0175   102.0287   210.9911   211.3348   112.4617   177.0403   2.589118   0.001968955 0.0000108  1.092479   1.024596   -9999      0.0866885  7325.8    
7963.5     8.75       9.346975   8.667158   56.25634   0.03643637 52.75492   101.9253   101.9756   210.6128   211.6632   95.08392   176.6859   2.58988    0.001909603 0.0000337  1.103504   1.025973   -9999      0.07750892 7326.061  
7964       8.75       9.346967   8.684416   56.27156   0.03705279 52.88695   101.7448   101.8277   212.2132   211.8158   103.8406   176.406    2.588863   0.001974328 0.0000472  1.074553   1.029039   -9999      0.06283131 7326.323  
7964.5     8.75       9.347095   8.720009   56.37872   0.03924364 53.22985   101.6129   101.6632   211.8551   211.8881   89.15566   176.2392   2.585248   0.001814348 0.0000454  1.04372    1.030901   -9999      0.05111172 7326.584  
7965       8.75       9.346995   8.763827   56.1573    0.04412544 53.81244   101.7505   101.7751   212.0019   211.9807   103.3079   176.5747   2.577193   0.003349636 0.0000813  1.042158   1.03477    -9999      0.04600525 7326.846  
7965.5     8.75       9.34696    8.865423   56.2009    0.04985153 54.5475    102.3951   102.5772   211.8427   212.1314   118.7968   176.2392   2.567745   0.002915283 0.0001122979 1.050545   1.035483   -9999      0.0474216  7327.108  
7966       8.75       9.347066   9.096613   55.99528   0.05578613 55.2836    103.3308   104.3144   211.5574   212.0723   144.0401   176.2392   2.557953   0.002603584 0.0001346971 1.013789   1.041636   -9999      0.05117935 7327.37   
7966.5     8.75       9.347103   8.921401   56.26035   0.06037157 55.83081   104.1694   106.7137   211.2919   211.8467   150.8208   176.0142   2.550387   0.003194669 0.0001363397 1.051537   1.026665   -9999      0.05564494 7327.632  
7967       8.75       9.347069   8.768863   56.3686    0.06205394 56.00516   104.7474   108.6949   211.1007   211.9935   144.6213   176.2379   2.547611   0.003504599 0.000108433 1.058033   1.014421   -9999      0.05909992 7327.895  
7967.5     8.75       9.347031   8.758773   55.50143   0.0592328  55.76974   105.2687   109.7851   211.6676   212.0179   148.2054   175.0544   2.552266   0.00271984 0.0000763  1.069042   1.015696   -9999      0.06053877 7328.157  
7968       8.75       9.34704    8.748243   56.15076   0.05537273 55.28853   105.743    109.9816   211.3208   211.8599   165.9319   175.3946   2.558635   0.002336699 0.0000447  1.066559   1.023156   -9999      0.06063868 7328.419  
7968.5     8.75       9.347084   8.784252   55.93898   0.0508224  54.77476   105.8168   109.3978   211.4112   211.7465   163.5102   175.0214   2.566143   0.002903057 0.0000349  1.052278   1.02293    -9999      0.06155399 7328.682  
7969       8.75       9.347117   8.776992   55.99194   0.04815573 54.39368   105.6306   108.5778   211.3729   211.6913   149.4646   175.0553   2.570543   0.002489252 0.0000352  1.074459   1.02316    -9999      0.05915514 7328.945  
7969.5     8.75       9.347067   8.705621   56.05681   0.04661453 54.22423   105.6405   107.898    211.2303   211.6012   139.778    174.8857   2.573086   0.002493414 0.0000411  1.068037   1.024783   -9999      0.05594565 7329.208  
7970       8.75       9.34707    8.705738   55.98204   0.0474672  54.27367   105.5811   107.3942   211.3546   211.6912   142.4902   174.4064   2.571679   0.001871276 0.0000409  1.078544   1.0173     -9999      0.0530579  7329.471  
7970.5     8.75       9.347077   8.70964    55.87214   0.04930418 54.46115   105.1587   107.1387   210.9107   211.1348   140.2623   174.2328   2.568648   0.001578418 0.0000450  1.044212   1.031872   -9999      0.05001131 7329.734  
7971       8.75       9.347093   8.745609   55.91027   0.05124361 54.65324   104.617    106.8698   211.0139   211.1519   143.459    174.1346   2.565448   0.001148839 0.0000371  1.019339   1.022079   -9999      0.04814863 7329.997  
7971.5     8.75       9.347031   8.769568   55.91039   0.05177145 54.75056   104.1635   106.2962   210.8531   210.904    142.3933   174.0982   2.564577   0.0009763329 0.0000363  1.023954   1.027939   -9999      0.04656209 7330.26   
7972       8.75       9.347059   8.770892   55.89244   0.05156121 54.74426   103.7829   105.5271   210.9965   211.0488   140.5045   174.5285   2.564924   0.001210577 0.0000272  1.028226   1.027009   -9999      0.04652808 7330.524  
7972.5     8.75       9.347066   8.771186   55.99708   0.05090794 54.67426   103.1419   104.8405   211.0027   211.0487   135.5644   174.6128   2.566002   0.001678068 0.0000161  1.057895   1.02708    -9999      0.0472615  7330.787  
7973       8.75       9.347087   8.727388   55.89349   0.05017578 54.57668   102.0888   104.4744   211.2672   211.1685   148.2053   174.3354   2.56721    0.00175455 0.0000129  1.070741   1.025781   -9999      0.04712275 7331.051  
7973.5     8.75       9.347134   8.663791   56.19307   0.04939521 54.47423   101.2487   104.6609   211.4528   211.2864   139.7198   173.7254   2.568498   0.002002178 0.0000166  1.031335   1.024799   -9999      0.04730349 7331.315  
7974       8.75       9.347058   8.650764   56.45178   0.04852361 54.39713   100.8443   105.3321   210.8466   211.4956   152.0801   173.8383   2.569936   0.002129576 0.0000258  1.018145   1.025021   -9999      0.04624845 7331.579  
7974.5     8.75       9.346985   8.654363   56.21286   0.04859268 54.36721   100.8904   105.8022   210.7734   211.6725   154.0173   173.3866   2.569822   0.002845745 0.0000212  1.019441   1.028135   -9999      0.04574547 7331.843  
7975       8.75       9.347038   8.706335   55.94812   0.04887633 54.33444   101.1842   105.8548   210.6097   211.3198   147.3336   173.7254   2.569354   0.003133552 0.0000209  1.019915   1.030769   -9999      0.04748418 7332.106  
7975.5     8.75       9.347038   8.741849   56.23879   0.04803334 54.21842   101.6445   105.9675   210.5387   211.3636   156.0515   173.6576   2.570745   0.00290384 0.0000271  1.007151   1.030992   -9999      0.0488643  7332.371  
7976       8.75       9.347124   8.7418     55.77893   0.04613033 54.01099   102.3251   105.9526   210.5387   211.3669   152.419    174.0982   2.573885   0.002307915 0.0000177  1.096333   1.025101   -9999      0.05085557 7332.635  
7976.5     8.75       9.347064   8.736026   56.13972   0.04432369 53.76637   103.0859   105.5374   210.4433   210.9292   155.5672   173.657    2.576866   0.001859201 0.0000245  1.079503   1.021775   -9999      0.05255333 7332.899  
7977       8.75       9.347014   8.743253   56.21285   0.0423873  53.54078   103.3923   104.7965   210.8614   211.1003   149.8037   173.3866   2.580061   0.001478005 0.0000474  1.059559   1.021742   -9999      0.05806828 7333.164  
