~Version
 VERS              .         2.0                           : CWLS LOG ASCII STANDARD - VERSION 2.0
 WRAP              .         NO                            : ONE LINE PER DEPTH STEP
 DLM               .         SPACE                         : DELIMITING CHARACTER(SPACE TAB OR COMMA)
~Well Information
#_______________________________________________________________________________
#
#PARAMETER_NAME    .UNIT     VALUE                         : DESCRIPTION
#_______________________________________________________________________________
STRT               .ft       6000                          : First reference value
STOP               .ft       10942                         : Last reference value
STEP               .ft       0.5                           : Step increment
NULL               .         -9999                         : Missing value
COMP               .         University of Utah            : Company
WELL               .         Forge 16A(78)-32              : Well name
FLD                .         Wildcat                       : Field
LOC                .                                       : Location
CNTY               .         Beaver                        : County
STAT               .         Utah                          : State
CTRY               .         USA                           : Country
SRVC               .         Schlumberger                  : Service Company
DATE               .         26-Dec-2020                   : Date
UWI                .         0000000000                    : Unique Well ID
APD                .ft       32                            : Elevation of Depth Reference (LMF) Above Permanent Datum
API                .                                       : API NUMBER
BHS                .         OPEN                          : Borehole Status (Open or Cased Hole)
BHT                .degF     270                           : Bottom Hole Temperature
BLI                .ft       -999.25                       : Bottom Log Interval
BS                 .in       8.75                          : Bit Size
CBDR               .ft       5132                          : Casing Bottom of Driller
CBLO               .ft       5110                          : Logger Casing Shoe Depth
CSIZ               .in       9.625                         : Current Casing Size
CWEI               .lbm/ft   40                            : Casing Weight
DFD                .lbm/gal  9                             : Drilling Fluid Density
DFT                .         WBM                           : Drilling Fluid Type
DLAB               .         26-Dec-2020                   : Date Logger At Bottom
EDF                .ft       5434.5                        : Elevation of Drill Floor
EGL                .ft       5403.5                        : Elevation of Ground Level
EKB                .ft       5435.5                        : Elevation of Kelly Bushing
EPD                .ft       5403.5                        : Elevation of Permanent Datum (PDAT) above Mean Sea Level
GDAT               .                                       : Geodetic Datum
LMF                .         KB                            : Logging Measured From (Name of Logging Elevation Reference)
LUL                .         Fort Morgan, CO               : Logging Unit Location
LUN                .         2801                          : Logging Unit Number
LATI               .         38° 30' 14.447" N             : Latitude
LONG               .         112° 53' 47.066" W            : Longitude
MCST               .degF     68                            : Mudcake Sample Temperature
MFST               .degF     68                            : Mud Filtrate Sample Temperature
MRT                .degF     322                           : Maximum Recorded Temperature
MST                .degF     68                            : Mud Sample Temperature
ORIGINALWELLNAME   .         Forge 16A(78)-32              : 
PDAT               .         GL                            : Permanent Datum
PRODUCER-CODE      .         440                           : 
PRODUCER-NAME      .         Schlumberger                  : 
RMB                .ohm.m    0.05403042                    : Resistivity of Mud at Bottom Hole Temperature
RMCS               .ohm.m    -999.25                       : Resistivity of Mud Cake Sample
RMFS               .ohm.m    0.15                          : Resistivity of Mud Filtrate Sample
RMS                .ohm.m    0.2                           : Resistivity of Mud Sample
RUN                .         5B                            : Run Number
TDD                .ft       10987                         : Driller Total Depth
TDL                .ft       10987                         : Logger Total Depth
TLAB               .         17_37_17                      : Time Logger At Bottom
TLI                .ft       -999.25                       : Top Log Interval
~Parameter Information Block
#_______________________________________________________________________________
#
#PARAMETER_NAME    .UNIT     VALUE                         : DESCRIPTION
#_______________________________________________________________________________
SET                .         LQC_SonicFracture             : 
TLFamily_BS_RM     .         Bit Size                      : 
TLFamily_C1_13     .         Caliper                       : 
TLFamily_C1_24     .         Caliper                       : 
TLFamily_DEVI      .         Hole Deviation                : 
TLFamily_DPHI      .         Density Porosity              : 
TLFamily_DTCO_MPS_final .         Compressional Slowness        : 
TLFamily_DTSH_FAST_final .        Fast Shear Slowness           : 
TLFamily_DTSH_SLOW_final .        Slow Shear Slowness           : 
TLFamily_DTST_MLF_FA_R_4 .        Stoneley Slowness             : 
TLFamily_DTST_STM_2 .        Stoneley Slowness             : 
TLFamily_GR_TMG    .         Gamma Ray                     : 
TLFamily_MD        .         Measured Depth                : 
TLFamily_RB        .         Relative Bearing              : 
TLFamily_RHOB_model .        Bulk Density                  : 
TLFamily_STRC_DN_7 .         Reflection Coefficient        : 
TLFamily_STRC_DN_STM_6 .     Reflection Coefficient        : 
TLFamily_STTC_R_5  .         Transmission Coefficient      : 
TLFamily_STTC_R_STM_8 .      Transmission Coefficient      : 
TLFamily_TENS      .         Tension                       : 
TLFamily_TNPH      .         Thermal Neutron Porosity      : 
TLFamily_TVD       .         True Vertical Depth           : 
~Curve Information
#_______________________________________________________________________________
#
#LOGNAME           .UNIT     LOG_ID                        : DESCRIPTION
#_______________________________________________________________________________
MD                 .ft                                     : Measured Depth 
BS_RM              .in                                     : Bit Size 
C1_13              .in                                     : Caliper Section 1, Pads 1-3 
C1_24              .in                                     : Caliper Section 1, Pads 2-4 
DEVI               .deg                                    : Hole Deviation 
DPHI               .ft3/ft3                                : Density Porosity using sandstone matrix 
DTCO_MPS           .us/ft                                  : Compressional slowness 
DTSH_FAST          .us/ft                                  : Fast Shear Slowness 
DTSH_SLOW          .us/ft                                  : Slow Shear Slowness 
DTST               .us/ft                                  : Stoneley slowness 
DTST_STM_2         .us/ft                                  : Modeled Stoneley slowness computed from wavenumber at dominant frequency of source wavelet 
GR_TMG             .gAPI                                   : Gamma Ray 
RB                 .deg                                    : Relative Bearing 
RHOB_model         .g/cm3                                  : Bulk density (g/cc) 
STRC_DN_7          .unitless                               : Down-going reflection coefficient for Stoneley waveform 
STRC_DN_STM_6      .unitless                               : Down-going reflection coefficient for Modeled Stoneley waveform 
STTC_R_5           .unitless                               : Transmission coefficient for Stoneley waveform from receiver array 
STTC_R_STM_8       .unitless                               : Transmission coefficient for Modeled Stoneley waveform from receiver array 
TENS               .lbf                                    : Cable Tension 
TNPH               .ft3/ft3                                : Thermal Neutron Porosity (Ratio Method) in Selected Lithology 
TVD                .ft                                     : True Vertical Depth 
~Ascii
# ...
8292.5     8.75       9.09549    8.57644    63.58433   0.05113697 54.53329   101.2953   107.5323   209.9692   211.6179   86.59846   179.6335   2.565624   0.00104334 0.0000213  1.055203   1.011212   -9999      0.05821216 7472.316  
8293       8.75       9.095512   8.567989   64.6421    0.04655211 53.90151   101.152    106.1651   209.373    211.1579   94.23698   179.8708   2.573189   0.0007949308 0.0000233  1.045097   1.013597   -9999      0.06198039 7472.517  
8293.5     8.75       9.095584   8.617499   63.67892   0.03879946 53.02677   100.899    104.2496   209.233    211.2289   102.872    179.8978   2.585981   0.0005993641 0.0000225  1.037788   1.014454   -9999      0.06674281 7472.718  
8294       8.75       9.0955     8.643371   65.34524   0.03143276 52.12873   100.8803   102.6264   209.5877   211.0649   112.7523   179.8405   2.598136   0.0003870746 0.0000212  1.012249   1.018672   -9999      0.07027749 7472.919  
8294.5     8.75       9.095428   8.619441   63.85724   0.02547822 51.41758   100.8891   101.9026   209.4589   211.2628   95.02576   179.4955   2.607961   0.0005678738 0.0000145  1.035022   1.018045   -9999      0.06666201 7473.121  
8295       8.75       9.095528   8.617954   63.27445   0.02205453 51.03189   101.044    102.2136   209.4794   210.9657   94.9677    179.4735   2.61361    0.0007442937 0.0000144  1.061083   1.014866   -9999      0.05834857 7473.323  
8295.5     8.75       9.095661   8.619721   64.6917    0.02264306 51.01062   101.9109   103.3415   209.2991   210.7374   85.04854   179.4253   2.612639   0.0009905421 0.0000142  1.065592   1.019874   -9999      0.04871227 7473.524  
8296       8.75       9.095553   8.629801   63.78229   0.02506785 51.26472   103.0359   104.4835   208.818    211.2402   68.00011   178.9178   2.608638   0.0007676056 0.0000176  1.066089   1.016296   -9999      0.04393972 7473.727  
8296.5     8.75       9.095534   8.63681    64.64819   0.02843389 51.67123   103.6403   104.9874   209.238    210.7592   67.12833   178.6079   2.603084   0.0008133824 0.0000162  1.044112   1.022116   -9999      0.04314175 7473.929  
8297       8.75       9.09556    8.627788   64.47674   0.03279391 52.0949    103.9359   105.4039   209.2814   210.8056   66.83769   178.4846   2.59589    0.001011592 0.0000151  1.053285   1.019531   -9999      0.04601688 7474.132  
8297.5     8.75       9.09563    8.630012   63.45642   0.03474186 52.40371   104.3487   106.229    209.4054   211.3776   74.24797   178.4017   2.592676   0.001052515 0.0000156  1.044272   1.01998    -9999      0.05039749 7474.334  
8298       8.75       9.09567    8.621461   64.59352   0.03578599 52.58105   104.8233   106.6559   209.4553   211.6624   86.16255   178.1427   2.590953   0.0008682518 0.0000195  1.027912   1.030573   -9999      0.05150419 7474.537  
8298.5     8.75       9.095564   8.648343   64.12474   0.03689572 52.63324   105.1237   106.2231   209.7267   211.4289   110.7762   177.9873   2.589122   0.0009239394 0.0000220  1.0464     1.032545   -9999      0.05182992 7474.739  
8299       8.75       9.095487   8.655993   64.33814   0.03568427 52.52495   104.988    105.3808   209.5586   211.6668   116.4575   178.2981   2.591121   0.0008884132 0.0000262  1.064037   1.019947   -9999      0.05128822 7474.94   
8299.5     8.75       9.095517   8.626671   64.24918   0.03324662 52.3148    104.5876   104.6706   209.6901   211.7108   100.8959   177.902    2.595143   0.0004665578 0.0000233  1.041779   1.010527   -9999      0.05281741 7475.142  
8300       8.75       9.095658   8.616503   63.94783   0.03206363 52.11103   104.6791   104.69     209.578    211.8811   94.73513   178.034    2.597095   0.0006221378 0.0000234  1.029559   1.014261   -9999      0.05266061 7475.344  
8300.5     8.75       9.095523   8.606246   64.52323   0.03046059 51.95676   105.3274   105.3573   209.4523   211.874    84.85486   178.1007   2.59974    0.0006703667 0.0000225  1.018424   1.019306   -9999      0.05136306 7475.544  
8301       8.75       9.095636   8.611944   63.98019   0.03004661 51.8777    105.8076   106.0628   208.9836   212.0154   81.36768   178.2981   2.600423   0.0008136292 0.0000237  1.00946    1.015117   -9999      0.04927845 7475.746  
8301.5     8.75       9.095509   8.62226    64.8718    0.02991396 51.88341   105.4348   106.5751   208.97     211.3841   98.51295   178.1945   2.600642   0.000938037 0.0000286  1.035486   1.016825   -9999      0.04939121 7475.946  
8302       8.75       9.09545    8.626653   63.81676   0.03102846 51.94847   103.6203   106.4778   209.1222   212.1211   110.8427   178.4535   2.598803   0.00150767 0.0000292  1.051812   1.018045   -9999      0.04911524 7476.146  
8302.5     8.75       9.095443   8.624316   63.81174   0.03129751 52.02019   100.6934   105.3075   209.1222   212.12     90.5215    178.4017   2.598359   0.001600072 0.0000348  1.026814   1.014467   -9999      0.04862427 7476.346  
8303       8.75       9.09543    8.632864   64.88394   0.03219873 52.05985   97.83912   103.4511   208.7446   212.237    88.57448   178.2981   2.596872   0.001610318 0.0000344  1.009002   1.017308   -9999      0.04706461 7476.546  
8303.5     8.75       9.095474   8.645211   63.50866   0.03138059 52.05294   96.16228   101.8925   209.0612   212.148    77.73519   178.0775   2.598222   0.001457653 0.0000329  1.02913    1.010244   -9999      0.04708545 7476.746  
8304       8.75       9.095557   8.643551   64.74538   0.03170846 52.0307    96.32691   101.4564   209.2876   211.1582   77.00865   178.0434   2.597681   0.000885514 0.0000261  1.035282   1.011277   -9999      0.04791079 7476.945  
8304.5     8.75       9.095318   8.638936   63.88991   0.0308266  52.02921   98.31023   102.3708   208.953    210.6619   70.657     178.487    2.599136   0.0007838947 0.0000283  1.03296    1.006459   -9999      0.04860432 7477.144  
8305       8.75       9.095677   8.638477   65.94103   0.0319424  52.08644   100.9866   103.9732   208.8577   209.885    83.98306   178.5647   2.597295   0.0007884934 0.0000290  1.027639   1.006045   -9999      0.04769795 7477.343  
8305.5     8.75       9.095658   8.644438   63.31406   0.0324266  52.19273   102.8038   105.4326   209.1347   209.8984   76.71809   177.9313   2.596496   0.0008634999 0.0000244  1.023827   1.007883   -9999      0.04573241 7477.541  
8306       8.75       9.095509   8.662023   62.48472   0.03357448 52.36      103.4996   106.8044   209.1347   209.9064   80.20521   178.2981   2.594602   0.001209064 0.0000333  0.9990298  1.002485   -9999      0.04505229 7477.739  
8306.5     8.75       9.095613   8.708909   65.3333    0.03521639 52.6378    103.4833   107.8668   208.9426   210.8159   77.2024    178.6089   2.591893   0.001206924 0.0000373  1.004021   1.008254   -9999      0.04450592 7477.938  
8307       8.75       9.095356   8.696866   63.5453    0.03918425 53.00831   102.3936   107.5159   209.2037   211.5077   65.89325   178.856    2.585346   0.001530678 0.0000440  1.016143   1.017016   -9999      0.04644415 7478.135  
8307.5     8.75       9.095534   8.715983   64.70036   0.04181451 53.33479   100.3487   106.2601   209.2037   211.5189   69.54994   179.0208   2.581006   0.00148931 0.0000409  1.062375   1.02333    -9999      0.04868953 7478.333  
8308       8.75       9.095538   8.812911   63.78631   0.04304967 53.51966   98.34197   105.4088   209.6484   211.3989   69.93745   179.1023   2.578968   0.001533046 0.0000422  1.063851   1.02147    -9999      0.05342574 7478.531  
8308.5     8.75       9.095705   8.753802   64.59058   0.04321815 53.55679   96.98302   104.7491   209.3952   211.9553   85.82348   179.2267   2.57869    0.001457976 0.0000373  1.039713   1.017383   -9999      0.05756203 7478.729  
8309       8.75       9.095405   8.684374   65.48164   0.04281515 53.44361   96.58768   103.9587   209.3975   211.0432   75.55566   179.2734   2.579355   0.001455908 0.0000340  1.012773   1.011346   -9999      0.05832049 7478.927  
8309.5     8.75       9.095588   8.674788   63.83578   0.0401333  53.20372   97.30049   103.2125   209.1405   210.7063   72.50442   178.6089   2.58378    0.002057911 0.0000299  1.016944   1.011594   -9999      0.05378288 7479.125  
