~Version
 VERS              .         2.0                           : CWLS LOG ASCII STANDARD - VERSION 2.0
 WRAP              .         NO                            : ONE LINE PER DEPTH STEP
 DLM               .         SPACE                         : DELIMITING CHARACTER(SPACE TAB OR COMMA)
~Well Information
#_______________________________________________________________________________
#
#PARAMETER_NAME    .UNIT     VALUE                         : DESCRIPTION
#_______________________________________________________________________________
STRT               .ft       6000                          : First reference value
STOP               .ft       10942                         : Last reference value
STEP               .ft       0.5                           : Step increment
NULL               .         -9999                         : Missing value
COMP               .         University of Utah            : Company
WELL               .         Forge 16A(78)-32              : Well name
FLD                .         Wildcat                       : Field
LOC                .                                       : Location
CNTY               .         Beaver                        : County
STAT               .         Utah                          : State
CTRY               .         USA                           : Country
SRVC               .         Schlumberger                  : Service Company
DATE               .         26-Dec-2020                   : Date
UWI                .         0000000000                    : Unique Well ID
APD                .ft       32                            : Elevation of Depth Reference (LMF) Above Permanent Datum
API                .                                       : API NUMBER
BHS                .         OPEN                          : Borehole Status (Open or Cased Hole)
BHT                .degF     270                           : Bottom Hole Temperature
BLI                .ft       -999.25                       : Bottom Log Interval
BS                 .in       8.75                          : Bit Size
CBDR               .ft       5132                          : Casing Bottom of Driller
CBLO               .ft       5110                          : Logger Casing Shoe Depth
CSIZ               .in       9.625                         : Current Casing Size
CWEI               .lbm/ft   40                            : Casing Weight
DFD                .lbm/gal  9                             : Drilling Fluid Density
DFT                .         WBM                           : Drilling Fluid Type
DLAB               .         26-Dec-2020                   : Date Logger At Bottom
EDF                .ft       5434.5                        : Elevation of Drill Floor
EGL                .ft       5403.5                        : Elevation of Ground Level
EKB                .ft       5435.5                        : Elevation of Kelly Bushing
EPD                .ft       5403.5                        : Elevation of Permanent Datum (PDAT) above Mean Sea Level
GDAT               .                                       : Geodetic Datum
LMF                .         KB                            : Logging Measured From (Name of Logging Elevation Reference)
LUL                .         Fort Morgan, CO               : Logging Unit Location
LUN                .         2801                          : Logging Unit Number
LATI               .         38° 30' 14.447" N             : Latitude
LONG               .         112° 53' 47.066" W            : Longitude
MCST               .degF     68                            : Mudcake Sample Temperature
MFST               .degF     68                            : Mud Filtrate Sample Temperature
MRT                .degF     322                           : Maximum Recorded Temperature
MST                .degF     68                            : Mud Sample Temperature
ORIGINALWELLNAME   .         Forge 16A(78)-32              : 
PDAT               .         GL                            : Permanent Datum
PRODUCER-CODE      .         440                           : 
PRODUCER-NAME      .         Schlumberger                  : 
RMB                .ohm.m    0.05403042                    : Resistivity of Mud at Bottom Hole Temperature
RMCS               .ohm.m    -999.25                       : Resistivity of Mud Cake Sample
RMFS               .ohm.m    0.15                          : Resistivity of Mud Filtrate Sample
RMS                .ohm.m    0.2                           : Resistivity of Mud Sample
RUN                .         5B                            : Run Number
TDD                .ft       10987                         : Driller Total Depth
TDL                .ft       10987                         : Logger Total Depth
TLAB               .         17_37_17                      : Time Logger At Bottom
TLI                .ft       -999.25                       : Top Log Interval
~Parameter Information Block
#_______________________________________________________________________________
#
#PARAMETER_NAME    .UNIT     VALUE                         : DESCRIPTION
#_______________________________________________________________________________
SET                .         LQC_SonicFracture             : 
TLFamily_BS_RM     .         Bit Size                      : 
TLFamily_C1_13     .         Caliper                       : 
TLFamily_C1_24     .         Caliper                       : 
TLFamily_DEVI      .         Hole Deviation                : 
TLFamily_DPHI      .         Density Porosity              : 
TLFamily_DTCO_MPS_final .         Compressional Slowness        : 
TLFamily_DTSH_FAST_final .        Fast Shear Slowness           : 
TLFamily_DTSH_SLOW_final .        Slow Shear Slowness           : 
TLFamily_DTST_MLF_FA_R_4 .        Stoneley Slowness             : 
TLFamily_DTST_STM_2 .        Stoneley Slowness             : 
TLFamily_GR_TMG    .         Gamma Ray                     : 
TLFamily_MD        .         Measured Depth                : 
TLFamily_RB        .         Relative Bearing              : 
TLFamily_RHOB_model .        Bulk Density                  : 
TLFamily_STRC_DN_7 .         Reflection Coefficient        : 
TLFamily_STRC_DN_STM_6 .     Reflection Coefficient        : 
TLFamily_STTC_R_5  .         Transmission Coefficient      : 
TLFamily_STTC_R_STM_8 .      Transmission Coefficient      : 
TLFamily_TENS      .         Tension                       : 
TLFamily_TNPH      .         Thermal Neutron Porosity      : 
TLFamily_TVD       .         True Vertical Depth           : 
~Curve Information
#_______________________________________________________________________________
#
#LOGNAME           .UNIT     LOG_ID                        : DESCRIPTION
#_______________________________________________________________________________
MD                 .ft                                     : Measured Depth 
BS_RM              .in                                     : Bit Size 
C1_13              .in                                     : Caliper Section 1, Pads 1-3 
C1_24              .in                                     : Caliper Section 1, Pads 2-4 
DEVI               .deg                                    : Hole Deviation 
DPHI               .ft3/ft3                                : Density Porosity using sandstone matrix 
DTCO_MPS           .us/ft                                  : Compressional slowness 
DTSH_FAST          .us/ft                                  : Fast Shear Slowness 
DTSH_SLOW          .us/ft                                  : Slow Shear Slowness 
DTST               .us/ft                                  : Stoneley slowness 
DTST_STM_2         .us/ft                                  : Modeled Stoneley slowness computed from wavenumber at dominant frequency of source wavelet 
GR_TMG             .gAPI                                   : Gamma Ray 
RB                 .deg                                    : Relative Bearing 
RHOB_model         .g/cm3                                  : Bulk density (g/cc) 
STRC_DN_7          .unitless                               : Down-going reflection coefficient for Stoneley waveform 
STRC_DN_STM_6      .unitless                               : Down-going reflection coefficient for Modeled Stoneley waveform 
STTC_R_5           .unitless                               : Transmission coefficient for Stoneley waveform from receiver array 
STTC_R_STM_8       .unitless                               : Transmission coefficient for Modeled Stoneley waveform from receiver array 
TENS               .lbf                                    : Cable Tension 
TNPH               .ft3/ft3                                : Thermal Neutron Porosity (Ratio Method) in Selected Lithology 
TVD                .ft                                     : True Vertical Depth 
~Ascii
# ...
6980       8.75       9.309246   8.770465   48.78008   0.04101942 53.31237   95.75086   95.75086   209.2002   210.4537   143.4105   173.958    2.582318   0.002655994 0.0000196  1.061956   1.00325    -9999      0.03755624 6854.319  
6980.5     8.75       9.30922    8.766651   48.51639   0.04112881 53.32837   95.94367   95.94367   209.3506   210.4747   150.3364   173.6656   2.582138   0.003807876 0.0000168  1.075382   0.9974528  -9999      0.03778519 6854.631  
6981       8.75       9.309245   8.794161   48.51841   0.04124729 53.34348   96.3587    96.3587    209.2767   210.0755   131.6412   173.6682   2.581942   0.003711944 0.0000166  1.0689     0.9971514  -9999      0.03782475 6854.942  
6981.5     8.75       9.309301   8.832732   48.78133   0.04120518 53.37925   96.46515   96.46515   209.2767   210.0684   137.7439   173.6612   2.582011   0.002763193 0.0000264  1.04266    1.006055   -9999      0.03890974 6855.252  
6982       8.75       9.309296   8.883023   48.45396   0.04181545 53.48056   96.21593   96.21593   209.1411   210.268    132.7455   173.1843   2.581005   0.002403681 0.0000309  1.029447   1.010373   -9999      0.03903892 6855.563  
6982.5     8.75       9.309223   8.938557   49.10349   0.0434294  53.66227   95.73467   95.73467   209.3652   210.3835   146.3164   172.8276   2.578341   0.003259503 0.0000402  1.036744   1.010402   -9999      0.03995084 6855.874  
6983       8.75       9.309382   8.912935   48.8288    0.04533394 53.87184   95.17144   95.17144   209.3018   210.2648   158.0857   172.7744   2.575199   0.003899365 0.0000385  1.047862   1.008852   -9999      0.03962857 6856.183  
6983.5     8.75       9.309583   8.934193   48.57375   0.04663693 54.03146   94.83234   94.83234   209.1167   210.2154   137.1625   172.5689   2.573049   0.003553883 0.0000262  1.054518   1.007658   -9999      0.0402128  6856.493  
6984       8.75       9.309641   8.93925    48.70758   0.04710604 54.09414   94.81638   94.81638   209.2511   210.1111   149.8037   172.8954   2.572275   0.00336926 0.0000271  1.070326   1.007301   -9999      0.04006009 6856.803  
6984.5     8.75       9.309726   8.909727   49.28026   0.04666453 54.06248   94.89554   94.89554   209.2686   209.9867   158.2795   172.6915   2.573004   0.002701618 0.0000147  1.074955   1.004223   -9999      0.04142826 6857.112  
6985       8.75       9.309668   8.925962   48.85564   0.0457209  53.99162   95.09981   95.09981   209.2686   209.9851   146.607    172.4562   2.574561   0.001907491 0.0000235  1.086248   1.006254   -9999      0.04307424 6857.421  
6985.5     8.75       9.309547   8.946336   48.89342   0.04540185 53.95533   95.54044   95.54044   209.1002   210.1511   146.7523   172.0231   2.575087   0.00138633 0.0000222  1.109781   1.009755   -9999      0.04417125 6857.729  
6986       8.75       9.309344   8.91324    49.34733   0.0456709  53.98943   96.10554   96.10554   209.4945   209.7518   156.4584   172.31     2.574643   0.001595836 0.0000239  1.105874   1.007142   -9999      0.04503614 6858.038  
6986.5     8.75       9.309428   8.87916    49.13226   0.04651179 54.08609   96.72013   96.72013   209.256    210.0599   142.248    172.2054   2.573256   0.001960671 0.0000327  1.109703   1.003955   -9999      0.04593208 6858.346  
6987       8.75       9.309639   8.879973   48.89518   0.04765635 54.20198   97.26067   97.26067   209.3012   210.1519   153.9343   172.5184   2.571367   0.002088879 0.0000183  1.116464   1.005067   -9999      0.04785851 6858.654  
6987.5     8.75       9.309659   8.933001   49.04042   0.0484406  54.26782   97.59705   97.59705   209.7244   210.2474   137.3079   172.2382   2.570073   0.001569597 0.0000270  1.113975   1.009368   -9999      0.04920302 6858.962  
6988       8.75       9.309582   8.948606   49.09027   0.04798392 54.24454   97.75856   97.75856   209.3526   210.5415   143.8463   172.0432   2.570827   0.001373286 0.0000217  1.129079   1.010261   -9999      0.04955711 6859.27   
6988.5     8.75       9.309378   8.91531    49.21263   0.04702663 54.17851   97.84477   97.84853   209.3961   210.5692   159.4419   172.32     2.572406   0.001395331 0.0000173  1.123622   1.007604   -9999      0.04989266 6859.577  
6989       8.75       9.309422   8.839473   49.66018   0.04685179 54.14487   97.86581   97.9174    209.307    210.7261   149.3678   172.1045   2.572695   0.001278008 0.0000242  1.108021   1.004159   -9999      0.04839379 6859.884  
6989.5     8.75       9.309597   8.833029   49.1012    0.04705178 54.1681    97.78174   98.06371   209.2574   210.5911   146.5448   171.8378   2.572365   0.001063139 0.0000287  1.100744   1.004033   -9999      0.04559331 6860.19   
6990       8.75       9.30965    8.855572   50.12152   0.04757608 54.24191   97.59303   98.32188   209.5075   210.6828   143.8464   171.6972   2.571499   0.0009760585 0.0000227  1.105454   1.00799    -9999      0.0422879  6860.497  
6990.5     8.75       9.309665   8.87248    49.52581   0.0485437  54.34777   97.31186   98.39223   209.6212   210.5749   145.5318   171.8035   2.569903   0.001695617 0.0000157  1.116717   1.008623   -9999      0.04002139 6860.803  
6991       8.75       9.309615   8.891672   49.50275   0.0494861  54.43757   97.01862   98.1365    209.4423   210.5012   132.3193   171.7015   2.568348   0.001684235 0.0000135  1.108226   1.010814   -9999      0.03886331 6861.109  
6991.5     8.75       9.309485   8.884797   49.21065   0.04969577 54.4521    96.8069    97.88129   209.9208   210.371    134.1114   171.9911   2.568002   0.001767108 0.0000076  1.111475   1.007767   -9999      0.03803294 6861.415  
6992       8.75       9.309436   8.848323   49.49086   0.04893695 54.36965   96.72951   98.03204   209.1891   210.2924   127.9797   171.4293   2.569254   0.001687854 0.0000090  1.089851   1.006918   -9999      0.03741495 6861.721  
6992.5     8.75       9.309364   8.816499   49.47128   0.04756727 54.22768   96.86979   98.51295   209.5536   210.2565   134.8378   171.5078   2.571514   0.000840577 0.0000117  1.084302   1.005297   -9999      0.03756231 6862.026  
6993       8.75       9.309615   8.808517   49.29244   0.04646729 54.09255   97.22699   98.97308   208.724    210.2441   139.3906   171.4663   2.573329   0.001600861 0.0000123  1.077118   1.006673   -9999      0.0388094  6862.331  
6993.5     8.75       9.309705   8.770727   49.39055   0.04575789 54.01901   97.73959   99.37325   209.6681   210.1857   135.5352   171.281    2.5745     0.002942809 0.0000119  1.082411   1.007801   -9999      0.04157666 6862.636  
6994       8.75       9.30968    8.730568   49.67989   0.04584726 54.04339   98.43457   99.72573   209.4752   210.2787   141.696    171.4875   2.574352   0.00323451 0.0000089  1.098966   1.007621   -9999      0.04376984 6862.94   
6994.5     8.75       9.309663   8.730516   49.30509   0.04715119 54.15171   99.13021   99.91772   209.4421   210.3794   146.7524   171.679    2.572201   0.004200311 0.0000070  1.1324     1.010512   -9999      0.04580111 6863.245  
6995       8.75       9.309633   8.746085   49.44835   0.04826815 54.2617    99.52187   99.93436   209.5924   210.3879   131.0018   172.0223   2.570358   0.003412405 0.0000042  1.102366   1.014505   -9999      0.04590046 6863.549  
6995.5     8.75       9.309654   8.758798   49.21949   0.04850057 54.29738   99.71658   99.95477   209.2111   210.6602   135.9034   172.4652   2.569974   0.003376437 0.0000040  1.034065   1.01759    -9999      0.04530449 6863.853  
6996       8.75       9.30969    8.769572   49.496     0.04809482 54.23598   100.0112   100.1715   209.7426   210.8354   141.9574   172.5759   2.570643   0.002998788 0.0000037  1.039533   1.017418   -9999      0.04405207 6864.157  
6996.5     8.75       9.309594   8.785124   49.36207   0.04675028 54.10529   100.4788   100.5876   209.6897   210.7334   149.513    172.7605   2.572862   0.002941301 0.0000022  1.08705    1.020508   -9999      0.0428957  6864.46   
6997       8.75       9.309444   8.785801   49.52486   0.04529817 54.00379   100.9373   101.0602   209.2906   210.8573   150.1427   172.9074   2.575258   0.002432137 0.0000045  1.082738   1.018383   -9999      0.04280622 6864.763  
