~Version
 VERS              .         2.0                           : CWLS LOG ASCII STANDARD - VERSION 2.0
 WRAP              .         NO                            : ONE LINE PER DEPTH STEP
 DLM               .         SPACE                         : DELIMITING CHARACTER(SPACE TAB OR COMMA)
~Well Information
#_______________________________________________________________________________
#
#PARAMETER_NAME    .UNIT     VALUE                         : DESCRIPTION
#_______________________________________________________________________________
STRT               .ft       6000                          : First reference value
STOP               .ft       10942                         : Last reference value
STEP               .ft       0.5                           : Step increment
NULL               .         -9999                         : Missing value
COMP               .         University of Utah            : Company
WELL               .         Forge 16A(78)-32              : Well name
FLD                .         Wildcat                       : Field
LOC                .                                       : Location
CNTY               .         Beaver                        : County
STAT               .         Utah                          : State
CTRY               .         USA                           : Country
SRVC               .         Schlumberger                  : Service Company
DATE               .         26-Dec-2020                   : Date
UWI                .         0000000000                    : Unique Well ID
APD                .ft       32                            : Elevation of Depth Reference (LMF) Above Permanent Datum
API                .                                       : API NUMBER
BHS                .         OPEN                          : Borehole Status (Open or Cased Hole)
BHT                .degF     270                           : Bottom Hole Temperature
BLI                .ft       -999.25                       : Bottom Log Interval
BS                 .in       8.75                          : Bit Size
CBDR               .ft       5132                          : Casing Bottom of Driller
CBLO               .ft       5110                          : Logger Casing Shoe Depth
CSIZ               .in       9.625                         : Current Casing Size
CWEI               .lbm/ft   40                            : Casing Weight
DFD                .lbm/gal  9                             : Drilling Fluid Density
DFT                .         WBM                           : Drilling Fluid Type
DLAB               .         26-Dec-2020                   : Date Logger At Bottom
EDF                .ft       5434.5                        : Elevation of Drill Floor
EGL                .ft       5403.5                        : Elevation of Ground Level
EKB                .ft       5435.5                        : Elevation of Kelly Bushing
EPD                .ft       5403.5                        : Elevation of Permanent Datum (PDAT) above Mean Sea Level
GDAT               .                                       : Geodetic Datum
LMF                .         KB                            : Logging Measured From (Name of Logging Elevation Reference)
LUL                .         Fort Morgan, CO               : Logging Unit Location
LUN                .         2801                          : Logging Unit Number
LATI               .         38° 30' 14.447" N             : Latitude
LONG               .         112° 53' 47.066" W            : Longitude
MCST               .degF     68                            : Mudcake Sample Temperature
MFST               .degF     68                            : Mud Filtrate Sample Temperature
MRT                .degF     322                           : Maximum Recorded Temperature
MST                .degF     68                            : Mud Sample Temperature
ORIGINALWELLNAME   .         Forge 16A(78)-32              : 
PDAT               .         GL                            : Permanent Datum
PRODUCER-CODE      .         440                           : 
PRODUCER-NAME      .         Schlumberger                  : 
RMB                .ohm.m    0.05403042                    : Resistivity of Mud at Bottom Hole Temperature
RMCS               .ohm.m    -999.25                       : Resistivity of Mud Cake Sample
RMFS               .ohm.m    0.15                          : Resistivity of Mud Filtrate Sample
RMS                .ohm.m    0.2                           : Resistivity of Mud Sample
RUN                .         5B                            : Run Number
TDD                .ft       10987                         : Driller Total Depth
TDL                .ft       10987                         : Logger Total Depth
TLAB               .         17_37_17                      : Time Logger At Bottom
TLI                .ft       -999.25                       : Top Log Interval
~Parameter Information Block
#_______________________________________________________________________________
#
#PARAMETER_NAME    .UNIT     VALUE                         : DESCRIPTION
#_______________________________________________________________________________
SET                .         LQC_SonicFracture             : 
TLFamily_BS_RM     .         Bit Size                      : 
TLFamily_C1_13     .         Caliper                       : 
TLFamily_C1_24     .         Caliper                       : 
TLFamily_DEVI      .         Hole Deviation                : 
TLFamily_DPHI      .         Density Porosity              : 
TLFamily_DTCO_MPS_final .         Compressional Slowness        : 
TLFamily_DTSH_FAST_final .        Fast Shear Slowness           : 
TLFamily_DTSH_SLOW_final .        Slow Shear Slowness           : 
TLFamily_DTST_MLF_FA_R_4 .        Stoneley Slowness             : 
TLFamily_DTST_STM_2 .        Stoneley Slowness             : 
TLFamily_GR_TMG    .         Gamma Ray                     : 
TLFamily_MD        .         Measured Depth                : 
TLFamily_RB        .         Relative Bearing              : 
TLFamily_RHOB_model .        Bulk Density                  : 
TLFamily_STRC_DN_7 .         Reflection Coefficient        : 
TLFamily_STRC_DN_STM_6 .     Reflection Coefficient        : 
TLFamily_STTC_R_5  .         Transmission Coefficient      : 
TLFamily_STTC_R_STM_8 .      Transmission Coefficient      : 
TLFamily_TENS      .         Tension                       : 
TLFamily_TNPH      .         Thermal Neutron Porosity      : 
TLFamily_TVD       .         True Vertical Depth           : 
~Curve Information
#_______________________________________________________________________________
#
#LOGNAME           .UNIT     LOG_ID                        : DESCRIPTION
#_______________________________________________________________________________
MD                 .ft                                     : Measured Depth 
BS_RM              .in                                     : Bit Size 
C1_13              .in                                     : Caliper Section 1, Pads 1-3 
C1_24              .in                                     : Caliper Section 1, Pads 2-4 
DEVI               .deg                                    : Hole Deviation 
DPHI               .ft3/ft3                                : Density Porosity using sandstone matrix 
DTCO_MPS           .us/ft                                  : Compressional slowness 
DTSH_FAST          .us/ft                                  : Fast Shear Slowness 
DTSH_SLOW          .us/ft                                  : Slow Shear Slowness 
DTST               .us/ft                                  : Stoneley slowness 
DTST_STM_2         .us/ft                                  : Modeled Stoneley slowness computed from wavenumber at dominant frequency of source wavelet 
GR_TMG             .gAPI                                   : Gamma Ray 
RB                 .deg                                    : Relative Bearing 
RHOB_model         .g/cm3                                  : Bulk density (g/cc) 
STRC_DN_7          .unitless                               : Down-going reflection coefficient for Stoneley waveform 
STRC_DN_STM_6      .unitless                               : Down-going reflection coefficient for Modeled Stoneley waveform 
STTC_R_5           .unitless                               : Transmission coefficient for Stoneley waveform from receiver array 
STTC_R_STM_8       .unitless                               : Transmission coefficient for Modeled Stoneley waveform from receiver array 
TENS               .lbf                                    : Cable Tension 
TNPH               .ft3/ft3                                : Thermal Neutron Porosity (Ratio Method) in Selected Lithology 
TVD                .ft                                     : True Vertical Depth 
~Ascii
# ...
9272.5     8.75       9.355476   8.719233   64.43027   0.04033452 53.15924   103.5935   105.9556   210.5546   211.4907   96.91471   189.6364   2.583448   0.0007747732 0.0000078  1.045944   1.012097   -9999      0.06319455 7859.13   
9273       8.75       9.355429   8.716966   63.93337   0.04097543 53.24591   103.7046   106.0064   210.5765   211.5567   77.18299   189.3447   2.582391   0.001072649 0.0000063  1.057568   1.01286    -9999      0.06191554 7859.334  
9273.5     8.75       9.355471   8.706515   63.91616   0.04072848 53.2087    103.3132   105.4438   210.5157   211.5419   80.39896   189.7836   2.582798   0.001070173 0.0000131  1.033963   1.007797   -9999      0.06117922 7859.538  
9274       8.75       9.355476   8.705383   63.71494   0.03938915 53.063     102.2975   103.8994   210.3881   211.4517   88.92325   190.1198   2.585008   0.001582756 0.0000147  1.02231    1.006826   -9999      0.05525205 7859.742  
9274.5     8.75       9.355447   8.703073   63.852     0.03757334 52.86076   100.5815   101.4316   210.1165   211.2534   115.6583   190.2705   2.588004   0.001079921 0.0000133  1.0288     1.007464   -9999      0.0500844  7859.946  
9275       8.75       9.35551    8.688623   64.07917   0.03614449 52.64939   98.63161   98.9091    209.9169   210.6639   137.0172   190.2922   2.590362   0.001905033 0.0000196  1.01499    1.004855   -9999      0.04513587 7860.151  
9275.5     8.75       9.355523   8.688035   63.95166   0.03459903 52.43097   97.13501   97.18236   209.7509   210.2807   132.1256   190.2823   2.592912   0.002045757 0.0000122  1.013448   1.001382   -9999      0.04384528 7860.355  
9276       8.75       9.35549    8.687627   63.6744    0.03258757 52.20888   96.27327   96.27682   209.6808   210.1769   140.5045   190.6559   2.596231   0.002521619 0.0000137  1.026321   1.005395   -9999      0.04395362 7860.56   
9276.5     8.75       9.355499   8.696722   64.04176   0.03120518 52.0076    95.86604   95.86607   209.9696   210.2117   140.1654   190.7102   2.598511   0.002615145 0.0000211  1.04728    1.006536   -9999      0.04462525 7860.764  
9277       8.75       9.355565   8.69771    63.80312   0.03002089 51.8149    95.76569   95.76569   210.4514   210.1059   142.684    190.1192   2.600466   0.003366964 0.0000162  1.062918   1.007757   -9999      0.04607896 7860.969  
9277.5     8.75       9.355672   8.701349   63.8647    0.02826273 51.60247   95.87856   95.87856   210.0752   210.1051   139.4874   190.5725   2.603366   0.003959996 0.0000220  1.066055   1.007549   -9999      0.04601882 7861.174  
9278       8.75       9.35592    8.670903   64.08669   0.02623307 51.39897   96.16244   96.16244   210.3008   210.02     150.2395   190.6815   2.606715   0.003672161 0.0000238  1.044713   1.00713    -9999      0.04740196 7861.378  
9278.5     8.75       9.355651   8.642107   63.44057   0.0251609  51.2741    96.60625   96.60625   210.0708   210.0541   143.2652   190.2296   2.608485   0.002955165 0.0000173  1.03959    1.003306   -9999      0.04789884 7861.583  
9279       8.75       9.355632   8.582569   63.36026   0.02522817 51.25816   97.15054   97.15054   210.2621   210.1188   129.5102   190.6047   2.608374   0.002026359 0.0000238  1.031389   1.002634   -9999      0.0501927  7861.789  
9279.5     8.75       9.425209   8.496394   64.28824   0.02600664 51.31905   97.72141   97.72141   210.1751   210.2912   134.4987   190.8527   2.607089   0.001425389 0.0000205  1.062871   1.003025   -9999      0.05214419 7861.994  
9280       8.75       9.490664   8.498122   63.60449   0.02667754 51.41125   98.38724   98.38724   210.3027   210.3219   144.2823   190.3821   2.605982   0.001477201 0.0000173  1.054126   1.008536   -9999      0.05354491 7862.199  
9280.5     8.75       9.488645   8.54096    63.9974    0.02743123 51.52188   99.15964   99.15964   210.3746   210.469    140.8989   190.707    2.604738   0.002254734 0.0000240  1.057493   1.009027   -9999      0.05267136 7862.404  
9281       8.75       9.316236   8.611239   64.39394   0.0286955  51.64114   99.71051   99.71069   210.6534   210.817    143.9045   190.9136   2.602653   0.002244121 0.0000277  1.057927   1.008788   -9999      0.05070389 7862.609  
9281.5     8.75       9.165167   8.650339   63.70375   0.02933908 51.74593   99.7467    99.74907   210.7217   210.9271   125.9746   190.4331   2.601591   0.002273257 0.0000277  1.030927   1.000675   -9999      0.05042572 7862.815  
9282       8.75       9.165063   8.666196   64.03758   0.02977091 51.86112   99.30019   99.31348   210.7492   210.7825   119.9204   190.6514   2.600878   0.002900509 0.0000223  1.032242   1.00425    -9999      0.05092169 7863.021  
9282.5     8.75       9.165083   8.679628   63.48801   0.03124672 52.03839   98.57573   98.61794   210.7644   210.806    131.3506   191.0978   2.598443   0.002393983 0.0000134  1.044732   1.006286   -9999      0.05085225 7863.226  
9283       8.75       9.165179   8.672766   62.89349   0.03326273 52.27539   97.90737   98.01542   210.4713   210.305    166.5131   191.4861   2.595117   0.001432806 0.0000102  1.043626   1.001872   -9999      0.05016583 7863.432  
9283.5     8.75       9.165131   8.662936   64.30089   0.03532267 52.52247   97.48796   97.68136   210.382    210.3822   150.6755   191.2775   2.591718   0.0009775369 0.0000113  1.035778   1.005838   -9999      0.05090649 7863.637  
9284       8.75       9.165081   8.639626   63.97766   0.0371163  52.71465   97.26675   97.47198   210.3561   210.2401   126.5557   190.7973   2.588758   0.0006243303 0.0000159  1.035382   1.004436   -9999      0.0521212  7863.843  
9284.5     8.75       9.165147   8.585854   63.40203   0.03768021 52.79978   97.12465   97.30453   210.5805   210.289    117.9831   191.0315   2.587828   0.0009499595 0.0000163  1.032481   1.00426    -9999      0.05180179 7864.049  
9285       8.75       9.165079   8.576972   64.31237   0.03716116 52.7908    96.96059   97.17344   210.4712   210.3664   135.5159   191.4474   2.588684   0.001153511 0.0000133  1.024648   1.001611   -9999      0.04892426 7864.255  
9285.5     8.75       9.165357   8.581823   63.85788   0.03685652 52.73943   96.89133   97.09034   210.3284   210.1781   151.8862   191.5076   2.589187   0.001711647 0.0000078  1.020542   1.004053   -9999      0.04711128 7864.461  
9286       8.75       9.165154   8.574968   63.29192   0.03644814 52.65554   96.98957   97.14063   210.2098   210.2644   152.0801   191.8291   2.58986    0.001392983 0.0000047  1.023088   1.004977   -9999      0.0469696  7864.667  
9286.5     8.75       9.165289   8.590154   63.79872   0.03513634 52.54363   97.02905   97.37817   210.1852   210.3909   129.3745   191.2242   2.592025   0.001235796 0.0000073  1.052194   1.006038   -9999      0.04773802 7864.874  
9287       8.75       9.165452   8.641916   63.78762   0.03426481 52.46435   96.86304   97.69453   210.1188   210.3505   139.2936   191.6123   2.593463   0.0009782832 0.0000086  1.047249   1.009731   -9999      0.04853382 7865.08   
9287.5     8.75       9.165249   8.680333   63.83072   0.0345218  52.4636    96.73487   97.98053   210.5      210.1025   141.231    191.6713   2.593039   0.0009374168 0.0000058  1.025097   1.005653   -9999      0.04961586 7865.287  
9288       8.75       9.165201   8.69043    63.91852   0.03511149 52.51831   96.94494   98.39828   210.0582   210.1654   141.1148   192.0539   2.592066   0.00128869 0.0000049  1.022692   1.007229   -9999      0.05079566 7865.493  
9288.5     8.75       9.165167   8.707049   62.97834   0.03569272 52.58575   97.38837   98.86676   210.8      210.1826   134.9831   191.6168   2.591107   0.00148992 0.0000136  1.036525   1.008676   -9999      0.05116115 7865.7    
9289       8.75       9.165135   8.68937    63.49778   0.03611552 52.64368   97.6787    98.9974    210.2163   210.5116   137.4532   191.8226   2.590409   0.001364121 0.0000189  1.0301     1.001581   -9999      0.04893432 7865.906  
9289.5     8.75       9.16517    8.649295   64.30177   0.03639945 52.69152   97.66649   98.68607   210.1395   210.2858   149.949    192.388    2.589941   0.0007575659 0.0000267  1.0319     1.00624    -9999      0.04699147 7866.113  
