~Version
 VERS              .         3.0                           : CWLS LOG ASCII STANDARD - VERSION 3.0
 WRAP              .         NO                            : ONE LINE PER DEPTH STEP
 DLM               .         SPACE                         : DELIMITING CHARACTER(SPACE TAB OR COMMA)
~Well Information
#_______________________________________________________________________________
#
#PARAMETER_NAME    .UNIT     VALUE                         : DESCRIPTION
#_______________________________________________________________________________
STRT               .ft       5000                          : First reference value
STOP               .ft       6000                          : Last reference value
STEP               .ft       0.5                           : Step increment
NULL               .         -9999                         : Missing value
COMP               .         University of Utah            : Company
WELL               .         Forge 16A(78)-32              : Well name
FLD                .         Wildcat                       : Field
LOC                .                                       : Location
SRVC               .         Schlumberger                  : Service Company
CTRY               .         US                            : Country
STAT               .         Utah                          : State
CNTY               .         Beaver                        : County
API                .                                       : API NUMBER
DATE               .         26-Dec-2020                   : Service Date
LATI               .         38° 30' 14.447" N             : Latitude
LONG               .         112° 53' 47.066" W            : Longitude
GDAT               .                                       : Geodetic Datum
APD                .ft       32                            : Elevation of Depth Reference (LMF) Above Permanent Datum
BHS                .         OPEN                          : Borehole Status (Open or Cased Hole)
BHT                .degF     270                           : Bottom Hole Temperature
BLI                .ft       -999.25                       : Bottom Log Interval
BS                 .in       8.75                          : Bit Size
CBDR               .ft       5132                          : Casing Bottom of Driller
CBLO               .ft       5110                          : Logger Casing Shoe Depth
CSIZ               .in       9.625                         : Current Casing Size
CWEI               .lbm/ft   40                            : Casing Weight
COUNTRY            .         USA                           : Country
DFD                .lbm/gal  9                             : Drilling Fluid Density
DFT                .         WBM                           : Drilling Fluid Type
DLAB               .         26-Dec-2020                   : Date Logger At Bottom
EDF                .ft       5434.5                        : Elevation of Drill Floor
EGL                .ft       5403.5                        : Elevation of Ground Level
EKB                .ft       5435.5                        : Elevation of Kelly Bushing
EPD                .ft       5403.5                        : Elevation of Permanent Datum (PDAT) above Mean Sea Level
LMF                .         KB                            : Logging Measured From (Name of Logging Elevation Reference)
LUL                .         Fort Morgan, CO               : Logging Unit Location
LUN                .         2801                          : Logging Unit Number
MCST               .degF     68                            : Mudcake Sample Temperature
MFST               .degF     68                            : Mud Filtrate Sample Temperature
MRT                .degF     322                           : Maximum Recorded Temperature
MST                .degF     68                            : Mud Sample Temperature
ORIGINALWELLNAME   .         Forge 16A(78)-32              : 
PDAT               .         GL                            : Permanent Datum
PRODUCER-CODE      .         440                           : 
PRODUCER-NAME      .         Schlumberger                  : 
RMB                .ohm.m    0.05403042                    : Resistivity of Mud at Bottom Hole Temperature
RMCS               .ohm.m    -999.25                       : Resistivity of Mud Cake Sample
RMFS               .ohm.m    0.15                          : Resistivity of Mud Filtrate Sample
RMS                .ohm.m    0.2                           : Resistivity of Mud Sample
RUN                .         5B                            : Run Number
TDD                .ft       10987                         : Driller Total Depth
TDL                .ft       10987                         : Logger Total Depth
TLAB               .         17_37_17                      : Time Logger At Bottom
TLI                .ft       -999.25                       : Top Log Interval
UWI                .         0000000000                    : UNIQUE WELL ID
~Parameter Information Block
#_______________________________________________________________________________
#
#PARAMETER_NAME    .UNIT     VALUE                         : DESCRIPTION
#_______________________________________________________________________________
SET                .         ThruBitDP_Aniso_5000ft-6000ft : 
TLFamily_BS_RM     .         Bit Size                      : 
TLFamily_C1_13     .         Caliper                       : 
TLFamily_C1_24     .         Caliper                       : 
TLFamily_DEVI      .         Hole Deviation                : 
TLFamily_DPHI      .         Density Porosity              : 
TLFamily_DTCO_MPS_final .    Compressional Slowness        : 
TLFamily_DTSH_FAST .         Fast Shear Slowness           : 
TLFamily_DTSH_SLOW .         Slow Shear Slowness           : 
TLFamily_FSA_TOH_REF0_ERRMINUS .        Fast Shear Azimuth            : 
TLFamily_FSA_TOH_REF0_ERRPLUS .         Fast Shear Azimuth            : 
TLFamily_FSA_TOH_REF0_OVERALL .         Fast Shear Azimuth            : 
TLFamily_GR_TMG    .         Gamma Ray                     : 
TLFamily_MAXXENE_OVERALL .   Acoustic Energy               : 
TLFamily_MINXENE_OVERALL .   Acoustic Energy               : 
TLFamily_PR_FAST   .         Poisson Ratio (Dynamic)       : 
TLFamily_RB_TBDS   .         Relative Bearing              : 
TLFamily_SENSOR_AZIM_QCI .   Sensor Azimuth                : 
TLFamily_SLOANI    .         Acoustic Anisotropy           : 
TLFamily_TDEP      .         Measured Depth                : 
TLFamily_TIMANI    .         Acoustic Anisotropy           : 
TLFamily_TNPH      .         Thermal Neutron Porosity      : 
TLFamily_TW_B_L10  .         Travel Time                   : 
TLFamily_TW_E_L10  .         Travel Time                   : 
TLFamily_VPVS_FAST .         VpVs (Compressional To Shear) Ratio: 
~Curve Information
#_______________________________________________________________________________
#
#LOGNAME           .UNIT     LOG_ID                        : DESCRIPTION
#_______________________________________________________________________________
TDEP               .ft                                     : Measured Depth {F}
BS_RM              .in                                     : Bit Size {F}
C1_13              .in                                     : Caliper Section 1, Pads 1-3 {F}
C1_24              .in                                     : Caliper Section 1, Pads 2-4 {F}
DEVI               .deg                                    : Hole Deviation {F}
DPHI               .ft3/ft3                                : Density Porosity {F}
DTCO_MPS_final     .us/ft                                  : Compressional slowness {F}
DTSH_FAST          .us/ft                                  : Fast Shear Slowness {F}
DTSH_SLOW          .us/ft                                  : Slow Shear Slowness {F}
FSA_TOH_REF0_ERRMINUS .deg                                 : Fast shear azimuth error minus(TOH REF0) - swapped {F}
FSA_TOH_REF0_ERRPLUS .deg                                  : Fast shear azimuth error plus(TOH REF0) - swapped {F}
FSA_TOH_REF0_OVERALL .deg                                  : Fast shear azimuth(TOH REF0) - overall - swapped {F}
GR_TMG             .gAPI                                   : Gamma Ray {F}
MAXXENE_OVERALL    .%                                      : Maximum cross energy - overall {F}
MINXENE_OVERALL    .%                                      : Minimum cross energy - overall {F}
PR_FAST            .unitless                               : Possion's Ratio {F}
RB_TBDS            .deg                                    : TBDS Relatvie Bearing 6inch {F}
SENSOR_AZIM_QCI    .deg                                    : Tool azimuth for input QC {F}
SLOANI             .unitless                               : Slowness-based anisotropy {F}
TIMANI             .unitless                               : Time-based anisotropy {F}
TNPH               .ft3/ft3                                : Thermal Neutron Porosity (Ratio Method) in Selected Lithology {F}
TW_B_L10           .us                                     : Time window begin - packed {F}
TW_E_L10           .us                                     : Time window end - packed {F}
VPVS_FAST          .unitless                               : VpVs Ratio {F}
~Ascii
5000.0     12.25      9.277131   8.956      2.057176   0.04037692 54.42606   103.777    108.4851   -9999      -9999      -9999      109.1199   -9999      -9999      0.3102973  72.60674   -9999      0.04436119 -9999      0.1141775  1165.231   2415.231   1.906752  
5000.5     12.25      9.27715    8.955853   2.037804   0.04298855 54.42606   103.777    108.4851   -9999      -9999      -9999      111.9773   -9999      -9999      0.3102973  72.60676   -9999      0.04436119 -9999      0.1163462  1165.231   2415.231   1.906752  
5001       12.25      9.27718    8.955967   2.032636   0.04583396 54.42606   103.777    108.4851   -9999      -9999      -9999      107.6184   -9999      -9999      0.3102973  72.60674   -9999      0.04436119 -9999      0.1172399  1165.231   2415.231   1.906752  
5001.5     12.25      9.277163   8.95598    2.087662   0.04916792 54.42606   103.777    108.4851   -9999      -9999      -9999      103.1626   -9999      -9999      0.3102974  72.60675   -9999      0.04436062 -9999      0.1187551  1165.231   2415.231   1.906752  
5002       12.25      9.277187   8.956038   2.037804   0.05237155 54.81607   104.8662   109.7385   -9999      -9999      -9999      95.31635   -9999      -9999      0.3120148  72.60676   -9999      0.0454074  -9999      0.1206615  1165.231   2415.231   1.913056  
5002.5     12.25      9.277142   8.955995   2.027673   0.0541055  55.13047   106.0634   111.11     -9999      -9999      -9999      78.75221   -9999      -9999      0.3149     72.60674   -9999      0.04647546 -9999      0.1367085  1165.231   2415.231   1.923861  
5003       12.25      9.277173   8.955878   2.032636   0.0560049  55.39733   106.8412   112.1808   -9999      -9999      -9999      71.02235   -9999      -9999      0.3161516  72.60676   -9999      0.04875836 -9999      0.1465859  1165.231   2415.231   1.928635  
5003.5     12.25      9.277151   8.955928   1.90066    0.05786485 55.63552   107.3743   112.8109   -9999      -9999      -9999      57.24796   -9999      -9999      0.3164964  72.60674   -9999      0.04938241 -9999      0.1641848  1165.231   2415.231   1.929959  
5004       12.25      9.277201   8.95613    1.91992    0.05883457 55.90017   107.817    113.42     -9999      -9999      -9999      56.23083   -9999      -9999      0.3161797  72.60676   -9999      0.05065118 -9999      0.1647816  1165.231   2415.231   1.928743  
5004.5     12.25      9.277231   8.95589    2.032636   0.06017217 56.3924    108.1419   114.2682   -9999      -9999      -9999      68.14542   -9999      -9999      0.313255   72.60676   -9999      0.05509078 -9999      0.1668461  1165.231   2415.231   1.917668  
5005       12.25      9.277178   8.955997   1.980971   0.07041217 57.02461   108.8541   115.7284   -9999      -9999      -9999      97.64119   -9999      -9999      0.3108847  72.60674   72.60674   0.06121785 -9999      0.1638019  1165.231   2415.231   1.908898  
5005.5     12.25      9.27717    8.956093   2.032739   0.07091574 57.24199   110.3594   117.3698   -9999      -9999      -9999      82.41377   -9999      -9999      0.3159718  72.60674   72.60676   0.06156776 -9999      0.1603364  1165.231   2415.231   1.927946  
5006       12.25      9.277169   8.955919   2.032773   0.06537461 57.06628   112.1009   118.234    -9999      -9999      -9999      67.41893   -9999      -9999      0.325105   72.60676   72.60674   0.05325373 -9999      0.1554332  1165.231   2415.231   1.964398  
5006.5     12.25      9.277165   8.956088   2.03615    0.06658245 56.98689   112.9144   118.4163   -9999      -9999      -9999      100.5471   -9999      -9999      0.3291175  78.90178   72.60675   0.0475672  -9999      0.1463382  1165.231   2415.231   1.98141   
5007       12.25      9.277299   8.955916   2.027673   0.06779824 57.02739   112.4558   117.8727   -9999      -9999      -9999      123.4075   -9999      -9999      0.3269076  72.60674   72.60676   0.04703585 -9999      0.1408177  1165.231   2415.231   1.971961  
5007.5     12.25      9.277217   8.955999   1.904486   0.06720609 57.00236   111.6214   116.2765   -9999      -9999      -9999      132.978    -9999      -9999      0.3236025  72.60674   72.60674   0.04085195 -9999      0.1437859  1168.423   2418.423   1.95819   
5008       12.25      9.277186   8.956007   2.019128   0.06605995 56.94103   110.68     114.5761   42.81348   55.53059   49.17204   121.325    9.688073   3.213409   0.3200291  72.60674   72.60676   0.03459244 0.02359703 0.1518869  1170.392   2420.392   1.943766  
5008.5     12.25      9.277206   8.955949   2.032739   0.06609029 56.97847   109.8166   113.6259   43.55593   57.4711    50.51352   135.1283   9.361529   3.347621   0.3158123  72.60674   72.60674   0.03409655 0.02361376 0.1772799  1171.835   2421.835   1.927336  
5009       12.25      9.27718    8.956049   1.895491   0.06796672 57.15356   109.8833   113.3418   43.26201   59.40697   51.33449   98.45489   8.657401   3.510262   0.3145663  85.19681   72.60676   0.0309871  0.02050167 0.1943276  1173.21    2423.21    1.922598  
5009.5     12.25      9.277223   8.956876   1.910894   0.06945879 57.41502   111.0107   113.7911   41.74793   61.85095   51.79944   109.2651   7.990598   3.720897   0.3174075  72.60674   72.60676   0.02473662 0.01878873 0.2022015  1174.138   2424.138   1.933478  
5010       12.25      9.277245   8.957243   2.076384   0.07148246 57.77623   111.8252   114.5117   41.07269   64.93145   53.00207   122.284    7.351537   3.886166   0.3179245  72.60674   73.19343   0.02373896 0.01763583 0.1936027  1174.427   2424.427   1.935488  
5010.5     12.25      9.277236   8.957205   2.02757    0.07510122 58.27267   111.144    114.5594   40.91048   68.1573    54.53389   120.0173   6.744411   4.071846   0.3104503  80.61765   73.41216   0.03026454 0.01634177 0.1936245  1174.373   2424.374   1.90731   
5011       12.25      9.277255   8.957147   2.042973   0.07957034 58.82619   109.5309   113.5862   41.73957   71.40934   56.57446   117.0144   6.424859   4.261538   0.2973105  72.60676   73.64919   0.03635101 0.01580456 0.1951352  1174.116   2424.116   1.861942  
5011.5     12.25      9.277254   8.957264   1.943826   0.08239336 59.30218   108.2786   111.9254   43.41605   75.45268   59.43437   115.077    6.175846   4.329534   0.2857604  72.60676   73.90159   0.03312178 0.01582552 0.1820439  1173.59    2423.59    1.825879  
5012       12.25      9.277255   8.957391   2.019128   0.08532721 59.58009   107.7958   110.5104   45.80106   79.44179   62.62142   125.9746   5.930833   4.30397    0.2800668  80.61765   74.17465   0.02486937 0.01583154 0.1745263  1172.542   2422.542   1.809259  
5012.5     12.25      9.277217   8.957652   2.042973   0.08482364 59.51019   107.6267   109.9528   48.52897   83.24618   65.88757   111.0087   5.651029   4.19023    0.2798156  88.62856   74.4744    0.02138171 0.01558344 0.1813805  1170.803   2420.803   1.808542  
5013       12.25      9.277287   8.957468   2.077531   0.08154546 59.03954   107.1379   109.7173   51.90728   87.39538   69.65133   99.09413   5.312627   3.96891    0.2819512  72.60674   74.77994   0.02378893 0.01763863 0.1768221  1168.592   2418.592   1.81468   
5013.5     12.25      9.277234   8.957616   2.072249   0.07579754 58.24561   105.8046   109.0431   55.49821   92.15052   73.82436   91.53864   4.995505   3.752394   0.2825864  72.60674   75.09087   0.03014647 0.01640643 0.1598916  1166.336   2416.336   1.816525  
5014       12.25      9.27725    8.95781    2.032739   0.06914248 57.24878   103.7483   107.6182   57.73175   96.03693   76.88434   95.54884   4.663095   3.664689   0.2811047  88.62856   75.41711   0.03661817 0.014639   0.1425006  1164.21    2414.21    1.812235  
5014.5     12.25      9.277258   8.957983   1.966941   0.06059092 56.20726   101.8782   105.7903   59.91724   99.05057   79.4839    89.89185   4.446729   3.604853   0.2812121  72.60674   75.73531   0.03767678 0.01320452 0.1369226  1162.315   2412.315   1.812545  
5015       12.25      9.277251   8.958242   2.038543   0.05457092 55.31945   100.7532   104.0701   62.13283   101.3939   81.76334   89.79504   4.350942   3.623401   0.2842154  88.62856   76.08064   0.03238845 0.01219163 0.1373763  1161.124   2411.124   1.821298  
