~Version
 VERS              .         2.0                           : CWLS LOG ASCII STANDARD - VERSION 2.0
 WRAP              .         NO                            : ONE LINE PER DEPTH STEP
 DLM               .         SPACE                         : DELIMITING CHARACTER(SPACE TAB OR COMMA)
~Well Information
#_______________________________________________________________________________
#
#PARAMETER_NAME    .UNIT     VALUE                         : DESCRIPTION
#_______________________________________________________________________________
STRT               .ft       6000                          : First reference value
STOP               .ft       10942                         : Last reference value
STEP               .ft       0.5                           : Step increment
NULL               .         -9999                         : Missing value
COMP               .         University of Utah            : Company
WELL               .         Forge 16A(78)-32              : Well name
FLD                .         Wildcat                       : Field
LOC                .                                       : Location
CNTY               .         Beaver                        : County
STAT               .         Utah                          : State
CTRY               .         USA                           : Country
SRVC               .         Schlumberger                  : Service Company
DATE               .         26-Dec-2020                   : Date
UWI                .         0000000000                    : Unique Well ID
APD                .ft       32                            : Elevation of Depth Reference (LMF) Above Permanent Datum
API                .                                       : API NUMBER
BHS                .         OPEN                          : Borehole Status (Open or Cased Hole)
BHT                .degF     270                           : Bottom Hole Temperature
BLI                .ft       -999.25                       : Bottom Log Interval
BS                 .in       8.75                          : Bit Size
CBDR               .ft       5132                          : Casing Bottom of Driller
CBLO               .ft       5110                          : Logger Casing Shoe Depth
CSIZ               .in       9.625                         : Current Casing Size
CWEI               .lbm/ft   40                            : Casing Weight
DFD                .lbm/gal  9                             : Drilling Fluid Density
DFT                .         WBM                           : Drilling Fluid Type
DLAB               .         26-Dec-2020                   : Date Logger At Bottom
EDF                .ft       5434.5                        : Elevation of Drill Floor
EGL                .ft       5403.5                        : Elevation of Ground Level
EKB                .ft       5435.5                        : Elevation of Kelly Bushing
EPD                .ft       5403.5                        : Elevation of Permanent Datum (PDAT) above Mean Sea Level
GDAT               .                                       : Geodetic Datum
LMF                .         KB                            : Logging Measured From (Name of Logging Elevation Reference)
LUL                .         Fort Morgan, CO               : Logging Unit Location
LUN                .         2801                          : Logging Unit Number
LATI               .         38° 30' 14.447" N             : Latitude
LONG               .         112° 53' 47.066" W            : Longitude
MCST               .degF     68                            : Mudcake Sample Temperature
MFST               .degF     68                            : Mud Filtrate Sample Temperature
MRT                .degF     322                           : Maximum Recorded Temperature
MST                .degF     68                            : Mud Sample Temperature
ORIGINALWELLNAME   .         Forge 16A(78)-32              : 
PDAT               .         GL                            : Permanent Datum
PRODUCER-CODE      .         440                           : 
PRODUCER-NAME      .         Schlumberger                  : 
RMB                .ohm.m    0.05403042                    : Resistivity of Mud at Bottom Hole Temperature
RMCS               .ohm.m    -999.25                       : Resistivity of Mud Cake Sample
RMFS               .ohm.m    0.15                          : Resistivity of Mud Filtrate Sample
RMS                .ohm.m    0.2                           : Resistivity of Mud Sample
RUN                .         5B                            : Run Number
TDD                .ft       10987                         : Driller Total Depth
TDL                .ft       10987                         : Logger Total Depth
TLAB               .         17_37_17                      : Time Logger At Bottom
TLI                .ft       -999.25                       : Top Log Interval
~Parameter Information Block
#_______________________________________________________________________________
#
#PARAMETER_NAME    .UNIT     VALUE                         : DESCRIPTION
#_______________________________________________________________________________
SET                .         LQC_SonicFracture             : 
TLFamily_BS_RM     .         Bit Size                      : 
TLFamily_C1_13     .         Caliper                       : 
TLFamily_C1_24     .         Caliper                       : 
TLFamily_DEVI      .         Hole Deviation                : 
TLFamily_DPHI      .         Density Porosity              : 
TLFamily_DTCO_MPS_final .         Compressional Slowness        : 
TLFamily_DTSH_FAST_final .        Fast Shear Slowness           : 
TLFamily_DTSH_SLOW_final .        Slow Shear Slowness           : 
TLFamily_DTST_MLF_FA_R_4 .        Stoneley Slowness             : 
TLFamily_DTST_STM_2 .        Stoneley Slowness             : 
TLFamily_GR_TMG    .         Gamma Ray                     : 
TLFamily_MD        .         Measured Depth                : 
TLFamily_RB        .         Relative Bearing              : 
TLFamily_RHOB_model .        Bulk Density                  : 
TLFamily_STRC_DN_7 .         Reflection Coefficient        : 
TLFamily_STRC_DN_STM_6 .     Reflection Coefficient        : 
TLFamily_STTC_R_5  .         Transmission Coefficient      : 
TLFamily_STTC_R_STM_8 .      Transmission Coefficient      : 
TLFamily_TENS      .         Tension                       : 
TLFamily_TNPH      .         Thermal Neutron Porosity      : 
TLFamily_TVD       .         True Vertical Depth           : 
~Curve Information
#_______________________________________________________________________________
#
#LOGNAME           .UNIT     LOG_ID                        : DESCRIPTION
#_______________________________________________________________________________
MD                 .ft                                     : Measured Depth 
BS_RM              .in                                     : Bit Size 
C1_13              .in                                     : Caliper Section 1, Pads 1-3 
C1_24              .in                                     : Caliper Section 1, Pads 2-4 
DEVI               .deg                                    : Hole Deviation 
DPHI               .ft3/ft3                                : Density Porosity using sandstone matrix 
DTCO_MPS           .us/ft                                  : Compressional slowness 
DTSH_FAST          .us/ft                                  : Fast Shear Slowness 
DTSH_SLOW          .us/ft                                  : Slow Shear Slowness 
DTST               .us/ft                                  : Stoneley slowness 
DTST_STM_2         .us/ft                                  : Modeled Stoneley slowness computed from wavenumber at dominant frequency of source wavelet 
GR_TMG             .gAPI                                   : Gamma Ray 
RB                 .deg                                    : Relative Bearing 
RHOB_model         .g/cm3                                  : Bulk density (g/cc) 
STRC_DN_7          .unitless                               : Down-going reflection coefficient for Stoneley waveform 
STRC_DN_STM_6      .unitless                               : Down-going reflection coefficient for Modeled Stoneley waveform 
STTC_R_5           .unitless                               : Transmission coefficient for Stoneley waveform from receiver array 
STTC_R_STM_8       .unitless                               : Transmission coefficient for Modeled Stoneley waveform from receiver array 
TENS               .lbf                                    : Cable Tension 
TNPH               .ft3/ft3                                : Thermal Neutron Porosity (Ratio Method) in Selected Lithology 
TVD                .ft                                     : True Vertical Depth 
~Ascii
# ...
10917.5    8.75       -9999      -9999      66.29705   0.02200179 50.79957   95.22047   99.78469   211.7656   209.7675   105.9615   176.4208   2.613697   0.0000000  0.0000003  1.037238   1.007645   -9999      0.04678388 8545.149  
10918      8.75       -9999      -9999      66.29705   0.02200179 50.79957   95.22047   99.78469   211.7656   209.7675   105.9615   176.4208   2.613697   0.0000000  0.0000003  1.037238   1.007632   -9999      0.04678388 8545.332  
10918.5    8.75       -9999      -9999      66.29705   0.02200179 50.79957   95.22047   99.78469   211.7656   209.7675   105.9615   176.4208   2.613697   0.0000000  0.0000003  1.037238   1.007663   -9999      0.04678388 8545.514  
10919      8.75       -9999      -9999      66.29705   0.02200179 50.79957   95.22047   99.78469   211.7656   209.7675   105.9615   176.4208   2.613697   0.0000000  0.0000002  1.037238   1.007707   -9999      0.04678388 8545.696  
10919.5    8.75       -9999      -9999      66.29705   0.02200179 50.79957   95.22047   99.78469   211.7656   209.7675   105.9615   176.4208   2.613697   0.0000000  0.0000002  1.037238   1.007707   -9999      0.04678388 8545.879  
10920      8.75       -9999      -9999      66.29705   0.02200179 50.79957   95.22047   99.78469   211.7656   209.7675   105.9615   176.4208   2.613697   0.0000000  0.0000002  1.037238   1.007683   -9999      0.04678388 8546.062  
10920.5    8.75       -9999      -9999      66.29705   0.02200179 50.79957   95.22047   99.78469   211.7656   209.7675   105.9615   176.4208   2.613697   0.0000000  0.0000002  1.037238   1.007634   -9999      0.04678388 8546.244  
10921      8.75       -9999      -9999      66.29705   0.02200179 50.79957   95.22047   99.78469   211.7656   209.7675   105.9615   176.4208   2.613697   0.0000000  0.0000002  1.037238   1.007636   -9999      0.04678388 8546.427  
10921.5    8.75       -9999      -9999      66.29705   0.02200179 50.79957   95.22047   99.78469   211.7656   209.7675   105.9615   176.4208   2.613697   0.0000000  0.0000002  1.037238   1.007674   -9999      0.04678388 8546.608  
10922      8.75       -9999      -9999      66.29705   0.02200179 50.79957   95.22047   99.78469   211.7656   209.7675   105.9615   176.4208   2.613697   0.0000000  0.0000001  1.037238   1.007714   -9999      0.04678388 8546.791  
10922.5    8.75       -9999      -9999      66.29705   0.02200179 50.79957   95.22047   99.78469   211.7656   209.7675   105.9615   176.4208   2.613697   0.0000000  0.0000001  1.037238   1.0077     -9999      0.04678388 8546.974  
10923      8.75       -9999      -9999      66.29705   0.02200179 50.79957   95.22047   99.78469   211.7656   209.7675   105.9615   176.4208   2.613697   0.0000000  0.0000001  1.037238   1.007667   -9999      0.04678388 8547.156  
10923.5    8.75       -9999      -9999      66.29705   0.02200179 50.79957   95.22047   99.78469   211.7656   209.7675   105.9615   176.4208   2.613697   0.0000000  0.0000001  1.037238   1.007644   -9999      0.04678388 8547.339  
10924      8.75       -9999      -9999      66.29705   0.02200179 50.79957   95.22047   99.78469   211.7656   209.7675   105.9615   176.4208   2.613697   0.0000000  0.0000001  1.037238   1.007663   -9999      0.04678388 8547.521  
10924.5    8.75       -9999      -9999      66.29705   0.02200179 50.79957   95.22047   99.78469   211.7656   209.7675   105.9615   176.4208   2.613697   0.0000000  0.0000001  1.037238   1.007682   -9999      0.04678388 8547.703  
10925      8.75       -9999      -9999      66.29705   0.02200179 50.79957   95.22047   99.78469   211.7656   209.7675   105.9615   176.4208   2.613697   0.0000000  0.0000000  1.037238   1.007677   -9999      0.04678388 8547.886  
10925.5    8.75       -9999      -9999      66.29705   0.02200179 50.79957   95.22047   99.78469   211.7656   209.7675   105.9615   176.4208   2.613697   0.0000000  0.0000000  1.037238   1.007656   -9999      0.04678388 8548.068  
10926      8.75       -9999      -9999      66.29705   0.02200179 50.79957   95.22047   99.78469   211.7656   209.7675   105.9615   176.4208   2.613697   0.0000000  0.0000001  1.037238   1.007665   -9999      0.04678388 8548.251  
10926.5    8.75       -9999      -9999      66.29705   0.02200179 50.79957   95.22047   99.78469   211.7656   209.7675   105.9615   176.4208   2.613697   0.0000000  0.0000000  1.037238   1.007669   -9999      0.04678388 8548.434  
10927      8.75       -9999      -9999      66.29705   0.02200179 50.79957   95.22047   99.78469   211.7656   209.7675   105.9615   176.4208   2.613697   -9999      -9999      1.037238   1.007669   -9999      0.04678388 8548.615  
10927.5    8.75       -9999      -9999      66.29705   0.02200179 50.79957   95.22047   99.78469   211.7656   209.7675   105.9615   176.4208   2.613697   -9999      -9999      1.037238   1.007682   -9999      0.04678388 8548.798  
10928      8.75       -9999      -9999      66.29705   0.02200179 50.79957   95.22047   99.78469   211.7656   209.7675   105.9615   176.4208   2.613697   -9999      -9999      1.037238   1.007684   -9999      0.04678388 8548.98   
10928.5    8.75       -9999      -9999      66.29705   0.02200179 50.79957   95.22047   99.78469   211.7656   209.7675   105.9615   176.4208   2.613697   -9999      -9999      1.037238   1.007665   -9999      0.04678388 8549.163  
10929      8.75       -9999      -9999      66.29705   0.02200179 50.79957   95.22047   99.78469   211.7656   209.7675   105.9615   176.4208   2.613697   -9999      -9999      1.037238   1.007661   -9999      0.04678388 8549.346  
10929.5    8.75       -9999      -9999      66.29705   0.02200179 50.79957   95.22047   99.78469   211.7656   209.7675   105.9615   176.4208   2.613697   -9999      -9999      1.037238   1.007681   -9999      0.04678388 8549.527  
10930      8.75       -9999      -9999      66.29705   0.02200179 50.79957   95.22047   99.78469   211.7656   209.7675   105.9615   176.4208   2.613697   -9999      -9999      1.037238   1.007695   -9999      0.04678388 8549.71   
10930.5    8.75       -9999      -9999      66.29705   0.02200179 50.79957   95.22047   99.78469   211.7656   209.7675   105.9615   176.4208   2.613697   -9999      -9999      1.037238   1.007678   -9999      0.04678388 8549.893  
10931      8.75       -9999      -9999      66.29705   0.02200179 50.79957   95.22047   99.78469   211.7656   209.7675   105.9615   176.4208   2.613697   -9999      -9999      1.037238   1.00766    -9999      0.04678388 8550.075  
10931.5    8.75       -9999      -9999      66.29705   0.02200179 50.79957   95.22047   99.78469   211.7656   209.7675   105.9615   176.4208   2.613697   -9999      -9999      1.037238   1.007661   -9999      0.04678388 8550.258  
10932      8.75       -9999      -9999      66.29705   0.02200179 50.79957   95.22047   99.78469   211.7656   209.7675   105.9615   176.4208   2.613697   -9999      -9999      1.037238   1.007668   -9999      0.04678388 8550.44   
10932.5    8.75       -9999      -9999      66.29705   0.02200179 50.79957   95.22047   99.78469   211.7656   209.7675   105.9615   176.4208   2.613697   -9999      -9999      1.037238   1.007675   -9999      0.04678388 8550.622  
10933      8.75       -9999      -9999      66.29705   0.02200179 50.79957   95.22047   99.78469   211.7656   209.7675   105.9615   176.4208   2.613697   -9999      -9999      1.037238   1.007679   -9999      0.04678388 8550.805  
10933.5    8.75       -9999      -9999      66.29705   0.02200179 50.79957   95.22047   99.78469   211.7656   209.7675   105.9615   176.4208   2.613697   -9999      -9999      1.037238   1.007678   -9999      0.04678388 8550.987  
10934      8.75       -9999      -9999      66.29705   0.02200179 50.79957   95.22047   99.78469   211.7656   209.7675   105.9615   176.4208   2.613697   -9999      -9999      1.037238   1.007675   -9999      0.04678388 8551.17   
10934.5    8.75       -9999      -9999      66.29705   0.02200179 50.79957   95.22047   99.78469   211.7656   209.7675   105.9615   176.4208   2.613697   -9999      -9999      1.037238   1.007672   -9999      0.04678388 8551.353  
