~Version
 VERS              .         2.0                           : CWLS LOG ASCII STANDARD - VERSION 2.0
 WRAP              .         NO                            : ONE LINE PER DEPTH STEP
 DLM               .         SPACE                         : DELIMITING CHARACTER(SPACE TAB OR COMMA)
~Well Information
#_______________________________________________________________________________
#
#PARAMETER_NAME    .UNIT     VALUE                         : DESCRIPTION
#_______________________________________________________________________________
STRT               .ft       6000                          : First reference value
STOP               .ft       10942                         : Last reference value
STEP               .ft       0.5                           : Step increment
NULL               .         -9999                         : Missing value
COMP               .         University of Utah            : Company
WELL               .         Forge 16A(78)-32              : Well name
FLD                .         Wildcat                       : Field
LOC                .                                       : Location
CNTY               .         Beaver                        : County
STAT               .         Utah                          : State
CTRY               .         USA                           : Country
SRVC               .         Schlumberger                  : Service Company
DATE               .         26-Dec-2020                   : Date
UWI                .         0000000000                    : Unique Well ID
APD                .ft       32                            : Elevation of Depth Reference (LMF) Above Permanent Datum
API                .                                       : API NUMBER
BHS                .         OPEN                          : Borehole Status (Open or Cased Hole)
BHT                .degF     270                           : Bottom Hole Temperature
BLI                .ft       -999.25                       : Bottom Log Interval
BS                 .in       8.75                          : Bit Size
CBDR               .ft       5132                          : Casing Bottom of Driller
CBLO               .ft       5110                          : Logger Casing Shoe Depth
CSIZ               .in       9.625                         : Current Casing Size
CWEI               .lbm/ft   40                            : Casing Weight
DFD                .lbm/gal  9                             : Drilling Fluid Density
DFT                .         WBM                           : Drilling Fluid Type
DLAB               .         26-Dec-2020                   : Date Logger At Bottom
EDF                .ft       5434.5                        : Elevation of Drill Floor
EGL                .ft       5403.5                        : Elevation of Ground Level
EKB                .ft       5435.5                        : Elevation of Kelly Bushing
EPD                .ft       5403.5                        : Elevation of Permanent Datum (PDAT) above Mean Sea Level
GDAT               .                                       : Geodetic Datum
LMF                .         KB                            : Logging Measured From (Name of Logging Elevation Reference)
LUL                .         Fort Morgan, CO               : Logging Unit Location
LUN                .         2801                          : Logging Unit Number
LATI               .         38° 30' 14.447" N             : Latitude
LONG               .         112° 53' 47.066" W            : Longitude
MCST               .degF     68                            : Mudcake Sample Temperature
MFST               .degF     68                            : Mud Filtrate Sample Temperature
MRT                .degF     322                           : Maximum Recorded Temperature
MST                .degF     68                            : Mud Sample Temperature
ORIGINALWELLNAME   .         Forge 16A(78)-32              : 
PDAT               .         GL                            : Permanent Datum
PRODUCER-CODE      .         440                           : 
PRODUCER-NAME      .         Schlumberger                  : 
RMB                .ohm.m    0.05403042                    : Resistivity of Mud at Bottom Hole Temperature
RMCS               .ohm.m    -999.25                       : Resistivity of Mud Cake Sample
RMFS               .ohm.m    0.15                          : Resistivity of Mud Filtrate Sample
RMS                .ohm.m    0.2                           : Resistivity of Mud Sample
RUN                .         5B                            : Run Number
TDD                .ft       10987                         : Driller Total Depth
TDL                .ft       10987                         : Logger Total Depth
TLAB               .         17_37_17                      : Time Logger At Bottom
TLI                .ft       -999.25                       : Top Log Interval
~Parameter Information Block
#_______________________________________________________________________________
#
#PARAMETER_NAME    .UNIT     VALUE                         : DESCRIPTION
#_______________________________________________________________________________
SET                .         LQC_SonicFracture             : 
TLFamily_BS_RM     .         Bit Size                      : 
TLFamily_C1_13     .         Caliper                       : 
TLFamily_C1_24     .         Caliper                       : 
TLFamily_DEVI      .         Hole Deviation                : 
TLFamily_DPHI      .         Density Porosity              : 
TLFamily_DTCO_MPS_final .         Compressional Slowness        : 
TLFamily_DTSH_FAST_final .        Fast Shear Slowness           : 
TLFamily_DTSH_SLOW_final .        Slow Shear Slowness           : 
TLFamily_DTST_MLF_FA_R_4 .        Stoneley Slowness             : 
TLFamily_DTST_STM_2 .        Stoneley Slowness             : 
TLFamily_GR_TMG    .         Gamma Ray                     : 
TLFamily_MD        .         Measured Depth                : 
TLFamily_RB        .         Relative Bearing              : 
TLFamily_RHOB_model .        Bulk Density                  : 
TLFamily_STRC_DN_7 .         Reflection Coefficient        : 
TLFamily_STRC_DN_STM_6 .     Reflection Coefficient        : 
TLFamily_STTC_R_5  .         Transmission Coefficient      : 
TLFamily_STTC_R_STM_8 .      Transmission Coefficient      : 
TLFamily_TENS      .         Tension                       : 
TLFamily_TNPH      .         Thermal Neutron Porosity      : 
TLFamily_TVD       .         True Vertical Depth           : 
~Curve Information
#_______________________________________________________________________________
#
#LOGNAME           .UNIT     LOG_ID                        : DESCRIPTION
#_______________________________________________________________________________
MD                 .ft                                     : Measured Depth 
BS_RM              .in                                     : Bit Size 
C1_13              .in                                     : Caliper Section 1, Pads 1-3 
C1_24              .in                                     : Caliper Section 1, Pads 2-4 
DEVI               .deg                                    : Hole Deviation 
DPHI               .ft3/ft3                                : Density Porosity using sandstone matrix 
DTCO_MPS           .us/ft                                  : Compressional slowness 
DTSH_FAST          .us/ft                                  : Fast Shear Slowness 
DTSH_SLOW          .us/ft                                  : Slow Shear Slowness 
DTST               .us/ft                                  : Stoneley slowness 
DTST_STM_2         .us/ft                                  : Modeled Stoneley slowness computed from wavenumber at dominant frequency of source wavelet 
GR_TMG             .gAPI                                   : Gamma Ray 
RB                 .deg                                    : Relative Bearing 
RHOB_model         .g/cm3                                  : Bulk density (g/cc) 
STRC_DN_7          .unitless                               : Down-going reflection coefficient for Stoneley waveform 
STRC_DN_STM_6      .unitless                               : Down-going reflection coefficient for Modeled Stoneley waveform 
STTC_R_5           .unitless                               : Transmission coefficient for Stoneley waveform from receiver array 
STTC_R_STM_8       .unitless                               : Transmission coefficient for Modeled Stoneley waveform from receiver array 
TENS               .lbf                                    : Cable Tension 
TNPH               .ft3/ft3                                : Thermal Neutron Porosity (Ratio Method) in Selected Lithology 
TVD                .ft                                     : True Vertical Depth 
~Ascii
# ...
6332.5     8.75       9.376691   8.956553   16.15587   0.04095967 53.30868   100.1428   100.1428   207.8696   211.0951   203.7679   173.6653   2.582417   0.0004037867 0.0000025  1.031666   0.9995825  -9999      0.04330445 6318.293  
6333       8.75       9.376801   8.956742   16.10849   0.03975544 53.15807   100.0894   100.0894   207.8572   211.0281   220.2737   173.6653   2.584404   0.0004843147 0.0000045  1.024846   0.9995268  -9999      0.04339527 6318.77   
6333.5     8.75       9.376726   8.956742   16.11588   0.03880062 53.03394   100.0092   100.0092   207.9772   210.9189   237.7097   173.6653   2.585979   0.0004147418 0.0000034  1.022031   1.00009    -9999      0.04453994 6319.247  
6334       8.75       9.376654   8.95672    16.08181   0.0382097  52.9417    99.88822   99.88822   207.8847   210.8625   201.6756   173.6565   2.586954   0.0004557386 0.0000042  1.019226   1.000186   -9999      0.04704907 6319.724  
6334.5     8.75       9.376708   8.956814   16.18305   0.0377239  52.86956   99.69754   99.69754   207.97     210.6334   206.761    173.6653   2.587756   0.0008439111 0.0000042  1.022223   1.000301   -9999      0.04828761 6320.201  
6335       8.75       9.376758   8.956874   16.13987   0.03727242 52.80239   99.3588    99.3588    207.97     210.6221   199.002    173.6653   2.5885     0.0007698418 0.0000036  1.024693   0.9994273  -9999      0.04990309 6320.678  
6335.5     8.75       9.376686   8.956822   15.98955   0.03674222 52.73059   98.86311   98.86311   207.8893   210.5909   201.6756   173.9312   2.589375   0.0004523947 0.0000031  1.025293   1.00026    -9999      0.05066165 6321.154  
6336       8.75       9.376696   8.956776   15.92506   0.03613052 52.66057   98.41286   98.41286   207.892    210.5534   190.9233   173.248    2.590385   0.0006740358 0.0000020  1.022081   1.002779   -9999      0.05131412 6321.631  
6336.5     8.75       9.37673    8.956982   15.83877   0.03538401 52.6408    98.13803   98.13803   207.9507   210.5254   188.8891   173.8647   2.591616   0.0007345421 0.0000016  1.01801    1.002482   -9999      0.05275698 6322.108  
6337       8.75       9.376781   8.956681   15.96105   0.03632395 52.73637   97.94887   97.94887   207.8909   210.6079   163.4328   174.1345   2.590065   0.0005371692 0.0000024  1.018584   1.004618   -9999      0.05751783 6322.585  
6337.5     8.75       9.376659   8.956827   16.0522    0.03800574 52.95728   97.80087   97.80087   207.5412   210.6078   180.1711   174.2518   2.587291   0.0003717393 0.0000023  1.023815   1.003857   -9999      0.06664104 6323.063  
6338       8.75       9.376699   8.956831   15.72061   0.0403697  53.29361   97.69817   97.69817   207.5376   210.6922   142.5387   173.9645   2.58339    0.0004936765 0.0000021  1.020539   1.007184   -9999      0.07629625 6323.54   
6338.5     8.75       9.376722   8.956718   15.71783   0.04386362 53.73457   97.63039   97.63039   207.815    210.7182   113.7694   176.077    2.577625   0.000433557 0.0000026  1.019172   1.003503   -9999      0.08516219 6324.016  
6339       8.75       9.376752   8.956755   15.9362    0.04779666 54.23095   97.67487   97.67487   207.5736   210.7368   87.7608    175.3416   2.571136   0.0003578313 0.0000019  1.021369   1.013798   -9999      0.09183683 6324.493  
6339.5     8.75       9.376708   8.956601   15.64716   0.05121666 54.73348   98.02254   98.02254   207.6258   210.899    65.67531   175.0706   2.565493   0.0006598966 0.0000016  1.029844   1.008816   -9999      0.1009972  6324.97   
6340       8.75       9.376817   8.956769   15.86463   0.05472603 55.23994   98.85758   98.85758   207.5284   211.0873   59.63088   175.9841   2.559702   0.000628405 0.0000018  1.041035   1.014039   -9999      0.1068251  6325.447  
6340.5     8.75       9.376754   8.956834   15.66573   0.05863971 55.73527   99.9438    99.9438    207.5653   211.2233   48.82056   176.077    2.553245   0.0005239406 0.0000016  1.031745   1.014018   -9999      0.1089174  6325.924  
6341       8.75       9.376697   8.956853   15.8362    0.06167153 56.16097   100.8274   100.8274   207.5653   211.2478   60.15395   175.9609   2.548242   0.0008667671 0.0000022  1.020294   1.009432   -9999      0.1061329  6326.401  
6341.5     8.75       9.376671   8.956846   15.69759   0.06362425 56.49163   101.4266   101.4266   207.3585   211.3573   57.0736    176.077    2.54502    0.0009923279 0.0000021  1.022013   1.009398   -9999      0.1032678  6326.878  
6342       8.75       9.376824   8.956755   15.70975   0.06571576 56.72658   101.8784   101.8784   207.4993   211.4792   44.171     176.0687   2.541569   0.0008553059 0.0000030  1.045252   1.007555   -9999      0.09647426 6327.355  
6342.5     8.75       9.376756   8.956906   15.69904   0.06619275 56.84603   102.3093   102.3093   207.5336   211.5927   52.88896   176.5719   2.540782   0.0007558975 0.0000032  1.051689   1.006848   -9999      0.09103423 6327.833  
6343       8.75       9.376747   8.956772   15.73842   0.06618982 56.86667   102.6996   102.6996   207.0978   211.6273   50.85479   176.5719   2.540787   0.0008753395 0.0000035  1.046589   1.003093   -9999      0.08951684 6328.31   
6343.5     8.75       9.376772   8.95676    15.69904   0.06631427 56.7703    102.9332   102.9332   207.2579   211.694    54.48724   176.5719   2.540581   0.001027658 0.0000070  1.049985   1.003169   -9999      0.08959481 6328.787  
6344       8.75       9.376841   8.956696   15.75828   0.06433669 56.45762   103.0351   103.0351   207.1386   211.6145   57.53856   176.4663   2.543844   0.001053348 0.0000056  1.037934   1.000861   -9999      0.08598032 6329.264  
6344.5     8.75       9.376842   8.956862   15.77173   0.05986518 55.90039   103.0457   103.0457   207.1942   211.6068   52.16248   177.0668   2.551222   0.001554063 0.0000069  1.024155   1.00178    -9999      0.07579059 6329.741  
6345       8.75       9.376714   8.956945   15.69904   0.0546897  55.18857   102.894    102.894    207.1942   211.6146   56.23083   176.5719   2.559762   0.001479851 0.0000099  1.05051    0.9974031  -9999      0.06357353 6330.218  
6345.5     8.75       9.376703   8.956864   15.68794   0.04880358 54.44822   102.5725   102.5725   207.2152   211.5704   55.94027   176.407    2.569474   0.00113331 0.0000116  1.058666   1.00211    -9999      0.05430607 6330.695  
6346       8.75       9.376738   8.957053   15.66573   0.04343121 53.8548    102.2378   102.2378   207.1894   211.4261   99.50101   176.077    2.578339   0.000930701 0.0000216  1.069315   0.9943998  -9999      0.04860721 6331.172  
6346.5     8.75       9.376723   8.956808   15.77143   0.04165636 53.56334   101.9809   101.9809   207.1894   211.4119   169.419    177.0668   2.581267   0.0009593131 0.0000263  1.073321   0.9986178  -9999      0.04636163 6331.649  
6347       8.75       9.376759   8.956718   15.62815   0.04252088 53.53745   101.7334   101.7334   207.2924   211.2772   189.3251   176.077    2.579841   0.0006737011 0.0000310  1.058035   0.9938412  -9999      0.04428146 6332.127  
6347.5     8.75       9.376807   8.956806   15.81474   0.04323787 53.6169    101.323    101.323    208.0063   209.707    187.7268   176.7369   2.578658   0.001082168 0.0000376  1.055957   0.9926143  -9999      0.04273061 6332.604  
6348       8.75       9.376827   8.956819   15.70367   0.04405117 53.69125   100.1003   100.1003   208.007    210.4041   174.0105   177.3967   2.577316   0.002172104 0.0000398  1.04142    0.9918513  -9999      0.04157519 6333.081  
6348.5     8.75       9.376686   8.95682    15.74585   0.0442557  53.703     97.718     97.72105   208.073    209.676    170.0003   176.9254   2.576978   0.001682083 0.0000391  1.06965    0.9908195  -9999      0.04110998 6333.558  
6349       8.75       9.376719   8.956899   15.66117   0.0434963  53.63617   95.39301   95.43307   208.339    209.3288   164.6242   176.5719   2.578231   0.001400185 0.0000347  1.051063   0.9947444  -9999      0.03928147 6334.035  
6349.5     8.75       9.376787   8.956808   15.79972   0.04263966 53.51314   94.05832   94.26123   208.6384   210.4722   157.6497   178.0565   2.579645   0.002300984 0.0000246  1.028748   0.9967294  -9999      0.03803034 6334.513  
