~Version
 VERS              .         2.0                           : CWLS LOG ASCII STANDARD - VERSION 2.0
 WRAP              .         NO                            : ONE LINE PER DEPTH STEP
 DLM               .         SPACE                         : DELIMITING CHARACTER(SPACE TAB OR COMMA)
~Well Information
#_______________________________________________________________________________
#
#PARAMETER_NAME    .UNIT     VALUE                         : DESCRIPTION
#_______________________________________________________________________________
STRT               .ft       6000                          : First reference value
STOP               .ft       10942                         : Last reference value
STEP               .ft       0.5                           : Step increment
NULL               .         -9999                         : Missing value
COMP               .         University of Utah            : Company
WELL               .         Forge 16A(78)-32              : Well name
FLD                .         Wildcat                       : Field
LOC                .                                       : Location
CNTY               .         Beaver                        : County
STAT               .         Utah                          : State
CTRY               .         USA                           : Country
SRVC               .         Schlumberger                  : Service Company
DATE               .         26-Dec-2020                   : Date
UWI                .         0000000000                    : Unique Well ID
APD                .ft       32                            : Elevation of Depth Reference (LMF) Above Permanent Datum
API                .                                       : API NUMBER
BHS                .         OPEN                          : Borehole Status (Open or Cased Hole)
BHT                .degF     270                           : Bottom Hole Temperature
BLI                .ft       -999.25                       : Bottom Log Interval
BS                 .in       8.75                          : Bit Size
CBDR               .ft       5132                          : Casing Bottom of Driller
CBLO               .ft       5110                          : Logger Casing Shoe Depth
CSIZ               .in       9.625                         : Current Casing Size
CWEI               .lbm/ft   40                            : Casing Weight
DFD                .lbm/gal  9                             : Drilling Fluid Density
DFT                .         WBM                           : Drilling Fluid Type
DLAB               .         26-Dec-2020                   : Date Logger At Bottom
EDF                .ft       5434.5                        : Elevation of Drill Floor
EGL                .ft       5403.5                        : Elevation of Ground Level
EKB                .ft       5435.5                        : Elevation of Kelly Bushing
EPD                .ft       5403.5                        : Elevation of Permanent Datum (PDAT) above Mean Sea Level
GDAT               .                                       : Geodetic Datum
LMF                .         KB                            : Logging Measured From (Name of Logging Elevation Reference)
LUL                .         Fort Morgan, CO               : Logging Unit Location
LUN                .         2801                          : Logging Unit Number
LATI               .         38° 30' 14.447" N             : Latitude
LONG               .         112° 53' 47.066" W            : Longitude
MCST               .degF     68                            : Mudcake Sample Temperature
MFST               .degF     68                            : Mud Filtrate Sample Temperature
MRT                .degF     322                           : Maximum Recorded Temperature
MST                .degF     68                            : Mud Sample Temperature
ORIGINALWELLNAME   .         Forge 16A(78)-32              : 
PDAT               .         GL                            : Permanent Datum
PRODUCER-CODE      .         440                           : 
PRODUCER-NAME      .         Schlumberger                  : 
RMB                .ohm.m    0.05403042                    : Resistivity of Mud at Bottom Hole Temperature
RMCS               .ohm.m    -999.25                       : Resistivity of Mud Cake Sample
RMFS               .ohm.m    0.15                          : Resistivity of Mud Filtrate Sample
RMS                .ohm.m    0.2                           : Resistivity of Mud Sample
RUN                .         5B                            : Run Number
TDD                .ft       10987                         : Driller Total Depth
TDL                .ft       10987                         : Logger Total Depth
TLAB               .         17_37_17                      : Time Logger At Bottom
TLI                .ft       -999.25                       : Top Log Interval
~Parameter Information Block
#_______________________________________________________________________________
#
#PARAMETER_NAME    .UNIT     VALUE                         : DESCRIPTION
#_______________________________________________________________________________
SET                .         LQC_SonicFracture             : 
TLFamily_BS_RM     .         Bit Size                      : 
TLFamily_C1_13     .         Caliper                       : 
TLFamily_C1_24     .         Caliper                       : 
TLFamily_DEVI      .         Hole Deviation                : 
TLFamily_DPHI      .         Density Porosity              : 
TLFamily_DTCO_MPS_final .         Compressional Slowness        : 
TLFamily_DTSH_FAST_final .        Fast Shear Slowness           : 
TLFamily_DTSH_SLOW_final .        Slow Shear Slowness           : 
TLFamily_DTST_MLF_FA_R_4 .        Stoneley Slowness             : 
TLFamily_DTST_STM_2 .        Stoneley Slowness             : 
TLFamily_GR_TMG    .         Gamma Ray                     : 
TLFamily_MD        .         Measured Depth                : 
TLFamily_RB        .         Relative Bearing              : 
TLFamily_RHOB_model .        Bulk Density                  : 
TLFamily_STRC_DN_7 .         Reflection Coefficient        : 
TLFamily_STRC_DN_STM_6 .     Reflection Coefficient        : 
TLFamily_STTC_R_5  .         Transmission Coefficient      : 
TLFamily_STTC_R_STM_8 .      Transmission Coefficient      : 
TLFamily_TENS      .         Tension                       : 
TLFamily_TNPH      .         Thermal Neutron Porosity      : 
TLFamily_TVD       .         True Vertical Depth           : 
~Curve Information
#_______________________________________________________________________________
#
#LOGNAME           .UNIT     LOG_ID                        : DESCRIPTION
#_______________________________________________________________________________
MD                 .ft                                     : Measured Depth 
BS_RM              .in                                     : Bit Size 
C1_13              .in                                     : Caliper Section 1, Pads 1-3 
C1_24              .in                                     : Caliper Section 1, Pads 2-4 
DEVI               .deg                                    : Hole Deviation 
DPHI               .ft3/ft3                                : Density Porosity using sandstone matrix 
DTCO_MPS           .us/ft                                  : Compressional slowness 
DTSH_FAST          .us/ft                                  : Fast Shear Slowness 
DTSH_SLOW          .us/ft                                  : Slow Shear Slowness 
DTST               .us/ft                                  : Stoneley slowness 
DTST_STM_2         .us/ft                                  : Modeled Stoneley slowness computed from wavenumber at dominant frequency of source wavelet 
GR_TMG             .gAPI                                   : Gamma Ray 
RB                 .deg                                    : Relative Bearing 
RHOB_model         .g/cm3                                  : Bulk density (g/cc) 
STRC_DN_7          .unitless                               : Down-going reflection coefficient for Stoneley waveform 
STRC_DN_STM_6      .unitless                               : Down-going reflection coefficient for Modeled Stoneley waveform 
STTC_R_5           .unitless                               : Transmission coefficient for Stoneley waveform from receiver array 
STTC_R_STM_8       .unitless                               : Transmission coefficient for Modeled Stoneley waveform from receiver array 
TENS               .lbf                                    : Cable Tension 
TNPH               .ft3/ft3                                : Thermal Neutron Porosity (Ratio Method) in Selected Lithology 
TVD                .ft                                     : True Vertical Depth 
~Ascii
# ...
9937.5     8.75       9.299877   8.674223   65.67792   0.03075276 51.86751   95.90814   96.61965   214.2949   209.9676   263.67     198.3588   2.599258   0.002577092 0.0000366  1.175373   1.001634   -9999      0.04564977 8150.954  
9938       8.75       9.299895   8.69428    66.06217   0.02872548 51.6847    95.48406   95.7114    212.3346   209.5542   202.1113   198.3702   2.602603   0.003945952 0.0000295  1.071045   1.005712   -9999      0.04617125 8151.146  
9938.5     8.75       9.299865   8.726314   65.45164   0.0272837  51.47571   95.01049   95.30082   210.781    209.7374   194.9918   197.857    2.604982   0.006761474 0.0000276  1.180028   1.002985   -9999      0.0476074  8151.337  
9939       8.75       9.29993    8.767007   65.29691   0.02546666 51.2886    94.57491   95.41195   213.0157   209.6965   177.8465   197.9116   2.60798    0.008958209 0.0000206  1.195166   1.010886   -9999      0.04782914 8151.529  
9939.5     8.75       9.299863   8.749503   65.62225   0.02428179 51.18579   94.40684   96.27188   214.3543   209.5251   152.2737   197.8692   2.609935   0.01106973 0.0000178  1.048192   1.004082   -9999      0.04829251 8151.721  
9940       8.75       9.299882   8.723866   64.98961   0.02485631 51.21138   94.38709   97.89733   213.2139   209.5921   142.6259   198.2196   2.608987   0.01017304 0.0000105  1.013798   1.013823   -9999      0.04739148 8151.913  
9940.5     8.75       9.29987    8.716366   65.2915    0.02602976 51.33097   94.1981    99.75866   214.3968   209.4449   149.2224   198.4077   2.607051   0.008945283 0.0000032  0.9998593  0.9921944  -9999      0.04779917 8152.105  
9941       8.75       9.299895   8.71642    65.41042   0.02731939 51.48185   93.88964   101.1834   213.8766   209.4683   140.8435   198.8816   2.604923   0.008933717 0.0000072  0.9592484  1.004926   -9999      0.04807149 8152.297  
9941.5     8.75       9.299897   8.716283   65.46056   0.0286528  51.6027    93.60789   101.8909   212.9084   209.632    141.8122   198.8529   2.602723   0.006079012 0.0000060  0.9548778  1.001125   -9999      0.04922414 8152.489  
9942       8.75       9.299874   8.716397   65.60847   0.02895335 51.63422   93.47067   101.7762   212.1238   209.4645   146.1712   199.3887   2.602227   0.004738413 0.0000048  0.9870521  1.001705   -9999      0.0488934  8152.681  
9942.5     8.75       9.29989    8.716251   65.97021   0.02794852 51.57957   93.47688   100.8572   212.3696   209.2472   138.9061   198.8608   2.603885   0.004675135 0.0000107  1.00577    1.007264   -9999      0.05005885 8152.873  
9943       8.75       9.299911   8.694484   65.54913   0.02737993 51.49932   93.26257   99.61349   212.3696   209.2595   146.4618   199.5646   2.604823   0.00414251 0.0000085  1.014586   1.005714   -9999      0.05110396 8153.065  
9943.5     8.75       9.299891   8.686551   65.41331   0.02690006 51.4162    92.72233   98.56721   214.2197   209.3193   152.5644   199.403    2.605615   0.004670626 0.0000213  1.105578   1.006838   -9999      0.05260726 8153.258  
9944       8.75       9.299958   8.6623     65.52031   0.02604118 51.32297   92.29906   98.1366    213.1362   209.3212   145.648    199.5436   2.607032   0.004782097 0.0000154  1.105605   1.010951   -9999      0.05258978 8153.45   
9944.5     8.75       9.299908   8.662391   65.80657   0.025157   51.23392   92.26318   98.69228   213.6441   209.4916   169.4772   199.6301   2.608491   0.005468028 0.0000254  1.11067    1.015008   -9999      0.05264178 8153.643  
9945       8.75       9.299807   8.649468   66.44251   0.02511886 51.14478   92.52123   100.2201   211.9023   209.5778   160.2167   199.8282   2.608554   0.005384923 0.0000426  1.066673   1.014545   -9999      0.05320798 8153.835  
9945.5     8.75       9.299783   8.626913   65.71618   0.0235661  51.04739   92.99408   102.4782   211.9023   209.5804   188.4532   199.4669   2.611116   0.004616611 0.0000251  1.017431   0.9813579  -9999      0.05325557 8154.028  
9946       8.75       9.299812   8.621334   66.18484   0.02273395 51.0378    93.52996   104.7686   212.4746   209.6317   164.2852   199.4352   2.612489   0.003310296 0.0000295  1.04349    1.007048   -9999      0.05153496 8154.221  
9946.5     8.75       9.299791   8.601102   65.50546   0.02495514 51.18024   93.88213   106.1071   213.7424   209.5926   136.4361   199.7887   2.608824   0.002505893 0.0000366  1.087674   1.036473   -9999      0.05000034 8154.414  
9947       8.75       9.299774   8.591336   64.77264   0.02674545 51.38664   94.03122   106.0572   213.9453   209.6284   137.1625   200.1891   2.60587    0.002249615 0.0000413  1.010926   1.011049   -9999      0.04876591 8154.606  
9947.5     8.75       9.299795   8.517982   66.87683   0.02776429 51.60657   94.22277   104.9604   213.0988   209.8262   138.4704   200.2403   2.604189   0.001535867 0.0000416  0.927535   1.016987   -9999      0.05171022 8154.799  
9948       8.75       9.303909   8.41441    66.58032   0.03022968 51.87104   94.74252   103.8238   211.9643   210.1085   132.0287   199.8102   2.600121   0.002012315 0.0000673  1.017131   1.016188   -9999      0.05792895 8154.992  
9948.5     8.75       9.317369   8.384842   64.86015   0.03249697 52.1754    95.54397   103.2392   211.9643   210.1316   140.2139   198.9476   2.59638    0.002643893 0.0001108788 1.068175   1.015362   -9999      0.06809773 8155.185  
9949       8.75       9.302669   8.587132   65.88887   0.03450301 52.54826   96.39625   103.1172   214.282    210.3777   129.7233   199.0404   2.59307    0.002554293 0.0001025541 1.121776   1.020794   -9999      0.07464058 8155.378  
9949.5     8.75       9.238227   8.612394   65.11277   0.03875813 53.04934   97.40697   103.4108   212.3878   210.7295   106.9403   199.1831   2.586049   0.002185193 0.0001733083 1.119761   1.025531   -9999      0.07764211 8155.571  
9950       8.75       9.228708   8.613103   65.99115   0.04347449 53.63752   98.78357   104.2234   211.7859   211.1853   112.8976   198.8879   2.578267   0.001646318 0.0000923  1.086652   1.016925   -9999      0.07564441 8155.765  
9950.5     8.75       9.228664   8.613701   66.04007   0.04783885 54.21164   100.3003   105.4201   211.6222   211.3013   117.7894   198.0438   2.571066   0.001467315 0.0000743  1.11628    1.020509   -9999      0.0729451  8155.958  
9951       8.75       9.22863    8.613673   67.02211   0.05188907 54.64621   101.4612   106.4791   212.5893   211.4205   132.6583   197.9214   2.564383   0.001104962 0.0001326754 1.028965   1.017943   -9999      0.06715803 8156.151  
9951.5     8.75       9.228648   8.61365    66.16162   0.05313333 54.79263   101.9903   106.8046   211.6497   211.3343   127.8634   197.7972   2.56233    0.001289644 0.0000461  1.033153   1.018636   -9999      0.06325652 8156.345  
9952       8.75       9.228584   8.613573   65.20444   0.05103033 54.62252   101.8693   106.23     214.8017   211.0413   129.9558   197.0399   2.5658     0.001812587 0.0000434  1.040696   1.027965   -9999      0.06241506 8156.538  
9952.5     8.75       9.228628   8.615246   65.68779   0.04799996 54.26503   101.2218   105.139    211.5299   210.8519   136.7751   196.9268   2.5708     0.001646765 0.0000512  1.081529   1.027677   -9999      0.06771126 8156.732  
9953       8.75       9.297055   8.637149   65.74207   0.04495037 53.84618   100.4454   103.918    212.1368   210.8596   132.9489   196.6087   2.575832   0.001892281 0.0000807  1.041419   1.024335   -9999      0.07176729 8156.926  
9953.5     8.75       9.778154   8.789598   65.26859   0.04168664 53.41699   99.86097   102.5329   211.6804   210.5304   120.5404   196.0039   2.581217   0.001864633 0.0002355255 1.001426   1.052505   -9999      0.07106318 8157.119  
9954       8.75       10.40769   8.888782   65.20628   0.0387249  52.98386   99.30269   100.9367   211.2741   210.2072   123.2138   195.7148   2.586104   0.00162287 0.0002286647 0.989255   1.070077   -9999      0.06752323 8157.313  
9954.5     8.75       10.10894   8.640292   65.17699   0.03542548 52.52166   98.49339   99.29265   212.5715   210.2073   116.2394   194.9598   2.591548   0.001833749 0.0002617568 0.9924657  1.036585   -9999      0.06707306 8157.507  
