~Version
 VERS              .         3.0                           : CWLS LOG ASCII STANDARD - VERSION 3.0
 WRAP              .         NO                            : ONE LINE PER DEPTH STEP
 DLM               .         SPACE                         : DELIMITING CHARACTER(SPACE TAB OR COMMA)
~Well Information
#_______________________________________________________________________________
#
#PARAMETER_NAME    .UNIT     VALUE                         : DESCRIPTION
#_______________________________________________________________________________
STRT               .ft       5000                          : First reference value
STOP               .ft       6000                          : Last reference value
STEP               .ft       0.5                           : Step increment
NULL               .         -9999                         : Missing value
COMP               .         University of Utah            : Company
WELL               .         Forge 16A(78)-32              : Well name
FLD                .         Wildcat                       : Field
LOC                .                                       : Location
SRVC               .         Schlumberger                  : Service Company
CTRY               .         US                            : Country
STAT               .         Utah                          : State
CNTY               .         Beaver                        : County
API                .                                       : API NUMBER
DATE               .         26-Dec-2020                   : Service Date
LATI               .         38° 30' 14.447" N             : Latitude
LONG               .         112° 53' 47.066" W            : Longitude
GDAT               .                                       : Geodetic Datum
APD                .ft       32                            : Elevation of Depth Reference (LMF) Above Permanent Datum
BHS                .         OPEN                          : Borehole Status (Open or Cased Hole)
BHT                .degF     270                           : Bottom Hole Temperature
BLI                .ft       -999.25                       : Bottom Log Interval
BS                 .in       8.75                          : Bit Size
CBDR               .ft       5132                          : Casing Bottom of Driller
CBLO               .ft       5110                          : Logger Casing Shoe Depth
CSIZ               .in       9.625                         : Current Casing Size
CWEI               .lbm/ft   40                            : Casing Weight
COUNTRY            .         USA                           : Country
DFD                .lbm/gal  9                             : Drilling Fluid Density
DFT                .         WBM                           : Drilling Fluid Type
DLAB               .         26-Dec-2020                   : Date Logger At Bottom
EDF                .ft       5434.5                        : Elevation of Drill Floor
EGL                .ft       5403.5                        : Elevation of Ground Level
EKB                .ft       5435.5                        : Elevation of Kelly Bushing
EPD                .ft       5403.5                        : Elevation of Permanent Datum (PDAT) above Mean Sea Level
LMF                .         KB                            : Logging Measured From (Name of Logging Elevation Reference)
LUL                .         Fort Morgan, CO               : Logging Unit Location
LUN                .         2801                          : Logging Unit Number
MCST               .degF     68                            : Mudcake Sample Temperature
MFST               .degF     68                            : Mud Filtrate Sample Temperature
MRT                .degF     322                           : Maximum Recorded Temperature
MST                .degF     68                            : Mud Sample Temperature
ORIGINALWELLNAME   .         Forge 16A(78)-32              : 
PDAT               .         GL                            : Permanent Datum
PRODUCER-CODE      .         440                           : 
PRODUCER-NAME      .         Schlumberger                  : 
RMB                .ohm.m    0.05403042                    : Resistivity of Mud at Bottom Hole Temperature
RMCS               .ohm.m    -999.25                       : Resistivity of Mud Cake Sample
RMFS               .ohm.m    0.15                          : Resistivity of Mud Filtrate Sample
RMS                .ohm.m    0.2                           : Resistivity of Mud Sample
RUN                .         5B                            : Run Number
TDD                .ft       10987                         : Driller Total Depth
TDL                .ft       10987                         : Logger Total Depth
TLAB               .         17_37_17                      : Time Logger At Bottom
TLI                .ft       -999.25                       : Top Log Interval
UWI                .         0000000000                    : UNIQUE WELL ID
~Parameter Information Block
#_______________________________________________________________________________
#
#PARAMETER_NAME    .UNIT     VALUE                         : DESCRIPTION
#_______________________________________________________________________________
SET                .         ThruBitDP_Aniso_5000ft-6000ft : 
TLFamily_BS_RM     .         Bit Size                      : 
TLFamily_C1_13     .         Caliper                       : 
TLFamily_C1_24     .         Caliper                       : 
TLFamily_DEVI      .         Hole Deviation                : 
TLFamily_DPHI      .         Density Porosity              : 
TLFamily_DTCO_MPS_final .    Compressional Slowness        : 
TLFamily_DTSH_FAST .         Fast Shear Slowness           : 
TLFamily_DTSH_SLOW .         Slow Shear Slowness           : 
TLFamily_FSA_TOH_REF0_ERRMINUS .        Fast Shear Azimuth            : 
TLFamily_FSA_TOH_REF0_ERRPLUS .         Fast Shear Azimuth            : 
TLFamily_FSA_TOH_REF0_OVERALL .         Fast Shear Azimuth            : 
TLFamily_GR_TMG    .         Gamma Ray                     : 
TLFamily_MAXXENE_OVERALL .   Acoustic Energy               : 
TLFamily_MINXENE_OVERALL .   Acoustic Energy               : 
TLFamily_PR_FAST   .         Poisson Ratio (Dynamic)       : 
TLFamily_RB_TBDS   .         Relative Bearing              : 
TLFamily_SENSOR_AZIM_QCI .   Sensor Azimuth                : 
TLFamily_SLOANI    .         Acoustic Anisotropy           : 
TLFamily_TDEP      .         Measured Depth                : 
TLFamily_TIMANI    .         Acoustic Anisotropy           : 
TLFamily_TNPH      .         Thermal Neutron Porosity      : 
TLFamily_TW_B_L10  .         Travel Time                   : 
TLFamily_TW_E_L10  .         Travel Time                   : 
TLFamily_VPVS_FAST .         VpVs (Compressional To Shear) Ratio: 
~Curve Information
#_______________________________________________________________________________
#
#LOGNAME           .UNIT     LOG_ID                        : DESCRIPTION
#_______________________________________________________________________________
TDEP               .ft                                     : Measured Depth {F}
BS_RM              .in                                     : Bit Size {F}
C1_13              .in                                     : Caliper Section 1, Pads 1-3 {F}
C1_24              .in                                     : Caliper Section 1, Pads 2-4 {F}
DEVI               .deg                                    : Hole Deviation {F}
DPHI               .ft3/ft3                                : Density Porosity {F}
DTCO_MPS_final     .us/ft                                  : Compressional slowness {F}
DTSH_FAST          .us/ft                                  : Fast Shear Slowness {F}
DTSH_SLOW          .us/ft                                  : Slow Shear Slowness {F}
FSA_TOH_REF0_ERRMINUS .deg                                 : Fast shear azimuth error minus(TOH REF0) - swapped {F}
FSA_TOH_REF0_ERRPLUS .deg                                  : Fast shear azimuth error plus(TOH REF0) - swapped {F}
FSA_TOH_REF0_OVERALL .deg                                  : Fast shear azimuth(TOH REF0) - overall - swapped {F}
GR_TMG             .gAPI                                   : Gamma Ray {F}
MAXXENE_OVERALL    .%                                      : Maximum cross energy - overall {F}
MINXENE_OVERALL    .%                                      : Minimum cross energy - overall {F}
PR_FAST            .unitless                               : Possion's Ratio {F}
RB_TBDS            .deg                                    : TBDS Relatvie Bearing 6inch {F}
SENSOR_AZIM_QCI    .deg                                    : Tool azimuth for input QC {F}
SLOANI             .unitless                               : Slowness-based anisotropy {F}
TIMANI             .unitless                               : Time-based anisotropy {F}
TNPH               .ft3/ft3                                : Thermal Neutron Porosity (Ratio Method) in Selected Lithology {F}
TW_B_L10           .us                                     : Time window begin - packed {F}
TW_E_L10           .us                                     : Time window end - packed {F}
VPVS_FAST          .unitless                               : VpVs Ratio {F}
~Ascii
# ...
5589       8.75       9.323807   8.977862   1.807511   0.04160297 53.40156   94.4761    94.48734   39.6788    50.10032   44.88956   221.0487   4.537004   1.710299   0.2652516  50.70565   34.98689   0.0001190254 0.01333241 0.07048391 1005.566   2255.566   1.769164  
5589.5     8.75       9.32378    8.977766   1.840967   0.04172854 53.40975   94.6619    94.66283   39.20932   50.83023   45.01978   209.0857   4.238054   1.719446   0.2664969  78.56792   35.18968   0.0000099  0.01249839 0.07091945 1005.094   2255.094   1.772371  
5590       8.75       9.323847   8.978465   1.792668   0.04181451 53.41883   94.85203   94.85204   39.50432   51.94839   45.72636   191.6015   4.012442   1.751214   0.2677507  36.29473   35.67982   0.0000001  0.0120794  0.07033376 1006.284   2256.284   1.775629  
5590.5     8.75       9.323826   8.978569   1.811286   0.04189327 53.41306   94.98671   94.98889   40.15785   53.37178   46.76482   191.9405   3.882398   1.790634   0.2687863  33.80607   36.50943   0.0000230  0.01194792 0.06829249 1008.748   2258.748   1.778342  
5591       8.75       9.323794   8.979743   1.943627   0.04163274 53.37236   95.05257   95.07928   40.77875   54.98497   47.88186   186.5643   3.797427   1.817      0.2697679  41.15628   37.68746   0.0002809683 0.01198959 0.06664422 1011.27    2261.271   1.780933  
5591.5     8.75       9.323754   8.980206   1.953681   0.04102904 53.28273   95.10751   95.22824   41.32681   56.02924   48.67802   187.8431   3.697732   1.814075   0.27128    56.58495   39.18747   0.001268655 0.01207283 0.06626402 1012.83    2262.83    1.784959  
5592       8.75       9.32377    8.981371   2.109016   0.0397449  53.15435   95.1635    95.36802   42.09412   57.19636   49.64524   178.8634   3.614105   1.800814   0.2732693  33.80607   40.8788    0.002146849 0.01221178 0.06580373 1014.036   2264.036   1.790324  
5592.5     8.75       9.323801   8.981733   1.807511   0.03897575 53.00541   95.21296   95.35812   43.06593   58.23975   50.65284   163.7039   3.602325   1.763842   0.2754473  42.73737   42.6541    0.001523468 0.01240826 0.06609803 1015.526   2265.526   1.796287  
5593       8.75       9.323771   8.98269    2.432531   0.03749394 52.82417   95.23849   95.36357   43.422     58.34212   50.88206   181.3336   3.740929   1.752493   0.2778342  50.70565   44.30564   0.001312434 0.01302144 0.06556068 1017.164   2267.164   1.802934  
5593.5     8.75       9.323782   8.982935   1.804347   0.03606242 52.60215   95.26179   95.57798   43.45675   58.26978   50.86327   168.8378   3.892368   1.75186    0.2806703  41.17151   45.62062   0.003313697 0.01371574 0.06617507 1018.957   2268.957   1.810987  
5594       8.75       9.32378    8.983616   2.321702   0.03334184 52.38326   95.27962   95.97034   43.22749   57.89818   50.56284   165.2537   3.933717   1.759123   0.2833977  33.80607   46.43821   0.007223213 0.01378693 0.06565668 1021.034   2271.034   1.818895  
5594.5     8.75       9.323779   8.984444   2.008183   0.03309577 52.23552   95.28413   96.45703   42.83602   57.2244    50.03021   174.7468   4.005454   1.775609   0.285171   42.73737   46.7079    0.01223425 0.01386539 0.06737453 1023.466   2273.466   1.824125  
5595       8.75       9.323783   8.98492    1.806223   0.0319437  52.15533   95.28454   96.95363   42.5726    56.0671    49.31985   196.1542   4.076297   1.771131   0.2861147  33.80607   46.46816   0.01736482 0.01411188 0.06784781 1026.337   2276.337   1.826938  
5595.5     8.75       9.323829   8.986413   2.340631   0.03211579 52.14362   95.28454   97.34463   41.30397   54.55595   47.92996   182.8446   4.2019     1.780829   0.2862518  33.80607   45.86386   0.02138917 0.01420951 0.06816825 1029.682   2279.682   1.827348  
5596       8.75       9.323842   8.98635    2.261509   0.0325776  52.19202   95.28821   97.72888   39.35541   52.5807    45.96806   178.2823   4.4807     1.807422   0.2857082  9.056581   45.03168   0.02528972 0.01476822 0.06870803 1033.42    2283.42    1.825724  
5596.5     8.75       9.323809   8.986934   2.026134   0.03315703 52.28365   95.34026   98.16039   37.14246   50.47102   43.80674   185.5957   4.757914   1.840224   0.2849669  22.27042   44.10545   0.02914853 0.01540339 0.06969751 1037.471   2287.471   1.82352   
5597       8.75       9.323807   8.987507   2.387129   0.03415882 52.42439   95.63369   98.49946   34.83044   48.65875   41.7446    197.9558   5.101471   1.921842   0.2852034  33.80607   43.12014   0.02952374 0.01616201 0.07241773 1041.675   2291.675   1.824221  
5597.5     8.75       9.323812   8.987496   1.902715   0.03589755 52.59799   96.40945   98.95999   32.09283   46.83891   39.46587   185.2858   5.366993   2.040585   0.2881089  56.58495   42.0477    0.02610989 0.01670568 0.07418595 1045.803   2295.803   1.832949  
5598       8.75       9.323782   8.989062   2.118321   0.03712793 52.74875   97.47083   99.60578   29.22412   44.91338   37.06875   174.6497   5.609641   2.133814   0.2929164  356.5752   40.76991   0.02166618 0.01722076 0.07605834 1049.797   2299.797   1.847832  
5598.5     8.75       9.323842   8.989542   2.25955    0.03765389 52.84789   98.24659   100.23     26.58349   42.76099   34.67224   174.3592   5.91869    2.203809   0.2964209  50.70565   39.28923   0.01998599 0.01759553 0.07514185 1053.657   2303.657   1.859045  
5599       8.75       9.323849   8.989758   2.164705   0.03817394 52.90499   98.54002   100.7466   24.87722   40.57455   32.72589   184.0459   6.247114   2.209795   0.2975071  42.73737   37.59926   0.02214472 0.01803092 0.07361418 1057.132   2307.132   1.862585  
5599.5     8.75       9.32382    8.989749   1.811858   0.03829575 52.92352   98.5939    101.3029   24.44435   38.99947   31.72191   201.0944   6.663581   2.221929   0.2976188  33.80607   35.80838   0.02710413 0.01889724 0.07190632 1060.131   2310.131   1.862951  
5600       8.75       9.323818   8.989861   2.107047   0.0380358  52.91471   98.62177   101.9659   23.93863   37.41058   30.6746    182.4959   7.024599   2.24375    0.2978739  50.70565   34.10956   0.03334304 0.01776003 0.0721453  1062.728   2312.728   1.863787  
5600.5     8.75       9.323822   8.989914   1.767996   0.03787396 52.91618   98.74429   102.5734   24.00199   36.26968   30.13584   167.1524   7.448129   2.27204    0.2985615  56.58495   32.7686    0.03804091 0.01837248 0.07081309 1064.936   2314.936   1.866051  
5601       8.75       9.323862   8.98977    2.267517   0.0380582  52.95855   99.00963   102.8205   23.75538   35.85724   29.80631   159.9262   7.478994   2.277632   0.2996221  33.80607   31.93012   0.03776319 0.01837473 0.07053322 1066.674   2316.674   1.869568  
5601.5     8.75       9.323847   8.989843   2.324499   0.03984431 52.97693   99.27314   102.4776   23.25273   35.84264   29.54768   185.4019   7.388272   2.281441   0.300914   42.73737   31.74808   0.03176623 0.01804793 0.07063712 1067.851   2317.851   1.873894  
5602       8.75       9.323859   8.989888   1.792453   0.03717763 52.89977   99.36965   101.8113   23.3591    37.26689   30.31299   181.7695   7.354404   2.413968   0.3022606  50.70565   32.26083   0.0242728  0.01782864 0.07022043 1068.529   2318.529   1.878452  
5602.5     8.75       9.323899   8.989899   2.112591   0.03801513 52.77389   99.24345   101.4358   23.32212   38.62085   30.97149   177.9433   7.148474   2.508743   0.3028728  33.80607   33.39622   0.02184932 0.01725659 0.06897854 1068.916   2318.916   1.880541  
5603       8.75       9.323825   8.989774   1.860372   0.03529572 52.59559   98.8072    101.4122   24.78468   40.7124    32.74854   166.8036   7.117241   2.619864   0.3023104  46.72151   34.98298   0.02602171 0.01709074 0.06738646 1069.115   2319.115   1.878621  
5603.5     8.75       9.323848   8.989817   1.664285   0.03418975 52.42324   98.00359   101.0516   26.58252   43.1635    34.87301   164.0429   7.030371   2.709729   0.2995921  48.53695   36.80686   0.03062494 0.01685101 0.06797304 1069.112   2319.112   1.869468  
5604       8.75       9.323848   8.989823   2.216831   0.03347882 52.3003    96.91411   100.112    29.0724    45.27905   37.17573   161.1371   6.892159   2.700762   0.2945538  48.53695   38.65405   0.03246129 0.01647021 0.06879143 1069.292   2319.292   1.853032  
