~Version
 VERS              .         3.0                           : CWLS LOG ASCII STANDARD - VERSION 3.0
 WRAP              .         NO                            : ONE LINE PER DEPTH STEP
 DLM               .         SPACE                         : DELIMITING CHARACTER(SPACE TAB OR COMMA)
~Well Information
#_______________________________________________________________________________
#
#PARAMETER_NAME    .UNIT     VALUE                         : DESCRIPTION
#_______________________________________________________________________________
STRT               .ft       5000                          : First reference value
STOP               .ft       6000                          : Last reference value
STEP               .ft       0.5                           : Step increment
NULL               .         -9999                         : Missing value
COMP               .         University of Utah            : Company
WELL               .         Forge 16A(78)-32              : Well name
FLD                .         Wildcat                       : Field
LOC                .                                       : Location
SRVC               .         Schlumberger                  : Service Company
CTRY               .         US                            : Country
STAT               .         Utah                          : State
CNTY               .         Beaver                        : County
API                .                                       : API NUMBER
DATE               .         26-Dec-2020                   : Service Date
LATI               .         38° 30' 14.447" N             : Latitude
LONG               .         112° 53' 47.066" W            : Longitude
GDAT               .                                       : Geodetic Datum
APD                .ft       32                            : Elevation of Depth Reference (LMF) Above Permanent Datum
BHS                .         OPEN                          : Borehole Status (Open or Cased Hole)
BHT                .degF     270                           : Bottom Hole Temperature
BLI                .ft       -999.25                       : Bottom Log Interval
BS                 .in       8.75                          : Bit Size
CBDR               .ft       5132                          : Casing Bottom of Driller
CBLO               .ft       5110                          : Logger Casing Shoe Depth
CSIZ               .in       9.625                         : Current Casing Size
CWEI               .lbm/ft   40                            : Casing Weight
COUNTRY            .         USA                           : Country
DFD                .lbm/gal  9                             : Drilling Fluid Density
DFT                .         WBM                           : Drilling Fluid Type
DLAB               .         26-Dec-2020                   : Date Logger At Bottom
EDF                .ft       5434.5                        : Elevation of Drill Floor
EGL                .ft       5403.5                        : Elevation of Ground Level
EKB                .ft       5435.5                        : Elevation of Kelly Bushing
EPD                .ft       5403.5                        : Elevation of Permanent Datum (PDAT) above Mean Sea Level
LMF                .         KB                            : Logging Measured From (Name of Logging Elevation Reference)
LUL                .         Fort Morgan, CO               : Logging Unit Location
LUN                .         2801                          : Logging Unit Number
MCST               .degF     68                            : Mudcake Sample Temperature
MFST               .degF     68                            : Mud Filtrate Sample Temperature
MRT                .degF     322                           : Maximum Recorded Temperature
MST                .degF     68                            : Mud Sample Temperature
ORIGINALWELLNAME   .         Forge 16A(78)-32              : 
PDAT               .         GL                            : Permanent Datum
PRODUCER-CODE      .         440                           : 
PRODUCER-NAME      .         Schlumberger                  : 
RMB                .ohm.m    0.05403042                    : Resistivity of Mud at Bottom Hole Temperature
RMCS               .ohm.m    -999.25                       : Resistivity of Mud Cake Sample
RMFS               .ohm.m    0.15                          : Resistivity of Mud Filtrate Sample
RMS                .ohm.m    0.2                           : Resistivity of Mud Sample
RUN                .         5B                            : Run Number
TDD                .ft       10987                         : Driller Total Depth
TDL                .ft       10987                         : Logger Total Depth
TLAB               .         17_37_17                      : Time Logger At Bottom
TLI                .ft       -999.25                       : Top Log Interval
UWI                .         0000000000                    : UNIQUE WELL ID
~Parameter Information Block
#_______________________________________________________________________________
#
#PARAMETER_NAME    .UNIT     VALUE                         : DESCRIPTION
#_______________________________________________________________________________
SET                .         ThruBitDP_Aniso_5000ft-6000ft : 
TLFamily_BS_RM     .         Bit Size                      : 
TLFamily_C1_13     .         Caliper                       : 
TLFamily_C1_24     .         Caliper                       : 
TLFamily_DEVI      .         Hole Deviation                : 
TLFamily_DPHI      .         Density Porosity              : 
TLFamily_DTCO_MPS_final .    Compressional Slowness        : 
TLFamily_DTSH_FAST .         Fast Shear Slowness           : 
TLFamily_DTSH_SLOW .         Slow Shear Slowness           : 
TLFamily_FSA_TOH_REF0_ERRMINUS .        Fast Shear Azimuth            : 
TLFamily_FSA_TOH_REF0_ERRPLUS .         Fast Shear Azimuth            : 
TLFamily_FSA_TOH_REF0_OVERALL .         Fast Shear Azimuth            : 
TLFamily_GR_TMG    .         Gamma Ray                     : 
TLFamily_MAXXENE_OVERALL .   Acoustic Energy               : 
TLFamily_MINXENE_OVERALL .   Acoustic Energy               : 
TLFamily_PR_FAST   .         Poisson Ratio (Dynamic)       : 
TLFamily_RB_TBDS   .         Relative Bearing              : 
TLFamily_SENSOR_AZIM_QCI .   Sensor Azimuth                : 
TLFamily_SLOANI    .         Acoustic Anisotropy           : 
TLFamily_TDEP      .         Measured Depth                : 
TLFamily_TIMANI    .         Acoustic Anisotropy           : 
TLFamily_TNPH      .         Thermal Neutron Porosity      : 
TLFamily_TW_B_L10  .         Travel Time                   : 
TLFamily_TW_E_L10  .         Travel Time                   : 
TLFamily_VPVS_FAST .         VpVs (Compressional To Shear) Ratio: 
~Curve Information
#_______________________________________________________________________________
#
#LOGNAME           .UNIT     LOG_ID                        : DESCRIPTION
#_______________________________________________________________________________
TDEP               .ft                                     : Measured Depth {F}
BS_RM              .in                                     : Bit Size {F}
C1_13              .in                                     : Caliper Section 1, Pads 1-3 {F}
C1_24              .in                                     : Caliper Section 1, Pads 2-4 {F}
DEVI               .deg                                    : Hole Deviation {F}
DPHI               .ft3/ft3                                : Density Porosity {F}
DTCO_MPS_final     .us/ft                                  : Compressional slowness {F}
DTSH_FAST          .us/ft                                  : Fast Shear Slowness {F}
DTSH_SLOW          .us/ft                                  : Slow Shear Slowness {F}
FSA_TOH_REF0_ERRMINUS .deg                                 : Fast shear azimuth error minus(TOH REF0) - swapped {F}
FSA_TOH_REF0_ERRPLUS .deg                                  : Fast shear azimuth error plus(TOH REF0) - swapped {F}
FSA_TOH_REF0_OVERALL .deg                                  : Fast shear azimuth(TOH REF0) - overall - swapped {F}
GR_TMG             .gAPI                                   : Gamma Ray {F}
MAXXENE_OVERALL    .%                                      : Maximum cross energy - overall {F}
MINXENE_OVERALL    .%                                      : Minimum cross energy - overall {F}
PR_FAST            .unitless                               : Possion's Ratio {F}
RB_TBDS            .deg                                    : TBDS Relatvie Bearing 6inch {F}
SENSOR_AZIM_QCI    .deg                                    : Tool azimuth for input QC {F}
SLOANI             .unitless                               : Slowness-based anisotropy {F}
TIMANI             .unitless                               : Time-based anisotropy {F}
TNPH               .ft3/ft3                                : Thermal Neutron Porosity (Ratio Method) in Selected Lithology {F}
TW_B_L10           .us                                     : Time window begin - packed {F}
TW_E_L10           .us                                     : Time window end - packed {F}
VPVS_FAST          .unitless                               : VpVs Ratio {F}
~Ascii
# ...
5465       8.75       9.297706   8.907015   1.574862   0.05564727 55.34813   102.6535   103.2453   52.14203   60.61624   56.37914   239.3079   29.00593   3.760046   0.2950707  38.78339   30.55867   0.005748573 0.03048265 0.08829712 1072.532   2322.532   1.854687  
5465.5     8.75       9.297713   8.907205   1.730606   0.05545813 55.23199   101.6055   102.9687   51.189     59.42859   55.3088    248.0261   27.67486   3.67875    0.2902839  38.78339   30.25717   0.01332769 0.03262598 0.08577745 1073.357   2323.357   1.839613  
5466       8.75       9.29768    8.907165   1.819796   0.05339761 55.00883   100.3542   102.2575   50.39684   58.56832   54.48258   256.8894   26.46786   3.605032   0.2852398  50.70565   30.28893   0.01878688 0.0346712  0.08175247 1074.22    2324.22    1.82433   
5466.5     8.75       9.297764   8.907132   1.705096   0.0514079  54.67249   99.25405   101.1898   49.25891   58.00639   53.63265   258.1969   24.90266   3.55753    0.2822095  38.78339   30.60834   0.01931512 0.0359171  0.07793138 1074.951   2324.951   1.815429  
5467       8.75       9.297723   8.907153   1.813699   0.04790849 54.22293   98.58144   100.4044   48.25838   57.4439    52.85114   252.6271   23.4053    3.310281   0.2831182  38.78339   31.1806    0.01832296 0.03590975 0.07593035 1075.535   2325.535   1.818077  
5467.5     8.75       9.297753   8.907043   1.72177    0.04386607 53.69638   98.34003   100.0015   47.79293   56.87217   52.33255   246.6216   22.02989   3.050896   0.2876009  38.78339   31.95424   0.01675399 0.03543653 0.07499362 1076.052   2326.052   1.831409  
5468       8.75       9.297711   8.907137   1.717353   0.03940793 53.19308   98.29775   99.75635   47.45134   56.23732   51.84433   238.5234   20.54337   2.784662   0.2929513  38.78339   32.90017   0.01472926 0.03496297 0.07472644 1076.446   2326.446   1.847942  
5468.5     8.75       9.297736   8.907119   1.798338   0.03663447 52.84051   98.29774   99.6243    47.19025   55.90312   51.54669   234.2226   18.92574   2.574691   0.2967987  38.78339   33.97211   0.01340481 0.03399362 0.07204185 1076.495   2326.495   1.860273  
5469       8.75       9.297747   8.907192   1.777926   0.0356139  52.70987   98.33705   99.62469   47.02713   55.78906   51.4081    233.8074   17.48319   2.385067   0.2984335  38.78339   35.09696   0.01300894 0.03281115 0.06926132 1075.998   2325.998   1.865629  
5469.5     8.75       9.297697   8.90711    1.723241   0.03684067 52.77448   98.53618   99.81407   47.29549   55.92354   51.60952   240.6157   16.45378   2.1306     0.2988842  38.78339   36.23487   0.01288522 0.03180032 0.06667602 1074.757   2324.757   1.867118  
5470       8.75       9.297724   8.907077   1.83301    0.0380764  52.94638   98.96535   100.0428   47.62318   55.87861   51.75089   239.0175   15.4293    1.930637   0.2995     38.78339   37.31432   0.01082824 0.03026863 0.06516    1072.769   2322.77    1.869162  
5470.5     8.75       9.297764   8.907048   1.73929    0.03993028 53.15982   99.37296   100.0642   47.26571   56.10236   51.68404   255.8722   14.36296   1.807379   0.2995489  38.78339   38.22987   0.006931968 0.0286873  0.06654136 1070.283   2320.283   1.869325  
5471       8.75       9.297761   8.907211   1.705207   0.04178966 53.34782   99.47549   99.83842   46.96872   56.05899   51.51386   224.9233   13.67223   1.66042    0.2981391  38.78339   38.902     0.003641796 0.02744927 0.06821536 1067.577   2317.577   1.864659  
5471.5     8.75       9.297756   8.907303   1.764531   0.04223399 53.4576    99.39359   99.52959   46.97136   55.64551   51.30844   252.821    13.07792   1.4524     0.2964988  38.78339   39.31499   0.001367455 0.02641122 0.0696008  1064.78    2314.78    1.859298  
5472       8.75       9.297738   8.907093   1.79295    0.04244611 53.51564   99.37374   99.39926   47.38432   55.4738    51.42906   219.5474   12.76566   1.283885   0.2957613  38.78339   39.49313   0.0002567786 0.02572382 0.07003835 1062.189   2312.189   1.85691   
5472.5     8.75       9.297725   8.907174   1.727858   0.04278307 53.5771    99.38448   99.38641   47.96432   55.23089   51.5976    239.6857   12.73395   1.160749   0.295162   38.78339   39.47933   0.0000194  0.02560806 0.07074022 1060.139   2310.139   1.854981  
5473       8.75       9.297728   8.907143   1.730186   0.04348243 53.6733    99.40423   99.40423   48.3098    55.50296   51.90638   206.6739   12.65576   1.15905    0.294238   38.78339   39.34657   0          0.02579333 0.07184991 1058.575   2308.575   1.852024  
5473.5     8.75       9.297783   8.908967   1.832729   0.04449578 53.81084   99.46353   99.46353   48.44616   55.57999   52.01308   201.1911   12.60329   1.172914   0.2930938  38.78339   39.18469   0          0.02755313 0.07455184 1057.368   2307.368   1.848392  
5474       8.75       9.297783   8.909368   1.778774   0.04590188 53.9738    99.51678   99.51947   47.90978   55.59861   51.7542    192.5217   12.5752    1.219575   0.2916311  38.78339   39.03892   0.0000270  0.02788448 0.07787456 1056.4     2306.4     1.843798  
5474.5     8.75       9.297765   8.909349   1.745803   0.04701825 54.13157   99.4439    99.48      47.2518    55.47142   51.36161   197.9947   12.57447   1.254997   0.2894608  44.74452   38.94778   0.0003628992 0.02844891 0.08253808 1055.723   2305.723   1.837078  
5475       8.75       9.297778   8.909286   1.804339   0.04818058 54.25208   99.10407   99.29536   46.90208   55.21613   51.0591    207.3421   12.63855   1.294514   0.2860462  38.78339   38.88168   0.001928273 0.02921546 0.08505106 1055.341   2305.341   1.826733  
5475.5     8.75       9.297782   8.909431   1.793553   0.04844963 54.30766   98.6288    99.10047   46.39611   54.82578   50.61095   205.4532   12.6958    1.351261   0.2824444  38.78339   38.8605    0.004770888 0.02988891 0.08281391 1055.251   2305.251   1.816112  
5476       8.75       9.297764   8.909429   1.774817   0.04824127 54.31701   98.36044   99.04322   46.20864   54.16733   50.18798   175.0235   12.80112   1.451648   0.2806257  19.33821   38.8524    0.006917654 0.03041429 0.08008916 1055.427   2305.427   1.810859  
5476.5     8.75       9.297787   8.909459   1.784732   0.04805877 54.3493    98.30021   99.05936   45.97297   53.37078   49.67188   150.6754   12.9855    1.558432   0.2798621  38.78339   38.86484   0.007693042 0.03116071 0.07659414 1055.818   2305.818   1.808675  
5477       8.75       9.297845   8.909448   1.765747   0.04907761 54.46436   98.29484   99.08899   45.18484   52.6524    48.91862   141.0373   13.44467   1.681119   0.2784809  38.78339   38.88667   0.008046772 0.03258279 0.07963594 1056.34    2306.34    1.804755  
5477.5     8.75       9.29779    8.909534   1.810711   0.05055089 54.66754   98.29476   99.19237   43.89598   51.73878   47.81738   143.1199   14.27254   1.902511   0.276083   38.78339   38.8786    0.009090273 0.03463917 0.0867882  1056.968   2306.968   1.798046  
5478       8.75       9.297792   8.909474   1.725974   0.05239148 54.95897   98.29774   99.44412   42.67938   50.94823   46.8138    155.1797   14.90603   2.106148   0.2726207  36.29473   38.80337   0.01159469 0.03626055 0.09597267 1057.711   2307.71    1.788566  
5478.5     8.75       9.297774   8.90952    1.782885   0.05538732 55.33984   98.33682   99.77547   42.51254   50.34628   46.42941   154.3079   15.6063    2.251139   0.2682606  50.70565   38.64446   0.01452352 0.03716226 0.1041432  1058.638   2308.638   1.776963  
5479       8.75       9.29781    8.909516   1.832729   0.05871883 55.75259   98.53039   100.0917   42.64592   50.32611   46.48601   167.0943   16.50961   2.382401   0.2645148  38.78339   38.37103   0.01572187 0.0357251  0.1112358  1059.944   2309.944   1.767279  
5479.5     8.75       9.297805   8.909398   1.739368   0.06122786 56.1166    98.91552   100.2322   42.98699   50.79193   46.88946   179.0088   17.40967   2.501676   0.2626998  50.70565   38.03018   0.0132227  0.03677849 0.1144921  1061.585   2311.585   1.762679  
5480       8.75       9.297747   8.909485   1.840512   0.06316425 56.38834   99.18173   100.1106   43.3414    51.27413   47.30776   185.7895   18.18159   2.592061   0.2611937  44.74452   37.69069   0.009321619 0.03753396 0.1125542  1063.459   2313.459   1.758905  
