~Version
 VERS              .         2.0                           : CWLS LOG ASCII STANDARD - VERSION 2.0
 WRAP              .         NO                            : ONE LINE PER DEPTH STEP
 DLM               .         SPACE                         : DELIMITING CHARACTER(SPACE TAB OR COMMA)
~Well Information
#_______________________________________________________________________________
#
#PARAMETER_NAME    .UNIT     VALUE                         : DESCRIPTION
#_______________________________________________________________________________
STRT               .ft       6000                          : First reference value
STOP               .ft       10942                         : Last reference value
STEP               .ft       0.5                           : Step increment
NULL               .         -9999                         : Missing value
COMP               .         University of Utah            : Company
WELL               .         Forge 16A(78)-32              : Well name
FLD                .         Wildcat                       : Field
LOC                .                                       : Location
CNTY               .         Beaver                        : County
STAT               .         Utah                          : State
CTRY               .         USA                           : Country
SRVC               .         Schlumberger                  : Service Company
DATE               .         26-Dec-2020                   : Date
UWI                .         0000000000                    : Unique Well ID
APD                .ft       32                            : Elevation of Depth Reference (LMF) Above Permanent Datum
API                .                                       : API NUMBER
BHS                .         OPEN                          : Borehole Status (Open or Cased Hole)
BHT                .degF     270                           : Bottom Hole Temperature
BLI                .ft       -999.25                       : Bottom Log Interval
BS                 .in       8.75                          : Bit Size
CBDR               .ft       5132                          : Casing Bottom of Driller
CBLO               .ft       5110                          : Logger Casing Shoe Depth
CSIZ               .in       9.625                         : Current Casing Size
CWEI               .lbm/ft   40                            : Casing Weight
DFD                .lbm/gal  9                             : Drilling Fluid Density
DFT                .         WBM                           : Drilling Fluid Type
DLAB               .         26-Dec-2020                   : Date Logger At Bottom
EDF                .ft       5434.5                        : Elevation of Drill Floor
EGL                .ft       5403.5                        : Elevation of Ground Level
EKB                .ft       5435.5                        : Elevation of Kelly Bushing
EPD                .ft       5403.5                        : Elevation of Permanent Datum (PDAT) above Mean Sea Level
GDAT               .                                       : Geodetic Datum
LMF                .         KB                            : Logging Measured From (Name of Logging Elevation Reference)
LUL                .         Fort Morgan, CO               : Logging Unit Location
LUN                .         2801                          : Logging Unit Number
LATI               .         38° 30' 14.447" N             : Latitude
LONG               .         112° 53' 47.066" W            : Longitude
MCST               .degF     68                            : Mudcake Sample Temperature
MFST               .degF     68                            : Mud Filtrate Sample Temperature
MRT                .degF     322                           : Maximum Recorded Temperature
MST                .degF     68                            : Mud Sample Temperature
ORIGINALWELLNAME   .         Forge 16A(78)-32              : 
PDAT               .         GL                            : Permanent Datum
PRODUCER-CODE      .         440                           : 
PRODUCER-NAME      .         Schlumberger                  : 
RMB                .ohm.m    0.05403042                    : Resistivity of Mud at Bottom Hole Temperature
RMCS               .ohm.m    -999.25                       : Resistivity of Mud Cake Sample
RMFS               .ohm.m    0.15                          : Resistivity of Mud Filtrate Sample
RMS                .ohm.m    0.2                           : Resistivity of Mud Sample
RUN                .         5B                            : Run Number
TDD                .ft       10987                         : Driller Total Depth
TDL                .ft       10987                         : Logger Total Depth
TLAB               .         17_37_17                      : Time Logger At Bottom
TLI                .ft       -999.25                       : Top Log Interval
~Parameter Information Block
#_______________________________________________________________________________
#
#PARAMETER_NAME    .UNIT     VALUE                         : DESCRIPTION
#_______________________________________________________________________________
SET                .         LQC_SonicFracture             : 
TLFamily_BS_RM     .         Bit Size                      : 
TLFamily_C1_13     .         Caliper                       : 
TLFamily_C1_24     .         Caliper                       : 
TLFamily_DEVI      .         Hole Deviation                : 
TLFamily_DPHI      .         Density Porosity              : 
TLFamily_DTCO_MPS_final .         Compressional Slowness        : 
TLFamily_DTSH_FAST_final .        Fast Shear Slowness           : 
TLFamily_DTSH_SLOW_final .        Slow Shear Slowness           : 
TLFamily_DTST_MLF_FA_R_4 .        Stoneley Slowness             : 
TLFamily_DTST_STM_2 .        Stoneley Slowness             : 
TLFamily_GR_TMG    .         Gamma Ray                     : 
TLFamily_MD        .         Measured Depth                : 
TLFamily_RB        .         Relative Bearing              : 
TLFamily_RHOB_model .        Bulk Density                  : 
TLFamily_STRC_DN_7 .         Reflection Coefficient        : 
TLFamily_STRC_DN_STM_6 .     Reflection Coefficient        : 
TLFamily_STTC_R_5  .         Transmission Coefficient      : 
TLFamily_STTC_R_STM_8 .      Transmission Coefficient      : 
TLFamily_TENS      .         Tension                       : 
TLFamily_TNPH      .         Thermal Neutron Porosity      : 
TLFamily_TVD       .         True Vertical Depth           : 
~Curve Information
#_______________________________________________________________________________
#
#LOGNAME           .UNIT     LOG_ID                        : DESCRIPTION
#_______________________________________________________________________________
MD                 .ft                                     : Measured Depth 
BS_RM              .in                                     : Bit Size 
C1_13              .in                                     : Caliper Section 1, Pads 1-3 
C1_24              .in                                     : Caliper Section 1, Pads 2-4 
DEVI               .deg                                    : Hole Deviation 
DPHI               .ft3/ft3                                : Density Porosity using sandstone matrix 
DTCO_MPS           .us/ft                                  : Compressional slowness 
DTSH_FAST          .us/ft                                  : Fast Shear Slowness 
DTSH_SLOW          .us/ft                                  : Slow Shear Slowness 
DTST               .us/ft                                  : Stoneley slowness 
DTST_STM_2         .us/ft                                  : Modeled Stoneley slowness computed from wavenumber at dominant frequency of source wavelet 
GR_TMG             .gAPI                                   : Gamma Ray 
RB                 .deg                                    : Relative Bearing 
RHOB_model         .g/cm3                                  : Bulk density (g/cc) 
STRC_DN_7          .unitless                               : Down-going reflection coefficient for Stoneley waveform 
STRC_DN_STM_6      .unitless                               : Down-going reflection coefficient for Modeled Stoneley waveform 
STTC_R_5           .unitless                               : Transmission coefficient for Stoneley waveform from receiver array 
STTC_R_STM_8       .unitless                               : Transmission coefficient for Modeled Stoneley waveform from receiver array 
TENS               .lbf                                    : Cable Tension 
TNPH               .ft3/ft3                                : Thermal Neutron Porosity (Ratio Method) in Selected Lithology 
TVD                .ft                                     : True Vertical Depth 
~Ascii
# ...
7645       8.75       9.346025   8.773661   62.05511   0.0471103  54.12603   100.7118   108.1601   210.9284   210.6529   99.82065   168.6632   2.572268   0.002641316 0.0000123  1.001084   1.012052   -9999      0.05088146 7157.283  
7645.5     8.75       9.346      8.725113   61.96732   0.04421272 53.76516   100.3945   107.2258   210.7328   210.3799   103.0657   169.3395   2.577049   0.002881529 0.0000150  0.9711099  1.011306   -9999      0.04934508 7157.5    
7646       8.75       9.34598    8.677024   61.96279   0.04145573 53.42809   99.87462   105.2088   210.9916   210.5472   101.942    169.4716   2.581598   0.002515658 0.0000138  0.948738   1.008783   -9999      0.04818581 7157.718  
7646.5     8.75       9.345977   8.675679   61.86225   0.03951789 53.18543   99.28763   102.6521   210.6718   210.537    95.89761   169.3732   2.584795   0.001457407 0.0000112  0.9587699  1.010107   -9999      0.04680723 7157.937  
7647       8.75       9.346054   8.673213   61.91995   0.03887301 53.05677   98.7468    100.4683   210.7269   210.5806   102.872    169.4828   2.58586    0.0008660493 0.0000101  1.027917   1.011647   -9999      0.04305028 7158.155  
7647.5     8.75       9.346037   8.672757   61.86853   0.03870178 52.9995    98.49949   99.21826   210.7878   210.5105   100.049    170.5569   2.586142   0.0009410941 0.0000059  1.050894   1.011427   -9999      0.04311957 7158.374  
7648       8.75       9.346021   8.672793   62.01981   0.03843937 52.96077   98.5441    98.78965   210.7701   210.1194   115.0771   171.0517   2.586575   0.0007096924 0.0000071  0.977689   1.010982   -9999      0.04251606 7158.592  
7648.5     8.75       9.346024   8.672811   61.89925   0.03815486 52.91372   98.55251   98.7131    210.7701   210.1172   137.5985   171.9145   2.587044   0.001383137 0.0000040  0.9635221  1.010567   -9999      0.04181016 7158.812  
7649       8.75       9.346088   8.672794   61.9236    0.03770728 52.84185   98.22556   98.56307   210.6414   210.1396   164.9147   172.258    2.587783   0.001086117 0.0000037  0.9931485  1.01097    -9999      0.04031204 7159.032  
7649.5     8.75       9.346079   8.672726   61.66982   0.03684847 52.73529   97.51225   98.07829   211.3272   210.0373   132.0149   172.5083   2.5892     0.000583591 0.0000036  0.9879082  1.010692   -9999      0.04050249 7159.251  
7650       8.75       9.346018   8.672851   62.21553   0.0357667  52.60212   96.82959   97.45206   210.9837   210.0714   122.0515   172.6118   2.590985   0.0006889774 0.0000006  1.095713   1.010878   -9999      0.04409236 7159.472  
7650.5     8.75       9.346045   8.67293    61.90793   0.03469425 52.4569    96.50396   97.00604   210.9883   210.2103   128.0571   172.7962   2.592754   0.0009456394 0.0000016  1.08815    1.012525   -9999      0.04693498 7159.693  
7651       8.75       9.346086   8.672999   62.15786   0.03352485 52.31034   96.38904   96.78455   211.5033   210.1728   145.0088   173.1746   2.594684   0.001062905 0.0000040  1.013748   1.011895   -9999      0.04939347 7159.914  
7651.5     8.75       9.346026   8.673233   61.69158   0.03237213 52.18242   96.43005   96.76772   211.0997   210.1518   154.7439   173.9261   2.596586   0.001062209 0.0000082  1.020947   1.011719   -9999      0.04937792 7160.136  
7652       8.75       9.346154   8.701987   61.91713   0.03181054 52.09294   96.65412   96.87489   211.5334   210.153    152.1574   173.5393   2.597513   0.001056192 0.0000125  1.024225   1.012854   -9999      0.04704578 7160.358  
7652.5     8.75       9.34613    8.728408   61.91136   0.03145417 52.03476   96.83923   96.9263    211.5589   210.2793   156.6909   173.6406   2.598101   0.0009779644 0.0000136  1.027709   1.013548   -9999      0.04374931 7160.58   
7653       8.75       9.34609    8.728968   61.87865   0.03118226 51.98741   96.86475   96.88718   211.35     210.1491   150.2977   173.8736   2.598549   0.001442655 0.0000139  1.015195   1.012244   -9999      0.04323654 7160.803  
7653.5     8.75       9.346136   8.730125   61.7223    0.03066809 51.94722   96.89592   96.9067    211.2302   210.2335   120.889    174.4422   2.599398   0.001698829 0.0000138  1.010738   1.011216   -9999      0.04441565 7161.026  
7654       8.75       9.346098   8.730618   61.75454   0.0305876  51.93013   96.98177   96.9916    211.0815   209.9734   119.2908   174.2843   2.59953    0.002152066 0.0000105  1.022725   1.010063   -9999      0.04658582 7161.25   
7654.5     8.75       9.346137   8.729478   61.8279    0.03071245 51.93955   96.97964   96.99612   210.9803   210.0809   107.1341   174.5688   2.599324   0.002344388 0.0000103  1.028383   1.009976   -9999      0.04650006 7161.473  
7655       8.75       9.34609    8.728158   61.55775   0.03093273 51.96758   96.83202   96.89578   210.9803   210.0865   113.721    175.0805   2.598961   0.002150132 0.0000064  1.017532   1.010362   -9999      0.04570268 7161.698  
7655.5     8.75       9.346148   8.726292   61.87884   0.03118878 52.01525   96.59619   96.73309   211.1331   210.0956   126.8948   175.2183   2.598538   0.002481113 0.0000061  1.011131   1.010115   -9999      0.04432165 7161.922  
7656       8.75       9.346148   8.726029   61.71506   0.03185729 52.08602   96.44682   96.58938   211.1319   210.0016   122.1484   175.2517   2.597435   0.002924497 0.0000070  1.03551    1.008595   -9999      0.0451468  7162.147  
7656.5     8.75       9.346142   8.727058   61.47715   0.032487   52.17133   96.45199   96.54642   211.0697   210.0018   110.5437   175.8952   2.596396   0.0031283  0.0000051  1.040618   1.010048   -9999      0.04676814 7162.373  
7657       8.75       9.34614    8.727778   61.92295   0.03318333 52.2646    96.41763   96.49903   210.9632   210.0417   103.55     175.6976   2.595248   0.002595222 0.0000052  1.038187   1.009682   -9999      0.04672654 7162.598  
7657.5     8.75       9.346102   8.729335   61.38729   0.03400609 52.35853   96.23564   96.30963   210.8953   210.0461   112.607    176.5747   2.59389    0.002344726 0.0000048  1.072606   1.010273   -9999      0.04696849 7162.824  
7658       8.75       9.346086   8.732724   61.64126   0.03464216 52.4356    96.02007   96.06245   211.0442   210.1118   105.6617   177.1828   2.59284    0.002480327 0.0000059  1.101217   1.010373   -9999      0.04932519 7163.051  
7658.5     8.75       9.346072   8.718196   61.62526   0.0349667  52.4811    95.89043   95.90763   210.9806   209.9843   105.4874   177.4129   2.592305   0.002672556 0.0000060  1.114019   1.010012   -9999      0.05243683 7163.277  
7659       8.75       9.346076   8.692297   61.77316   0.03512153 52.48188   95.88847   95.89402   210.9806   209.9801   112.5586   177.5727   2.59205    0.002477112 0.0000074  1.114904   1.009092   -9999      0.05132777 7163.504  
7659.5     8.75       9.34606    8.691652   61.30215   0.03471484 52.41552   95.9682    95.97009   211.0301   209.9624   100.6924   178.137    2.592721   0.002065211 0.0000056  1.149619   1.009717   -9999      0.04918352 7163.731  
7660       8.75       9.346072   8.692099   61.62185   0.03347059 52.27519   95.9804    95.99323   210.8443   209.9447   107.5216   178.127    2.594774   0.001659325 0.0000058  1.148415   1.011024   -9999      0.04696761 7163.959  
7660.5     8.75       9.346149   8.692223   61.86291   0.03187636 52.093     95.90739   95.98095   211.0937   209.8568   107.0372   177.857    2.597404   0.001498215 0.0000020  1.158689   1.012336   -9999      0.04482779 7164.187  
7661       8.75       9.346113   8.69251    61.25177   0.03039549 51.91885   95.84332   96.05353   211.2568   209.8829   122.4389   178.3387   2.599847   0.001192042 0.0000012  1.233981   1.012428   -9999      0.04033822 7164.415  
7661.5     8.75       9.346143   8.691193   61.58473   0.02938518 51.79132   95.7635    96.1264    211.2784   210.0025   113.043    178.5512   2.601514   0.001135101 0.0000034  1.244209   1.013354   -9999      0.03626609 7164.644  
7662       8.75       9.346091   8.689837   61.39186   0.02887576 51.7287    95.64687   96.09613   211.1573   210.0101   116.5301   178.8472   2.602355   0.001002933 0.0000028  1.187015   1.014274   -9999      0.03396844 7164.873  
