~Version
 VERS              .         3.0                           : CWLS LOG ASCII STANDARD - VERSION 3.0
 WRAP              .         NO                            : ONE LINE PER DEPTH STEP
 DLM               .         SPACE                         : DELIMITING CHARACTER(SPACE TAB OR COMMA)
~Well Information
#_______________________________________________________________________________
#
#PARAMETER_NAME    .UNIT     VALUE                         : DESCRIPTION
#_______________________________________________________________________________
STRT               .ft       5000                          : First reference value
STOP               .ft       6000                          : Last reference value
STEP               .ft       0.5                           : Step increment
NULL               .         -9999                         : Missing value
COMP               .         University of Utah            : Company
WELL               .         Forge 16A(78)-32              : Well name
FLD                .         Wildcat                       : Field
LOC                .                                       : Location
SRVC               .         Schlumberger                  : Service Company
CTRY               .         US                            : Country
STAT               .         Utah                          : State
CNTY               .         Beaver                        : County
API                .                                       : API NUMBER
DATE               .         26-Dec-2020                   : Service Date
LATI               .         38° 30' 14.447" N             : Latitude
LONG               .         112° 53' 47.066" W            : Longitude
GDAT               .                                       : Geodetic Datum
APD                .ft       32                            : Elevation of Depth Reference (LMF) Above Permanent Datum
BHS                .         OPEN                          : Borehole Status (Open or Cased Hole)
BHT                .degF     270                           : Bottom Hole Temperature
BLI                .ft       -999.25                       : Bottom Log Interval
BS                 .in       8.75                          : Bit Size
CBDR               .ft       5132                          : Casing Bottom of Driller
CBLO               .ft       5110                          : Logger Casing Shoe Depth
CSIZ               .in       9.625                         : Current Casing Size
CWEI               .lbm/ft   40                            : Casing Weight
COUNTRY            .         USA                           : Country
DFD                .lbm/gal  9                             : Drilling Fluid Density
DFT                .         WBM                           : Drilling Fluid Type
DLAB               .         26-Dec-2020                   : Date Logger At Bottom
EDF                .ft       5434.5                        : Elevation of Drill Floor
EGL                .ft       5403.5                        : Elevation of Ground Level
EKB                .ft       5435.5                        : Elevation of Kelly Bushing
EPD                .ft       5403.5                        : Elevation of Permanent Datum (PDAT) above Mean Sea Level
LMF                .         KB                            : Logging Measured From (Name of Logging Elevation Reference)
LUL                .         Fort Morgan, CO               : Logging Unit Location
LUN                .         2801                          : Logging Unit Number
MCST               .degF     68                            : Mudcake Sample Temperature
MFST               .degF     68                            : Mud Filtrate Sample Temperature
MRT                .degF     322                           : Maximum Recorded Temperature
MST                .degF     68                            : Mud Sample Temperature
ORIGINALWELLNAME   .         Forge 16A(78)-32              : 
PDAT               .         GL                            : Permanent Datum
PRODUCER-CODE      .         440                           : 
PRODUCER-NAME      .         Schlumberger                  : 
RMB                .ohm.m    0.05403042                    : Resistivity of Mud at Bottom Hole Temperature
RMCS               .ohm.m    -999.25                       : Resistivity of Mud Cake Sample
RMFS               .ohm.m    0.15                          : Resistivity of Mud Filtrate Sample
RMS                .ohm.m    0.2                           : Resistivity of Mud Sample
RUN                .         5B                            : Run Number
TDD                .ft       10987                         : Driller Total Depth
TDL                .ft       10987                         : Logger Total Depth
TLAB               .         17_37_17                      : Time Logger At Bottom
TLI                .ft       -999.25                       : Top Log Interval
UWI                .         0000000000                    : UNIQUE WELL ID
~Parameter Information Block
#_______________________________________________________________________________
#
#PARAMETER_NAME    .UNIT     VALUE                         : DESCRIPTION
#_______________________________________________________________________________
SET                .         ThruBitDP_Aniso_5000ft-6000ft : 
TLFamily_BS_RM     .         Bit Size                      : 
TLFamily_C1_13     .         Caliper                       : 
TLFamily_C1_24     .         Caliper                       : 
TLFamily_DEVI      .         Hole Deviation                : 
TLFamily_DPHI      .         Density Porosity              : 
TLFamily_DTCO_MPS_final .    Compressional Slowness        : 
TLFamily_DTSH_FAST .         Fast Shear Slowness           : 
TLFamily_DTSH_SLOW .         Slow Shear Slowness           : 
TLFamily_FSA_TOH_REF0_ERRMINUS .        Fast Shear Azimuth            : 
TLFamily_FSA_TOH_REF0_ERRPLUS .         Fast Shear Azimuth            : 
TLFamily_FSA_TOH_REF0_OVERALL .         Fast Shear Azimuth            : 
TLFamily_GR_TMG    .         Gamma Ray                     : 
TLFamily_MAXXENE_OVERALL .   Acoustic Energy               : 
TLFamily_MINXENE_OVERALL .   Acoustic Energy               : 
TLFamily_PR_FAST   .         Poisson Ratio (Dynamic)       : 
TLFamily_RB_TBDS   .         Relative Bearing              : 
TLFamily_SENSOR_AZIM_QCI .   Sensor Azimuth                : 
TLFamily_SLOANI    .         Acoustic Anisotropy           : 
TLFamily_TDEP      .         Measured Depth                : 
TLFamily_TIMANI    .         Acoustic Anisotropy           : 
TLFamily_TNPH      .         Thermal Neutron Porosity      : 
TLFamily_TW_B_L10  .         Travel Time                   : 
TLFamily_TW_E_L10  .         Travel Time                   : 
TLFamily_VPVS_FAST .         VpVs (Compressional To Shear) Ratio: 
~Curve Information
#_______________________________________________________________________________
#
#LOGNAME           .UNIT     LOG_ID                        : DESCRIPTION
#_______________________________________________________________________________
TDEP               .ft                                     : Measured Depth {F}
BS_RM              .in                                     : Bit Size {F}
C1_13              .in                                     : Caliper Section 1, Pads 1-3 {F}
C1_24              .in                                     : Caliper Section 1, Pads 2-4 {F}
DEVI               .deg                                    : Hole Deviation {F}
DPHI               .ft3/ft3                                : Density Porosity {F}
DTCO_MPS_final     .us/ft                                  : Compressional slowness {F}
DTSH_FAST          .us/ft                                  : Fast Shear Slowness {F}
DTSH_SLOW          .us/ft                                  : Slow Shear Slowness {F}
FSA_TOH_REF0_ERRMINUS .deg                                 : Fast shear azimuth error minus(TOH REF0) - swapped {F}
FSA_TOH_REF0_ERRPLUS .deg                                  : Fast shear azimuth error plus(TOH REF0) - swapped {F}
FSA_TOH_REF0_OVERALL .deg                                  : Fast shear azimuth(TOH REF0) - overall - swapped {F}
GR_TMG             .gAPI                                   : Gamma Ray {F}
MAXXENE_OVERALL    .%                                      : Maximum cross energy - overall {F}
MINXENE_OVERALL    .%                                      : Minimum cross energy - overall {F}
PR_FAST            .unitless                               : Possion's Ratio {F}
RB_TBDS            .deg                                    : TBDS Relatvie Bearing 6inch {F}
SENSOR_AZIM_QCI    .deg                                    : Tool azimuth for input QC {F}
SLOANI             .unitless                               : Slowness-based anisotropy {F}
TIMANI             .unitless                               : Time-based anisotropy {F}
TNPH               .ft3/ft3                                : Thermal Neutron Porosity (Ratio Method) in Selected Lithology {F}
TW_B_L10           .us                                     : Time window begin - packed {F}
TW_E_L10           .us                                     : Time window end - packed {F}
VPVS_FAST          .unitless                               : VpVs Ratio {F}
~Ascii
# ...
5263.5     8.75       9.294289   8.889795   1.001095   0.05275085 54.94431   96.23192   110.4547   36.99793   71.77328   54.3856    187.3393   16.58264   11.32325   0.2581689  94.50788   94.81183   0.1376264  0.0374748  0.0924004  1029.127   2279.127   1.751445  
5264       8.75       9.294289   8.887845   0.9311902  0.05712966 55.41264   96.50174   107.4718   39.2697    72.18127   55.72549   174.9404   18.79894   11.82942   0.2540413  100.469    94.69134   0.1075632  0.03910117 0.092236   1028.757   2278.757   1.741511  
5264.5     8.75       9.294159   8.885765   0.8897575  0.0590909  55.63502   96.56004   105.0439   41.06617   71.36974   56.21795   195.4762   21.15009   12.27927   0.2515282  94.50788   94.61017   0.08416331 0.04130341 0.08679894 1028.894   2278.895   1.735598  
5265       8.75       9.294204   8.885674   1.243494   0.05727936 55.57243   96.8591    104.3054   41.40837   69.28673   55.34755   212.137    23.31246   12.91521   0.2546399  94.50788   94.60009   0.07403192 0.04362506 0.0806208  1028.8     2278.8     1.742935  
5265.5     8.75       9.29429    8.887625   0.9814385  0.05600056 55.35352   97.22533   105.4124   41.40512   67.28659   54.34586   212.2533   25.7437    13.92558   0.2602026  111.4074   94.63091   0.08080481 0.04628666 0.07643633 1029.191   2279.191   1.756444  
5266       8.75       9.294251   8.890317   1.264729   0.05382662 55.05003   97.39586   107.8774   41.528     66.41044   53.96922   233.4962   28.46352   15.36197   0.2652753  94.50788   94.70124   0.1021224  0.04986545 0.07523776 1030.281   2280.281   1.769224  
5266.5     8.75       9.294134   8.890491   0.6855078  0.05058731 54.72954   97.42899   111.6399   41.07178   66.08832   53.58005   218.8208   31.30571   17.60464   0.2694872  102.9577   94.86292   0.1359448  0.05428071 0.07760786 1031.956   2281.956   1.78019   
5267       8.75       9.294345   8.890026   0.9961499  0.04897878 54.52487   97.43146   116.1134   41.62625   66.54041   54.08333   223.8772   33.65908   19.9798    0.2720096  111.4074   95.12431   0.1749697  0.06026244 0.07816232 1034.168   2284.168   1.786918  
5267.5     8.75       9.294201   8.889009   0.8695138  0.04931401 54.47787   97.43146   119.4743   41.73937   66.76935   54.25436   259.6501   36.38451   22.83027   0.2725812  94.50788   95.48907   0.2032479  0.06674691 0.08041339 1035.179   2285.179   1.788459  
5268       8.75       9.294182   8.892481   0.863185   0.04953812 54.52958   97.43146   120.8186   41.466     68.06972   54.76786   268.9781   38.9117    25.98383   0.2719523  111.4074   96.00107   0.2143155  0.07186835 0.07964085 1035.02    2285.021   1.786764  
5268.5     8.75       9.294199   8.893702   0.8579963  0.05037331 54.65651   97.43286   121.151    41.28917   69.55931   55.42424   232.7696   41.60266   28.82644   0.270411   94.50788   96.64134   0.2170163  0.07737635 0.08203925 1034.935   2284.935   1.78264   
5269       8.75       9.29421    8.89362    1.081072   0.05201031 54.84884   97.45269   120.8984   41.29248   70.68036   55.98642   185.7895   44.50937   31.14711   0.2681795  94.50788   97.40206   0.2147521  0.0832275  0.08275867 1034.55    2284.55    1.77675   
5269.5     8.75       9.294155   8.893745   0.7892736  0.05397935 55.03407   97.5673    119.9964   41.05937   70.74445   55.90191   187.6105   46.86486   32.59269   0.2666829  106.4302   98.25683   0.2061843  0.087988   0.08386867 1035.556   2285.556   1.772853  
5270       8.75       9.294167   8.893605   1.037313   0.05432542 55.13246   97.89932   119.4901   41.06781   71.96984   56.51883   167.2396   49.10492   33.46074   0.2677821  72.60678   99.09742   0.1986372  0.09246203 0.08110461 1038.106   2288.106   1.775711  
5270.5     8.75       9.294127   8.893671   1.142979   0.05431213 55.14991   98.48425   119.6998   41.75079   73.64338   57.69709   153.7848   51.56      33.84132   0.2715771  94.50788   99.86552   0.1944736  0.09743464 0.08014902 1040.281   2290.281   1.785756  
5271       8.75       9.29418    8.89367    0.7158579  0.05420361 55.10986   99.146     119.8219   43.13588   74.49258   58.81423   180.3165   54.39925   33.30289   0.2764485  94.50788   100.4434   0.188849   0.1030882  0.07954101 1041.968   2291.968   1.799061  
5271.5     8.75       9.294164   8.893662   0.8602299  0.0535752  54.99378   99.53813   119.4308   44.89297   73.90598   59.39947   200.8038   57.45633   31.78437   0.2803221  94.50788   100.7284   0.1816941  0.1095574  0.07809301 1043.497   2293.497   1.809989  
5272       8.75       9.29412    8.893726   0.8660911  0.05161944 54.81585   99.48826   118.7034   46.65613   72.03201   59.34407   193.19     60.64178   29.1776    0.2820457  94.50788   100.6436   0.1761305  0.1175865  0.07638226 1045       2295       1.814954  
5272.5     8.75       9.294075   8.893886   0.8640128  0.05032722 54.66481   99.18955   117.8377   47.78172   69.6152    58.69846   185.7894   64.09441   26.06871   0.2818906  94.50788   100.1592   0.1718506  0.1269699  0.07590211 1046.798   2296.798   1.814505  
5273       8.75       9.294108   8.893797   0.7532895  0.05020728 54.58576   98.89565   116.78     48.56025   67.49827   58.02926   186.4192   67.06133   22.88219   0.2809354  94.50788   99.30816   0.1658452  0.1362465  0.07533832 1049.101   2299.101   1.811748  
5273.5     8.75       9.294202   8.89376    0.8450181  0.04989633 54.54557   98.78566   115.7755   49.1866    65.66658   57.42659   156.8264   69.48304   19.56424   0.2806982  94.50788   98.19091   0.1583683  0.1443577  0.07353836 1051.885   2301.885   1.811067  
5274       8.75       9.294126   8.893744   0.8524182  0.04952237 54.53606   99.14736   115.2993   49.94215   64.21577   57.07896   134.1113   71.32562   16.29129   0.283097   94.50788   96.96115   0.1506383  0.1503232  0.07207093 1054.948   2304.948   1.818015  
5274.5     8.75       9.294143   8.89367    1.036736   0.05015642 54.56462   99.88981   115.2616   50.57421   62.98746   56.78083   145.2994   72.46822   13.30642   0.2873564  106.4302   95.80627   0.1428926  0.1551942  0.07220517 1058.048   2308.048   1.83067   
5275       8.75       9.294204   8.893771   0.836161   0.05047027 54.59334   100.4455   114.8146   51.04617   61.81937   56.43277   152.0799   73.03559   10.63223   0.2903723  94.50788   94.87537   0.1335039  0.1560068  0.0741059  1060.696   2310.696   1.839886  
5275.5     8.75       9.294147   8.893746   0.8840283  0.05009934 54.61839   100.4227   113.2467   51.46694   60.51053   55.98874   162.929    73.61012   8.523412   0.2899632  111.4074   94.29001   0.1200363  0.1595342  0.0735544  1062.591   2312.591   1.838623  
5276       8.75       9.294177   8.893637   0.8565074  0.0506873  54.6973    99.69474   111.0267   51.70727   59.15199   55.42963   164.8664   74.41801   7.126867   0.2846777  94.50788   94.05164   0.1075537  0.1634334  0.073034   1063.798   2313.798   1.822663  
5276.5     8.75       9.294164   8.893672   0.5451238  0.05196002 54.8499    98.56689   109.3214   51.76443   57.9605    54.86247   153.0003   75.05224   6.231662   0.2757159  94.50788   94.16322   0.1034643  0.166254   0.0709927  1064.359   2314.359   1.797029  
5277       8.75       9.294196   8.89374    1.019761   0.05344848 55.03832   97.60992   108.4025   51.71868   57.0142    54.36644   143.5557   75.58822   5.844007   0.2669289  94.50788   94.53674   0.1047764  0.1690036  0.07033623 1064.208   2314.208   1.77349   
5277.5     8.75       9.294172   8.893678   0.8152533  0.05510541 55.1887    96.93006   107.596    51.76127   56.33693   54.0491    153.7268   75.76524   5.67564    0.2601604  94.50788   95.09821   0.1042992  0.1704528  0.06872183 1063.374   2313.374   1.756339  
5278       8.75       9.294163   8.893773   0.7210271  0.05512188 55.22905   96.34814   106.7395   51.69927   55.97297   53.83612   148.7865   75.12688   5.628942   0.2553034  94.50788   95.78075   0.1023338  0.1697596  0.06909057 1062.19    2312.189   1.744519  
5278.5     8.75       9.294129   8.893751   0.8199475  0.05452844 55.15565   95.92169   106.1684   51.78415   55.77876   53.78146   144.4856   73.90688   5.603056   0.2530255  94.50788   96.4726    0.1014072  0.1679786  0.07231972 1060.57    2310.57    1.739109  
