~Version
 VERS              .         2.0                           : CWLS LOG ASCII STANDARD - VERSION 2.0
 WRAP              .         NO                            : ONE LINE PER DEPTH STEP
 DLM               .         SPACE                         : DELIMITING CHARACTER(SPACE TAB OR COMMA)
~Well Information
#_______________________________________________________________________________
#
#PARAMETER_NAME    .UNIT     VALUE                         : DESCRIPTION
#_______________________________________________________________________________
STRT               .ft       6000                          : First reference value
STOP               .ft       10942                         : Last reference value
STEP               .ft       0.5                           : Step increment
NULL               .         -9999                         : Missing value
COMP               .         University of Utah            : Company
WELL               .         Forge 16A(78)-32              : Well name
FLD                .         Wildcat                       : Field
LOC                .                                       : Location
CNTY               .         Beaver                        : County
STAT               .         Utah                          : State
CTRY               .         USA                           : Country
SRVC               .         Schlumberger                  : Service Company
DATE               .         26-Dec-2020                   : Date
UWI                .         0000000000                    : Unique Well ID
APD                .ft       32                            : Elevation of Depth Reference (LMF) Above Permanent Datum
API                .                                       : API NUMBER
BHS                .         OPEN                          : Borehole Status (Open or Cased Hole)
BHT                .degF     270                           : Bottom Hole Temperature
BLI                .ft       -999.25                       : Bottom Log Interval
BS                 .in       8.75                          : Bit Size
CBDR               .ft       5132                          : Casing Bottom of Driller
CBLO               .ft       5110                          : Logger Casing Shoe Depth
CSIZ               .in       9.625                         : Current Casing Size
CWEI               .lbm/ft   40                            : Casing Weight
DFD                .lbm/gal  9                             : Drilling Fluid Density
DFT                .         WBM                           : Drilling Fluid Type
DLAB               .         26-Dec-2020                   : Date Logger At Bottom
EDF                .ft       5434.5                        : Elevation of Drill Floor
EGL                .ft       5403.5                        : Elevation of Ground Level
EKB                .ft       5435.5                        : Elevation of Kelly Bushing
EPD                .ft       5403.5                        : Elevation of Permanent Datum (PDAT) above Mean Sea Level
GDAT               .                                       : Geodetic Datum
LMF                .         KB                            : Logging Measured From (Name of Logging Elevation Reference)
LUL                .         Fort Morgan, CO               : Logging Unit Location
LUN                .         2801                          : Logging Unit Number
LATI               .         38° 30' 14.447" N             : Latitude
LONG               .         112° 53' 47.066" W            : Longitude
MCST               .degF     68                            : Mudcake Sample Temperature
MFST               .degF     68                            : Mud Filtrate Sample Temperature
MRT                .degF     322                           : Maximum Recorded Temperature
MST                .degF     68                            : Mud Sample Temperature
ORIGINALWELLNAME   .         Forge 16A(78)-32              : 
PDAT               .         GL                            : Permanent Datum
PRODUCER-CODE      .         440                           : 
PRODUCER-NAME      .         Schlumberger                  : 
RMB                .ohm.m    0.05403042                    : Resistivity of Mud at Bottom Hole Temperature
RMCS               .ohm.m    -999.25                       : Resistivity of Mud Cake Sample
RMFS               .ohm.m    0.15                          : Resistivity of Mud Filtrate Sample
RMS                .ohm.m    0.2                           : Resistivity of Mud Sample
RUN                .         5B                            : Run Number
TDD                .ft       10987                         : Driller Total Depth
TDL                .ft       10987                         : Logger Total Depth
TLAB               .         17_37_17                      : Time Logger At Bottom
TLI                .ft       -999.25                       : Top Log Interval
~Parameter Information Block
#_______________________________________________________________________________
#
#PARAMETER_NAME    .UNIT     VALUE                         : DESCRIPTION
#_______________________________________________________________________________
SET                .         LQC_SonicFracture             : 
TLFamily_BS_RM     .         Bit Size                      : 
TLFamily_C1_13     .         Caliper                       : 
TLFamily_C1_24     .         Caliper                       : 
TLFamily_DEVI      .         Hole Deviation                : 
TLFamily_DPHI      .         Density Porosity              : 
TLFamily_DTCO_MPS_final .         Compressional Slowness        : 
TLFamily_DTSH_FAST_final .        Fast Shear Slowness           : 
TLFamily_DTSH_SLOW_final .        Slow Shear Slowness           : 
TLFamily_DTST_MLF_FA_R_4 .        Stoneley Slowness             : 
TLFamily_DTST_STM_2 .        Stoneley Slowness             : 
TLFamily_GR_TMG    .         Gamma Ray                     : 
TLFamily_MD        .         Measured Depth                : 
TLFamily_RB        .         Relative Bearing              : 
TLFamily_RHOB_model .        Bulk Density                  : 
TLFamily_STRC_DN_7 .         Reflection Coefficient        : 
TLFamily_STRC_DN_STM_6 .     Reflection Coefficient        : 
TLFamily_STTC_R_5  .         Transmission Coefficient      : 
TLFamily_STTC_R_STM_8 .      Transmission Coefficient      : 
TLFamily_TENS      .         Tension                       : 
TLFamily_TNPH      .         Thermal Neutron Porosity      : 
TLFamily_TVD       .         True Vertical Depth           : 
~Curve Information
#_______________________________________________________________________________
#
#LOGNAME           .UNIT     LOG_ID                        : DESCRIPTION
#_______________________________________________________________________________
MD                 .ft                                     : Measured Depth 
BS_RM              .in                                     : Bit Size 
C1_13              .in                                     : Caliper Section 1, Pads 1-3 
C1_24              .in                                     : Caliper Section 1, Pads 2-4 
DEVI               .deg                                    : Hole Deviation 
DPHI               .ft3/ft3                                : Density Porosity using sandstone matrix 
DTCO_MPS           .us/ft                                  : Compressional slowness 
DTSH_FAST          .us/ft                                  : Fast Shear Slowness 
DTSH_SLOW          .us/ft                                  : Slow Shear Slowness 
DTST               .us/ft                                  : Stoneley slowness 
DTST_STM_2         .us/ft                                  : Modeled Stoneley slowness computed from wavenumber at dominant frequency of source wavelet 
GR_TMG             .gAPI                                   : Gamma Ray 
RB                 .deg                                    : Relative Bearing 
RHOB_model         .g/cm3                                  : Bulk density (g/cc) 
STRC_DN_7          .unitless                               : Down-going reflection coefficient for Stoneley waveform 
STRC_DN_STM_6      .unitless                               : Down-going reflection coefficient for Modeled Stoneley waveform 
STTC_R_5           .unitless                               : Transmission coefficient for Stoneley waveform from receiver array 
STTC_R_STM_8       .unitless                               : Transmission coefficient for Modeled Stoneley waveform from receiver array 
TENS               .lbf                                    : Cable Tension 
TNPH               .ft3/ft3                                : Thermal Neutron Porosity (Ratio Method) in Selected Lithology 
TVD                .ft                                     : True Vertical Depth 
~Ascii
# ...
10585      8.75       9.292624   8.777851   64.85511   0.04522246 53.98847   89.06188   93.68941   211.3544   208.9037   170.0584   203.9154   2.575383   0.002307818 0.0000060  0.9644845  0.9959828  -9999      0.05795523 8423.65   
10585.5    8.75       9.292638   8.798696   63.86951   0.04705944 54.21208   88.46106   92.83807   211.3544   208.9157   165.8349   203.6489   2.572352   0.00227263 0.0000064  0.9773267  0.9978886  -9999      0.05580369 8423.839  
10586      8.75       9.29267    8.806058   64.87577   0.05025208 54.49604   88.70969   92.13069   209.2082   209.551    172.8094   203.9974   2.567084   0.002079769 0.0000069  1.007925   0.9965565  -9999      0.05115614 8424.028  
10586.5    8.75       9.292654   8.817173   64.45445   0.05160369 54.67064   89.34114   91.94228   210.7674   209.2769   183.7747   203.8344   2.564854   0.003434758 0.0000075  0.9977726  0.9960557  -9999      0.04964308 8424.217  
10587      8.75       9.292686   8.785931   64.73174   0.05136296 54.64492   90.22124   92.11079   209.7414   210.0017   169.4771   203.7713   2.565251   0.003919127 0.0000097  0.9501303  0.9923412  -9999      0.04840586 8424.405  
10587.5    8.75       9.292666   8.776265   64.99192   0.04965025 54.41632   91.39079   92.59639   211.1186   209.439    163.3165   203.9107   2.568077   0.003574013 0.0000114  0.9385698  0.9932759  -9999      0.04765682 8424.595  
10588      8.75       9.292618   8.776306   64.40802   0.04667695 54.01032   92.42727   93.42422   209.0193   209.2457   162.8806   203.882    2.572983   0.002989156 0.0000130  0.9598666  0.9926433  -9999      0.04571468 8424.782  
10588.5    8.75       9.292633   8.77655    64.57913   0.04210669 53.50689   93.08607   94.21102   211.8372   209.5048   154.0173   203.6682   2.580524   0.004310497 0.0000128  0.959666   0.9906558  -9999      0.04502691 8424.971  
10589      8.75       9.292649   8.770113   64.89735   0.03829271 53.0569    92.67355   94.35781   208.3405   209.0734   150.6755   204.3502   2.586817   0.005247699 0.0000097  0.9600584  0.9899304  -9999      0.04635177 8425.159  
10589.5    8.75       9.292627   8.745817   64.68233   0.03659633 52.74631   92.09224   94.03673   207.9999   209.5377   162.0088   204.4599   2.589616   0.004930114 0.0000070  0.94675    0.9899119  -9999      0.0466096  8425.347  
10590      8.75       9.292623   8.741042   65.18134   0.03501641 52.54565   91.96072   93.69718   211.5937   209.4089   165.2053   204.1855   2.592223   0.003131551 0.0000074  0.9704295  0.9876455  -9999      0.04759162 8425.534  
10590.5    8.75       9.292634   8.740841   64.5752    0.03405146 52.43296   91.97977   93.65675   208.5388   209.2617   166.0288   204.4626   2.593815   0.001651195 0.0000051  0.9672493  0.9921443  -9999      0.04833829 8425.723  
10591      8.75       9.2926     8.740926   64.26071   0.03420607 52.3918    92.36502   93.76971   209.3241   209.0768   171.4533   204.3216   2.59356    0.001879571 0.0000088  0.9751298  0.9889994  -9999      0.04992273 8425.91   
10591.5    8.75       9.292604   8.74101    64.93597   0.03421156 52.358     92.36024   93.63957   211.0815   208.3975   176.248    204.4746   2.593551   0.001506831 0.0000102  1.000588   0.9895998  -9999      0.05483116 8426.097  
10592      8.75       9.292611   8.741016   64.48206   0.03347391 52.28907   91.54188   93.47257   211.4538   208.5935   196.4448   204.5834   2.594768   0.002228402 0.0000146  0.9750596  0.9889792  -9999      0.05818383 8426.284  
10592.5    8.75       9.292641   8.740958   65.10441   0.0323951  52.22902   89.98702   93.14794   210.1668   208.5719   193.1029   204.5551   2.596548   0.00372353 0.0000122  0.9628715  0.9894251  -9999      0.0618398  8426.472  
10593      8.75       9.292622   8.733457   64.85248   0.03295459 52.23596   88.35126   92.45612   209.0461   208.1418   191.5045   204.4605   2.595625   0.002626437 0.0000107  0.9986007  0.9907877  -9999      0.06183652 8426.658  
10593.5    8.75       9.292603   8.73115    64.53751   0.03327393 52.30254   87.63519   91.9783    209.7045   208.2088   204.291    205.0206   2.595098   0.002026165 0.0000120  1.011639   0.9913611  -9999      0.0604612  8426.845  
10594      8.75       9.292624   8.724402   64.8349    0.03413209 52.42949   87.06377   91.7157    210.057    208.6977   204.0003   205.1547   2.593682   0.001960394 0.0000156  1.007515   0.991984   -9999      0.05816078 8427.031  
10594.5    8.75       9.292583   8.72227    65.1045    0.03560422 52.63457   86.28936   91.37771   210.3921   208.7949   208.5045   205.8459   2.591253   0.00196812 0.0000163  0.9871041  0.993808   -9999      0.05593204 8427.218  
10595      8.75       9.292625   8.723076   65.21927   0.0382667  52.87609   86.53111   91.09995   209.3022   208.4028   188.0589   205.8523   2.58686    0.001570468 0.0000157  0.973798   0.9946424  -9999      0.05548239 8427.404  
10595.5    8.75       9.292566   8.71559    64.23486   0.03955272 53.05329   87.6465    91.00016   209.6702   208.6212   149.513    205.5459   2.584738   0.002209607 0.0000163  1.011441   1.000526   -9999      0.05500373 8427.591  
10596      8.75       9.292526   8.676167   65.14584   0.03992667 53.12759   88.0437    90.96436   210.1028   208.6168   145.6868   205.963    2.584121   0.002973303 0.0000154  1.029779   1.00201    -9999      0.05262087 8427.776  
10596.5    8.75       9.292545   8.66001    64.98191   0.03955517 53.14387   87.6518    91.17251   209.5149   208.6305   142.684    206.3182   2.584734   0.00334544 0.0000115  1.00591    0.9985126  -9999      0.04897208 8427.962  
10597      8.75       9.292545   8.655382   64.89236   0.04016552 53.13685   87.5992    91.40597   210.655    209.1488   153.2908   206.1626   2.583727   0.002902862 0.0000064  0.9928153  1.001972   -9999      0.04548367 8428.148  
10597.5    8.75       9.292583   8.655528   65.5264    0.03924364 53.10662   87.92351   91.31081   210.7632   209.2248   148.3506   205.8499   2.585248   0.00347178 0.0000069  0.9856581  1.003111   -9999      0.04522237 8428.334  
10598      8.75       9.292515   8.655219   64.74599   0.03898731 53.12546   88.74425   91.25734   209.2245   209.1837   137.0464   205.9411   2.585671   0.003799198 0.0000112  1.009231   1.003743   -9999      0.04545505 8428.52   
10598.5    8.75       9.29255    8.655019   64.89787   0.04023517 53.26601   90.06774   91.55575   211.6049   209.2111   132.0287   205.7056   2.583612   0.003802323 0.0000150  1.013827   1.001196   -9999      0.04708059 8428.704  
10599      8.75       9.292565   8.655124   64.10664   0.04252428 53.49519   90.93231   91.78087   210.9917   208.9388   146.4618   205.6782   2.579835   0.004780117 0.0000179  0.9954305  1.002039   -9999      0.047382   8428.89   
10599.5    8.75       9.292624   8.65419    65.48194   0.04399207 53.74525   91.07107   92.05775   210.6193   209.5567   164.6727   205.9828   2.577413   0.004164444 0.0000191  0.9940775  1.001031   -9999      0.05023851 8429.074  
10600      8.75       9.292548   8.653018   65.57087   0.04618061 53.9888    90.87579   92.90935   209.8771   209.2672   174.9403   205.7351   2.573802   0.003452031 0.0000202  1.001404   1.00107    -9999      0.05165808 8429.26   
10600.5    8.75       9.292605   8.660143   65.14101   0.04771935 54.1765    90.97588   94.15571   209.385    209.2681   159.248    205.9324   2.571263   0.001746373 0.0000207  1.019135   1.001455   -9999      0.05231835 8429.444  
10601      8.75       9.292717   8.660772   65.73346   0.04843215 54.24339   91.54778   95.20543   212.6516   209.3855   173.9718   206.2041   2.570087   0.002138296 0.0000116  1.010469   1.00078    -9999      0.05035208 8429.629  
10601.5    8.75       9.292631   8.656862   65.06855   0.04766357 54.15921   91.63268   95.60664   212.4194   209.325    189.5534   206.1721   2.571355   0.003227902 0.0000095  0.9588617  1.000506   -9999      0.05206339 8429.813  
10602      8.75       9.292534   8.656651   64.95729   0.04567458 53.96725   91.51424   95.2598    212.4194   209.3155   224.9234   205.7413   2.574637   0.003811313 0.0000109  0.9470041  1.000356   -9999      0.05715223 8429.997  
