~Version
 VERS              .         2.0                           : CWLS LOG ASCII STANDARD - VERSION 2.0
 WRAP              .         NO                            : ONE LINE PER DEPTH STEP
 DLM               .         SPACE                         : DELIMITING CHARACTER(SPACE TAB OR COMMA)
~Well Information
#_______________________________________________________________________________
#
#PARAMETER_NAME    .UNIT     VALUE                         : DESCRIPTION
#_______________________________________________________________________________
STRT               .ft       6000                          : First reference value
STOP               .ft       10942                         : Last reference value
STEP               .ft       0.5                           : Step increment
NULL               .         -9999                         : Missing value
COMP               .         University of Utah            : Company
WELL               .         Forge 16A(78)-32              : Well name
FLD                .         Wildcat                       : Field
LOC                .                                       : Location
CNTY               .         Beaver                        : County
STAT               .         Utah                          : State
CTRY               .         USA                           : Country
SRVC               .         Schlumberger                  : Service Company
DATE               .         26-Dec-2020                   : Date
UWI                .         0000000000                    : Unique Well ID
APD                .ft       32                            : Elevation of Depth Reference (LMF) Above Permanent Datum
API                .                                       : API NUMBER
BHS                .         OPEN                          : Borehole Status (Open or Cased Hole)
BHT                .degF     270                           : Bottom Hole Temperature
BLI                .ft       -999.25                       : Bottom Log Interval
BS                 .in       8.75                          : Bit Size
CBDR               .ft       5132                          : Casing Bottom of Driller
CBLO               .ft       5110                          : Logger Casing Shoe Depth
CSIZ               .in       9.625                         : Current Casing Size
CWEI               .lbm/ft   40                            : Casing Weight
DFD                .lbm/gal  9                             : Drilling Fluid Density
DFT                .         WBM                           : Drilling Fluid Type
DLAB               .         26-Dec-2020                   : Date Logger At Bottom
EDF                .ft       5434.5                        : Elevation of Drill Floor
EGL                .ft       5403.5                        : Elevation of Ground Level
EKB                .ft       5435.5                        : Elevation of Kelly Bushing
EPD                .ft       5403.5                        : Elevation of Permanent Datum (PDAT) above Mean Sea Level
GDAT               .                                       : Geodetic Datum
LMF                .         KB                            : Logging Measured From (Name of Logging Elevation Reference)
LUL                .         Fort Morgan, CO               : Logging Unit Location
LUN                .         2801                          : Logging Unit Number
LATI               .         38° 30' 14.447" N             : Latitude
LONG               .         112° 53' 47.066" W            : Longitude
MCST               .degF     68                            : Mudcake Sample Temperature
MFST               .degF     68                            : Mud Filtrate Sample Temperature
MRT                .degF     322                           : Maximum Recorded Temperature
MST                .degF     68                            : Mud Sample Temperature
ORIGINALWELLNAME   .         Forge 16A(78)-32              : 
PDAT               .         GL                            : Permanent Datum
PRODUCER-CODE      .         440                           : 
PRODUCER-NAME      .         Schlumberger                  : 
RMB                .ohm.m    0.05403042                    : Resistivity of Mud at Bottom Hole Temperature
RMCS               .ohm.m    -999.25                       : Resistivity of Mud Cake Sample
RMFS               .ohm.m    0.15                          : Resistivity of Mud Filtrate Sample
RMS                .ohm.m    0.2                           : Resistivity of Mud Sample
RUN                .         5B                            : Run Number
TDD                .ft       10987                         : Driller Total Depth
TDL                .ft       10987                         : Logger Total Depth
TLAB               .         17_37_17                      : Time Logger At Bottom
TLI                .ft       -999.25                       : Top Log Interval
~Parameter Information Block
#_______________________________________________________________________________
#
#PARAMETER_NAME    .UNIT     VALUE                         : DESCRIPTION
#_______________________________________________________________________________
SET                .         LQC_SonicFracture             : 
TLFamily_BS_RM     .         Bit Size                      : 
TLFamily_C1_13     .         Caliper                       : 
TLFamily_C1_24     .         Caliper                       : 
TLFamily_DEVI      .         Hole Deviation                : 
TLFamily_DPHI      .         Density Porosity              : 
TLFamily_DTCO_MPS_final .         Compressional Slowness        : 
TLFamily_DTSH_FAST_final .        Fast Shear Slowness           : 
TLFamily_DTSH_SLOW_final .        Slow Shear Slowness           : 
TLFamily_DTST_MLF_FA_R_4 .        Stoneley Slowness             : 
TLFamily_DTST_STM_2 .        Stoneley Slowness             : 
TLFamily_GR_TMG    .         Gamma Ray                     : 
TLFamily_MD        .         Measured Depth                : 
TLFamily_RB        .         Relative Bearing              : 
TLFamily_RHOB_model .        Bulk Density                  : 
TLFamily_STRC_DN_7 .         Reflection Coefficient        : 
TLFamily_STRC_DN_STM_6 .     Reflection Coefficient        : 
TLFamily_STTC_R_5  .         Transmission Coefficient      : 
TLFamily_STTC_R_STM_8 .      Transmission Coefficient      : 
TLFamily_TENS      .         Tension                       : 
TLFamily_TNPH      .         Thermal Neutron Porosity      : 
TLFamily_TVD       .         True Vertical Depth           : 
~Curve Information
#_______________________________________________________________________________
#
#LOGNAME           .UNIT     LOG_ID                        : DESCRIPTION
#_______________________________________________________________________________
MD                 .ft                                     : Measured Depth 
BS_RM              .in                                     : Bit Size 
C1_13              .in                                     : Caliper Section 1, Pads 1-3 
C1_24              .in                                     : Caliper Section 1, Pads 2-4 
DEVI               .deg                                    : Hole Deviation 
DPHI               .ft3/ft3                                : Density Porosity using sandstone matrix 
DTCO_MPS           .us/ft                                  : Compressional slowness 
DTSH_FAST          .us/ft                                  : Fast Shear Slowness 
DTSH_SLOW          .us/ft                                  : Slow Shear Slowness 
DTST               .us/ft                                  : Stoneley slowness 
DTST_STM_2         .us/ft                                  : Modeled Stoneley slowness computed from wavenumber at dominant frequency of source wavelet 
GR_TMG             .gAPI                                   : Gamma Ray 
RB                 .deg                                    : Relative Bearing 
RHOB_model         .g/cm3                                  : Bulk density (g/cc) 
STRC_DN_7          .unitless                               : Down-going reflection coefficient for Stoneley waveform 
STRC_DN_STM_6      .unitless                               : Down-going reflection coefficient for Modeled Stoneley waveform 
STTC_R_5           .unitless                               : Transmission coefficient for Stoneley waveform from receiver array 
STTC_R_STM_8       .unitless                               : Transmission coefficient for Modeled Stoneley waveform from receiver array 
TENS               .lbf                                    : Cable Tension 
TNPH               .ft3/ft3                                : Thermal Neutron Porosity (Ratio Method) in Selected Lithology 
TVD                .ft                                     : True Vertical Depth 
~Ascii
# ...
8957.5     8.75       9.097141   8.632365   63.75339   0.04141845 53.33598   97.04747   98.96404   210.2841   210.3928   68.43603   172.6309   2.58166    0.0007561626 0.0000343  1.064276   1.001745   -9999      0.04724971 7731.832  
8958       8.75       9.097194   8.666771   63.64242   0.04187939 53.37336   96.60498   99.33677   210.2526   210.4058   70.71235   172.6584   2.580899   0.0009796305 0.0000375  1.061587   1.005607   -9999      0.04294677 7732.041  
8958.5     8.75       9.097218   8.64446    63.52158   0.04158701 53.29838   96.51513   99.55649   210.5819   210.0123   67.85478   172.2688   2.581381   0.0005700359 0.0000341  1.082511   1.000921   -9999      0.03954918 7732.249  
8959       8.75       9.097161   8.62929    63.99801   0.03922428 53.1434    96.36719   99.6634    210.4184   210.3553   64.80354   172.6588   2.58528    0.0005560381 0.0000262  1.082293   1.000378   -9999      0.03880433 7732.458  
8959.5     8.75       9.097234   8.632899   64.46219   0.03870821 53.01044   96.12917   99.46591   210.1117   210.1438   62.62402   172.288    2.586132   0.0007551219 0.0000261  1.065869   0.9996973  -9999      0.03954364 7732.667  
8960       8.75       9.097198   8.635742   64.36292   0.03824792 52.89846   95.80638   98.72259   210.1117   210.1483   68.46504   171.7855   2.586891   0.0004298249 0.0000348  1.051116   1.000493   -9999      0.04009664 7732.875  
8960.5     8.75       9.097052   8.641971   64.07716   0.03692607 52.76102   95.14645   97.4539    210.117    210.1381   62.86622   171.8618   2.589072   0.0004300287 0.0000609  1.068323   1.000309   -9999      0.03998992 7733.084  
8961       8.75       9.097344   8.691227   63.57748   0.03564662 52.62287   94.55846   96.24847   210.1974   209.984    66.54708   171.9955   2.591183   0.0007910776 0.0000916  1.07056    1.000257   -9999      0.04038087 7733.293  
8961.5     8.75       9.097281   8.649504   64.52382   0.03505665 52.52027   94.48994   95.5269    209.7582   209.6622   74.97447   172.1529   2.592156   0.001281913 0.0000991  1.0684     0.9997074  -9999      0.03949635 7733.501  
8962       8.75       9.097358   8.683299   63.73518   0.03459578 52.44487   94.29126   94.83536   210.1228   209.8929   85.43607   172.2537   2.592917   0.001302307 0.0000782  1.066311   0.9974344  -9999      0.03904203 7733.71   
8962.5     8.75       9.097074   8.677453   63.38741   0.03396549 52.3885    93.62991   93.94732   209.643    209.8489   73.37616   172.1815   2.593957   0.001891721 0.0000723  1.079396   0.9998683  -9999      0.03839304 7733.918  
8963       8.75       9.097167   8.667967   63.44704   0.0337382  52.37507   92.7489    93.33308   209.9057   209.719    64.51291   172.4467   2.594332   0.001721505 0.0000637  1.074872   0.9979632  -9999      0.03876937 7734.127  
8963.5     8.75       9.097178   8.660339   63.7599    0.03429942 52.41401   91.91084   93.16304   210.2699   209.5669   64.70667   171.8094   2.593406   0.002152523 0.0000452  1.065713   0.9971841  -9999      0.04044862 7734.335  
8964       8.75       9.097338   8.659036   63.54168   0.03491671 52.46815   91.78578   93.42625   210.2467   209.2076   70.0343    172.4991   2.592387   0.002153094 0.0000433  1.060523   0.9959411  -9999      0.04040064 7734.543  
8964.5     8.75       9.097244   8.665932   63.88361   0.03510607 52.49857   92.16767   93.89055   210.7913   209.1964   70.13114   172.0223   2.592075   0.001353922 0.0000287  1.055873   0.9979835  -9999      0.04062513 7734.752  
8965       8.75       9.0973     8.643383   63.84818   0.03497544 52.5109    92.39073   94.31931   210.5157   209.5359   67.61266   172.0492   2.59229    0.0006599642 0.0000230  1.052323   0.9952109  -9999      0.04045661 7734.96   
8965.5     8.75       9.097342   8.680465   63.38705   0.03498693 52.54908   92.63468   94.67485   210.4937   209.275    69.41156   171.8735   2.592272   0.002743547 0.0000173  1.047456   1.001212   -9999      0.04038825 7735.168  
8966       8.75       9.097201   8.675077   63.35295   0.03602029 52.6337    92.71261   94.7831    210.3501   209.549    73.52148   172.1496   2.590567   0.003027713 0.0000145  1.035347   1.000008   -9999      0.04039288 7735.376  
8966.5     8.75       9.09722    8.65448    63.19406   0.03691516 52.72215   92.75272   94.82163   209.8395   209.4904   67.56423   172.3681   2.58909    0.003934505 0.0000148  1.023787   0.9979709  -9999      0.04106553 7735.584  
8967       8.75       9.097233   8.664984   63.3098    0.03696486 52.79113   93.00857   95.05035   210.0857   209.3896   57.82913   171.996    2.589008   0.004276337 0.0000168  1.024194   0.9987327  -9999      0.04208399 7735.792  
8967.5     8.75       9.097146   8.649763   64.05044   0.03760578 52.87187   93.04063   95.09583   209.9784   209.5976   62.4787    172.1286   2.58795    0.003520993 0.0000159  1.021392   0.9983087  -9999      0.04310021 7736      
8968       8.75       9.097146   8.64285    63.74292   0.03884815 52.94085   92.98456   94.89796   209.9784   209.601    70.17962   172.5277   2.585901   0.003166755 0.0000174  0.9975785  0.9982734  -9999      0.04239166 7736.208  
8968.5     8.75       9.097263   8.643967   62.333     0.03853092 52.92318   93.27153   94.75426   210.2275   209.388    60.00865   172.3978   2.586424   0.003983994 0.0000181  1.005054   1.000297   -9999      0.04237654 7736.417  
8969       8.75       9.097186   8.648336   63.1949    0.03729908 52.82578   93.39629   94.66129   210.5052   209.6789   71.48726   172.3692   2.588457   0.004346909 0.0000184  1.006766   1.000001   -9999      0.04145783 7736.625  
8969.5     8.75       9.097274   8.65234    63.14098   0.03659604 52.70825   93.38858   94.77854   209.918    209.6707   73.23087   172.5039   2.589617   0.004671121 0.0000205  1.002368   1.000602   -9999      0.04179255 7736.833  
8970       8.75       9.097203   8.654286   63.27644   0.03569727 52.58723   93.48958   94.85754   210.3781   209.4668   62.18814   172.4997   2.5911     0.005814317 0.0000196  1.004994   1.000906   -9999      0.04194159 7737.04   
8970.5     8.75       9.097222   8.658905   63.60426   0.03451667 52.48268   93.24719   94.41591   210.2253   209.8392   70.90606   172.0909   2.593048   0.007689104 0.0000162  1.005686   1.002104   -9999      0.04215341 7737.248  
8971       8.75       9.0972     8.664455   63.11442   0.03407241 52.45734   92.94706   93.88751   210.1155   209.4939   70.67362   172.4505   2.593781   0.007998513 0.0000119  1.002103   0.9990578  -9999      0.04244247 7737.456  
8971.5     8.75       9.097244   8.655961   63.26265   0.03502486 52.55137   92.84732   93.46109   210.094    209.5629   79.04285   172.3937   2.592209   0.00638348 0.0000090  0.9836053  1.000652   -9999      0.04190137 7737.664  
8972       8.75       9.097288   8.647104   63.27024   0.03662335 52.74149   92.93851   93.1937    210.1974   209.4492   76.42743   172.454    2.589571   0.003689296 0.0000080  0.9849618  0.9981588  -9999      0.04254692 7737.871  
8972.5     8.75       9.097281   8.640439   62.72345   0.03847088 52.98489   93.06744   93.14075   210.2007   209.5819   62.91463   172.3085   2.586523   0.002907632 0.0000096  0.9970402  1.000498   -9999      0.04356946 7738.079  
8973       8.75       9.097245   8.65047    63.12559   0.04072422 53.23281   93.22855   93.30281   210.1826   209.5259   66.25653   172.3406   2.582805   0.003608073 0.0000143  0.9919663  1.00447    -9999      0.04407709 7738.286  
8973.5     8.75       9.097275   8.654459   63.0014    0.04226151 53.41603   93.52531   93.86008   210.197    209.6156   57.68384   172.4516   2.580268   0.003947846 0.0000173  1.009351   1.000409   -9999      0.04560103 7738.494  
8974       8.75       9.097244   8.642905   62.55266   0.04264912 53.492     93.88331   94.82941   210.1879   209.6451   63.54425   172.3085   2.579629   0.005445984 0.0000189  0.9990789  1.004638   -9999      0.04628389 7738.701  
8974.5     8.75       9.0974     8.664474   62.88498   0.04252522 53.46017   94.1934    95.60931   210.3436   209.7244   73.8121    172.094    2.579834   0.006619441 0.0000198  0.9786634  0.9999825  -9999      0.04664643 7738.908  
