~Version
 VERS              .         2.0                           : CWLS LOG ASCII STANDARD - VERSION 2.0
 WRAP              .         NO                            : ONE LINE PER DEPTH STEP
 DLM               .         SPACE                         : DELIMITING CHARACTER(SPACE TAB OR COMMA)
~Well Information
#_______________________________________________________________________________
#
#PARAMETER_NAME    .UNIT     VALUE                         : DESCRIPTION
#_______________________________________________________________________________
STRT               .ft       6000                          : First reference value
STOP               .ft       10942                         : Last reference value
STEP               .ft       0.5                           : Step increment
NULL               .         -9999                         : Missing value
COMP               .         University of Utah            : Company
WELL               .         Forge 16A(78)-32              : Well name
FLD                .         Wildcat                       : Field
LOC                .                                       : Location
CNTY               .         Beaver                        : County
STAT               .         Utah                          : State
CTRY               .         USA                           : Country
SRVC               .         Schlumberger                  : Service Company
DATE               .         26-Dec-2020                   : Date
UWI                .         0000000000                    : Unique Well ID
APD                .ft       32                            : Elevation of Depth Reference (LMF) Above Permanent Datum
API                .                                       : API NUMBER
BHS                .         OPEN                          : Borehole Status (Open or Cased Hole)
BHT                .degF     270                           : Bottom Hole Temperature
BLI                .ft       -999.25                       : Bottom Log Interval
BS                 .in       8.75                          : Bit Size
CBDR               .ft       5132                          : Casing Bottom of Driller
CBLO               .ft       5110                          : Logger Casing Shoe Depth
CSIZ               .in       9.625                         : Current Casing Size
CWEI               .lbm/ft   40                            : Casing Weight
DFD                .lbm/gal  9                             : Drilling Fluid Density
DFT                .         WBM                           : Drilling Fluid Type
DLAB               .         26-Dec-2020                   : Date Logger At Bottom
EDF                .ft       5434.5                        : Elevation of Drill Floor
EGL                .ft       5403.5                        : Elevation of Ground Level
EKB                .ft       5435.5                        : Elevation of Kelly Bushing
EPD                .ft       5403.5                        : Elevation of Permanent Datum (PDAT) above Mean Sea Level
GDAT               .                                       : Geodetic Datum
LMF                .         KB                            : Logging Measured From (Name of Logging Elevation Reference)
LUL                .         Fort Morgan, CO               : Logging Unit Location
LUN                .         2801                          : Logging Unit Number
LATI               .         38° 30' 14.447" N             : Latitude
LONG               .         112° 53' 47.066" W            : Longitude
MCST               .degF     68                            : Mudcake Sample Temperature
MFST               .degF     68                            : Mud Filtrate Sample Temperature
MRT                .degF     322                           : Maximum Recorded Temperature
MST                .degF     68                            : Mud Sample Temperature
ORIGINALWELLNAME   .         Forge 16A(78)-32              : 
PDAT               .         GL                            : Permanent Datum
PRODUCER-CODE      .         440                           : 
PRODUCER-NAME      .         Schlumberger                  : 
RMB                .ohm.m    0.05403042                    : Resistivity of Mud at Bottom Hole Temperature
RMCS               .ohm.m    -999.25                       : Resistivity of Mud Cake Sample
RMFS               .ohm.m    0.15                          : Resistivity of Mud Filtrate Sample
RMS                .ohm.m    0.2                           : Resistivity of Mud Sample
RUN                .         5B                            : Run Number
TDD                .ft       10987                         : Driller Total Depth
TDL                .ft       10987                         : Logger Total Depth
TLAB               .         17_37_17                      : Time Logger At Bottom
TLI                .ft       -999.25                       : Top Log Interval
~Parameter Information Block
#_______________________________________________________________________________
#
#PARAMETER_NAME    .UNIT     VALUE                         : DESCRIPTION
#_______________________________________________________________________________
SET                .         LQC_SonicFracture             : 
TLFamily_BS_RM     .         Bit Size                      : 
TLFamily_C1_13     .         Caliper                       : 
TLFamily_C1_24     .         Caliper                       : 
TLFamily_DEVI      .         Hole Deviation                : 
TLFamily_DPHI      .         Density Porosity              : 
TLFamily_DTCO_MPS_final .         Compressional Slowness        : 
TLFamily_DTSH_FAST_final .        Fast Shear Slowness           : 
TLFamily_DTSH_SLOW_final .        Slow Shear Slowness           : 
TLFamily_DTST_MLF_FA_R_4 .        Stoneley Slowness             : 
TLFamily_DTST_STM_2 .        Stoneley Slowness             : 
TLFamily_GR_TMG    .         Gamma Ray                     : 
TLFamily_MD        .         Measured Depth                : 
TLFamily_RB        .         Relative Bearing              : 
TLFamily_RHOB_model .        Bulk Density                  : 
TLFamily_STRC_DN_7 .         Reflection Coefficient        : 
TLFamily_STRC_DN_STM_6 .     Reflection Coefficient        : 
TLFamily_STTC_R_5  .         Transmission Coefficient      : 
TLFamily_STTC_R_STM_8 .      Transmission Coefficient      : 
TLFamily_TENS      .         Tension                       : 
TLFamily_TNPH      .         Thermal Neutron Porosity      : 
TLFamily_TVD       .         True Vertical Depth           : 
~Curve Information
#_______________________________________________________________________________
#
#LOGNAME           .UNIT     LOG_ID                        : DESCRIPTION
#_______________________________________________________________________________
MD                 .ft                                     : Measured Depth 
BS_RM              .in                                     : Bit Size 
C1_13              .in                                     : Caliper Section 1, Pads 1-3 
C1_24              .in                                     : Caliper Section 1, Pads 2-4 
DEVI               .deg                                    : Hole Deviation 
DPHI               .ft3/ft3                                : Density Porosity using sandstone matrix 
DTCO_MPS           .us/ft                                  : Compressional slowness 
DTSH_FAST          .us/ft                                  : Fast Shear Slowness 
DTSH_SLOW          .us/ft                                  : Slow Shear Slowness 
DTST               .us/ft                                  : Stoneley slowness 
DTST_STM_2         .us/ft                                  : Modeled Stoneley slowness computed from wavenumber at dominant frequency of source wavelet 
GR_TMG             .gAPI                                   : Gamma Ray 
RB                 .deg                                    : Relative Bearing 
RHOB_model         .g/cm3                                  : Bulk density (g/cc) 
STRC_DN_7          .unitless                               : Down-going reflection coefficient for Stoneley waveform 
STRC_DN_STM_6      .unitless                               : Down-going reflection coefficient for Modeled Stoneley waveform 
STTC_R_5           .unitless                               : Transmission coefficient for Stoneley waveform from receiver array 
STTC_R_STM_8       .unitless                               : Transmission coefficient for Modeled Stoneley waveform from receiver array 
TENS               .lbf                                    : Cable Tension 
TNPH               .ft3/ft3                                : Thermal Neutron Porosity (Ratio Method) in Selected Lithology 
TVD                .ft                                     : True Vertical Depth 
~Ascii
# ...
8625       8.75       9.096893   8.780306   64.82889   0.03433092 52.41946   93.06072   95.66889   210.7302   209.334    80.78648   176.5752   2.593354   0.002020997 0.0000163  1.058157   1.005067   -9999      0.0399312  7607.219  
8625.5     8.75       9.097066   8.780804   64.96478   0.03446357 52.43465   93.34      95.80676   211.1856   209.5711   79.12585   176.5752   2.593135   0.002414207 0.0000162  1.056869   1.009315   -9999      0.04160893 7607.414  
8626       8.75       9.09691    8.784281   64.89507   0.03466297 52.4627    93.62413   95.99312   211.1856   209.5687   83.69246   176.3419   2.592806   0.002247525 0.0000133  1.033792   1.004995   -9999      0.04289486 7607.609  
8626.5     8.75       9.096998   8.805784   64.42553   0.03489214 52.51138   93.63631   95.89826   211.2693   209.4621   86.30785   175.9932   2.592428   0.002703941 0.0000122  1.028872   1.011646   -9999      0.04152518 7607.805  
8627       8.75       9.097042   8.818751   64.93226   0.03558673 52.59231   93.79752   95.75727   210.8396   209.4268   99.96592   176.2175   2.591282   0.0027966  0.0000137  1.034227   1.008025   -9999      0.03978721 7608      
8627.5     8.75       9.097051   8.819102   65.5132    0.03639027 52.69947   94.33144   95.8359    210.9881   209.6561   106.3591   176.5752   2.589956   0.002664054 0.0000062  1.03689    1.013765   -9999      0.03781502 7608.195  
8628       8.75       9.096988   8.820403   64.74471   0.03760361 52.80011   94.9868    96.05359   211.3168   209.739    103.4532   176.2658   2.587954   0.001938071 0.0000070  1.03561    1.010224   -9999      0.03708107 7608.39   
8628.5     8.75       9.096932   8.824438   64.81163   0.03761936 52.86618   95.71177   96.35905   210.8605   209.4108   95.31635   176.1392   2.587928   0.001301627 0.0000068  1.02035    1.012097   -9999      0.03702872 7608.584  
8629       8.75       9.097057   8.806275   65.08403   0.03808724 52.91834   96.44698   96.93509   211.1483   209.7628   94.29926   176.2988   2.587156   0.001584469 0.0000073  1.020096   1.009255   -9999      0.03752714 7608.779  
8629.5     8.75       9.096906   8.783286   64.70928   0.03869643 52.95573   96.88975   97.65576   211.2141   209.7978   101.1284   176.0687   2.586151   0.002076006 0.0000079  1.019174   1.009102   -9999      0.03754139 7608.974  
8630       8.75       9.096806   8.758918   65.25497   0.03832551 52.96923   96.87601   98.06841   210.8788   209.937    91.8292    176.148    2.586763   0.003128881 0.0000078  1.009443   1.009554   -9999      0.03844705 7609.168  
8630.5     8.75       9.096754   8.744227   64.77292   0.03827884 53.01662   96.62263   98.14547   210.9596   210.0723   111.7836   176.0318   2.58684    0.002945971 0.0000174  1.015765   1.008701   -9999      0.03886413 7609.363  
8631       8.75       9.096792   8.746968   65.24282   0.03978116 53.12791   96.49165   98.26456   211.3916   210.3242   127.2823   175.933    2.584361   0.002790035 0.0000129  1.019498   1.011443   -9999      0.03959487 7609.557  
8631.5     8.75       9.096748   8.769567   65.02699   0.04092066 53.22281   96.47749   98.44366   211.2309   210.2626   101.5435   175.8753   2.582481   0.001832354 0.0000159  1.04044    1.012915   -9999      0.03990969 7609.751  
8632       8.75       9.096607   8.748312   64.98108   0.04043573 53.24454   96.34383   98.45453   210.8202   210.2844   83.40185   176.1496   2.583281   0.00186407 0.0000157  1.025783   1.011691   -9999      0.04024636 7609.946  
8632.5     8.75       9.096604   8.735683   65.19139   0.04051448 53.2245    96.2599    98.3932    211.3046   210.0694   80.3215    176.1866   2.583151   0.00141852 0.0000092  0.9914989  1.010617   -9999      0.04029771 7610.14   
8633       8.75       9.096561   8.722857   65.25166   0.04017578 53.17334   96.39349   98.30119   211.2163   210.2329   98.94882   176.1496   2.58371    0.001909326 0.0000146  1.002479   1.010609   -9999      0.03932095 7610.334  
8633.5     8.75       9.096465   8.721623   64.85648   0.03936603 53.0967    96.35893   97.91032   211.2163   210.2332   112.4617   176.1096   2.585046   0.001667082 0.0000260  1.017279   1.01165    -9999      0.0386272  7610.528  
8634       8.75       9.096457   8.741149   65.42081   0.03848301 53.05243   95.96107   97.22734   211.5606   210.0765   111.2994   176.3817   2.586503   0.001437822 0.0000306  1.029956   1.012967   -9999      0.03722918 7610.722  
8634.5     8.75       9.096635   8.797395   64.9512    0.03941574 53.07236   95.70174   96.6763    211.5606   210.0564   97.73804   176.3665   2.584964   0.00160165 0.0000353  1.007147   1.014894   -9999      0.0372596  7610.916  
8635       8.75       9.096627   8.790084   64.40437   0.03973088 53.08076   95.99036   96.82006   211.1848   210.2771   102.1939   176.4723   2.584444   0.001516931 0.0000349  1.013628   1.014053   -9999      0.03664032 7611.109  
8635.5     8.75       9.096747   8.780761   65.57306   0.03905146 53.00948   96.63801   97.74094   211.5193   210.1694   87.61555   176.5366   2.585565   0.001245359 0.0000379  1.013023   1.01012    -9999      0.03607427 7611.303  
8636       8.75       9.096842   8.721889   64.92999   0.03778119 52.87042   97.14259   98.67567   211.4588   209.9181   104.7317   176.6516   2.587661   0.001101283 0.0000388  1.000749   1.007413   -9999      0.03554551 7611.497  
8636.5     8.75       9.096773   8.714506   64.98501   0.03658607 52.69918   97.3019    99.09707   211.1324   210.0169   108.1027   176.7827   2.589633   0.001867492 0.0000367  0.9846543  1.001925   -9999      0.03566966 7611.69   
8637       8.75       9.096666   8.704581   65.13411   0.03500485 52.52174   97.34605   99.19494   210.8716   210.0594   92.99163   176.8474   2.592242   0.001818943 0.0000367  0.9998646  1.0046     -9999      0.03586788 7611.883  
8637.5     8.75       9.096732   8.723361   65.0907    0.033734   52.37856   97.35383   98.98991   211.3338   210.377    95.02576   176.4187   2.594339   0.001948522 0.0000319  1.033727   1.004411   -9999      0.03613328 7612.077  
8638       8.75       9.096674   8.743035   65.39198   0.03328606 52.29803   97.03197   98.26544   211.0947   210.2879   90.08556   176.7308   2.595078   0.002664231 0.0000277  1.031236   1.006099   -9999      0.03573468 7612.27   
8638.5     8.75       9.096838   8.773589   64.15634   0.03325514 52.25409   96.40173   97.38289   211.0947   210.2715   103.3369   176.6536   2.595129   0.002718574 0.0000282  1.035294   1.007441   -9999      0.03576837 7612.463  
8639       8.75       9.096903   8.806842   64.81412   0.03297872 52.17787   96.0123    96.75267   211.0178   210.3035   94.58988   176.498    2.595585   0.001861764 0.0000175  1.029203   1.009034   -9999      0.03577498 7612.656  
8639.5     8.75       9.096914   8.809953   65.72003   0.03199153 51.97985   95.66904   96.07579   211.0852   210.3167   107.6184   176.7827   2.597214   0.002180108 0.0000135  1.035275   1.007332   -9999      0.03703231 7612.849  
8640       8.75       9.096817   8.811395   64.41016   0.0288824  51.58682   94.4678    95.01705   210.96     210.0094   100.7797   176.8601   2.602344   0.0022262  0.0000124  1.083295   1.004942   -9999      0.03953264 7613.042  
8640.5     8.75       9.096951   8.810913   65.91491   0.0240636  51.00792   92.06879   93.92559   210.96     209.9857   123.5044   176.8864   2.610295   0.002381349 0.0000060  1.091102   1.003495   -9999      0.04182284 7613.234  
8641       8.75       9.09675    8.81058    64.42751   0.01809765 50.34492   89.09671   93.41798   211.0556   210.0424   165.6413   177.3123   2.620139   0.002653187 0.0000118  1.13807    1.002982   -9999      0.04442814 7613.427  
8641.5     8.75       9.096794   8.803074   65.02911   0.01284666 49.75537   86.62903   93.84726   211.4269   209.8546   165.5251   177.1977   2.628803   0.003375847 0.0000079  1.139647   1.003519   -9999      0.04662466 7613.62   
8642       8.75       9.096896   8.788398   66.43409   0.009191484 49.40965   85.90958   95.57071   211.5513   209.2772   165.2537   177.5072   2.634834   0.003973342 0.0000060  1.099768   1.002094   -9999      0.04876671 7613.812  
