~Version
 VERS              .         3.0                           : CWLS LOG ASCII STANDARD - VERSION 3.0
 WRAP              .         NO                            : ONE LINE PER DEPTH STEP
 DLM               .         SPACE                         : DELIMITING CHARACTER(SPACE TAB OR COMMA)
~Well Information
#_______________________________________________________________________________
#
#PARAMETER_NAME    .UNIT     VALUE                         : DESCRIPTION
#_______________________________________________________________________________
STRT               .ft       5000                          : First reference value
STOP               .ft       6000                          : Last reference value
STEP               .ft       0.5                           : Step increment
NULL               .         -9999                         : Missing value
COMP               .         University of Utah            : Company
WELL               .         Forge 16A(78)-32              : Well name
FLD                .         Wildcat                       : Field
LOC                .                                       : Location
SRVC               .         Schlumberger                  : Service Company
CTRY               .         US                            : Country
STAT               .         Utah                          : State
CNTY               .         Beaver                        : County
API                .                                       : API NUMBER
DATE               .         26-Dec-2020                   : Service Date
LATI               .         38° 30' 14.447" N             : Latitude
LONG               .         112° 53' 47.066" W            : Longitude
GDAT               .                                       : Geodetic Datum
APD                .ft       32                            : Elevation of Depth Reference (LMF) Above Permanent Datum
BHS                .         OPEN                          : Borehole Status (Open or Cased Hole)
BHT                .degF     270                           : Bottom Hole Temperature
BLI                .ft       -999.25                       : Bottom Log Interval
BS                 .in       8.75                          : Bit Size
CBDR               .ft       5132                          : Casing Bottom of Driller
CBLO               .ft       5110                          : Logger Casing Shoe Depth
CSIZ               .in       9.625                         : Current Casing Size
CWEI               .lbm/ft   40                            : Casing Weight
COUNTRY            .         USA                           : Country
DFD                .lbm/gal  9                             : Drilling Fluid Density
DFT                .         WBM                           : Drilling Fluid Type
DLAB               .         26-Dec-2020                   : Date Logger At Bottom
EDF                .ft       5434.5                        : Elevation of Drill Floor
EGL                .ft       5403.5                        : Elevation of Ground Level
EKB                .ft       5435.5                        : Elevation of Kelly Bushing
EPD                .ft       5403.5                        : Elevation of Permanent Datum (PDAT) above Mean Sea Level
LMF                .         KB                            : Logging Measured From (Name of Logging Elevation Reference)
LUL                .         Fort Morgan, CO               : Logging Unit Location
LUN                .         2801                          : Logging Unit Number
MCST               .degF     68                            : Mudcake Sample Temperature
MFST               .degF     68                            : Mud Filtrate Sample Temperature
MRT                .degF     322                           : Maximum Recorded Temperature
MST                .degF     68                            : Mud Sample Temperature
ORIGINALWELLNAME   .         Forge 16A(78)-32              : 
PDAT               .         GL                            : Permanent Datum
PRODUCER-CODE      .         440                           : 
PRODUCER-NAME      .         Schlumberger                  : 
RMB                .ohm.m    0.05403042                    : Resistivity of Mud at Bottom Hole Temperature
RMCS               .ohm.m    -999.25                       : Resistivity of Mud Cake Sample
RMFS               .ohm.m    0.15                          : Resistivity of Mud Filtrate Sample
RMS                .ohm.m    0.2                           : Resistivity of Mud Sample
RUN                .         5B                            : Run Number
TDD                .ft       10987                         : Driller Total Depth
TDL                .ft       10987                         : Logger Total Depth
TLAB               .         17_37_17                      : Time Logger At Bottom
TLI                .ft       -999.25                       : Top Log Interval
UWI                .         0000000000                    : UNIQUE WELL ID
~Parameter Information Block
#_______________________________________________________________________________
#
#PARAMETER_NAME    .UNIT     VALUE                         : DESCRIPTION
#_______________________________________________________________________________
SET                .         ThruBitDP_Aniso_5000ft-6000ft : 
TLFamily_BS_RM     .         Bit Size                      : 
TLFamily_C1_13     .         Caliper                       : 
TLFamily_C1_24     .         Caliper                       : 
TLFamily_DEVI      .         Hole Deviation                : 
TLFamily_DPHI      .         Density Porosity              : 
TLFamily_DTCO_MPS_final .    Compressional Slowness        : 
TLFamily_DTSH_FAST .         Fast Shear Slowness           : 
TLFamily_DTSH_SLOW .         Slow Shear Slowness           : 
TLFamily_FSA_TOH_REF0_ERRMINUS .        Fast Shear Azimuth            : 
TLFamily_FSA_TOH_REF0_ERRPLUS .         Fast Shear Azimuth            : 
TLFamily_FSA_TOH_REF0_OVERALL .         Fast Shear Azimuth            : 
TLFamily_GR_TMG    .         Gamma Ray                     : 
TLFamily_MAXXENE_OVERALL .   Acoustic Energy               : 
TLFamily_MINXENE_OVERALL .   Acoustic Energy               : 
TLFamily_PR_FAST   .         Poisson Ratio (Dynamic)       : 
TLFamily_RB_TBDS   .         Relative Bearing              : 
TLFamily_SENSOR_AZIM_QCI .   Sensor Azimuth                : 
TLFamily_SLOANI    .         Acoustic Anisotropy           : 
TLFamily_TDEP      .         Measured Depth                : 
TLFamily_TIMANI    .         Acoustic Anisotropy           : 
TLFamily_TNPH      .         Thermal Neutron Porosity      : 
TLFamily_TW_B_L10  .         Travel Time                   : 
TLFamily_TW_E_L10  .         Travel Time                   : 
TLFamily_VPVS_FAST .         VpVs (Compressional To Shear) Ratio: 
~Curve Information
#_______________________________________________________________________________
#
#LOGNAME           .UNIT     LOG_ID                        : DESCRIPTION
#_______________________________________________________________________________
TDEP               .ft                                     : Measured Depth {F}
BS_RM              .in                                     : Bit Size {F}
C1_13              .in                                     : Caliper Section 1, Pads 1-3 {F}
C1_24              .in                                     : Caliper Section 1, Pads 2-4 {F}
DEVI               .deg                                    : Hole Deviation {F}
DPHI               .ft3/ft3                                : Density Porosity {F}
DTCO_MPS_final     .us/ft                                  : Compressional slowness {F}
DTSH_FAST          .us/ft                                  : Fast Shear Slowness {F}
DTSH_SLOW          .us/ft                                  : Slow Shear Slowness {F}
FSA_TOH_REF0_ERRMINUS .deg                                 : Fast shear azimuth error minus(TOH REF0) - swapped {F}
FSA_TOH_REF0_ERRPLUS .deg                                  : Fast shear azimuth error plus(TOH REF0) - swapped {F}
FSA_TOH_REF0_OVERALL .deg                                  : Fast shear azimuth(TOH REF0) - overall - swapped {F}
GR_TMG             .gAPI                                   : Gamma Ray {F}
MAXXENE_OVERALL    .%                                      : Maximum cross energy - overall {F}
MINXENE_OVERALL    .%                                      : Minimum cross energy - overall {F}
PR_FAST            .unitless                               : Possion's Ratio {F}
RB_TBDS            .deg                                    : TBDS Relatvie Bearing 6inch {F}
SENSOR_AZIM_QCI    .deg                                    : Tool azimuth for input QC {F}
SLOANI             .unitless                               : Slowness-based anisotropy {F}
TIMANI             .unitless                               : Time-based anisotropy {F}
TNPH               .ft3/ft3                                : Thermal Neutron Porosity (Ratio Method) in Selected Lithology {F}
TW_B_L10           .us                                     : Time window begin - packed {F}
TW_E_L10           .us                                     : Time window end - packed {F}
VPVS_FAST          .unitless                               : VpVs Ratio {F}
~Ascii
# ...
5201.5     8.75       9.339602   9.511371   1.450954   0.03641816 52.8185    99.44103   102.1031   -9.898445  9.908913   0.005233765 243.4055   8.320816   3.883102   0.3035003  94.50788   92.55391   0.02641676 -0.3153211 0.06410381 1070.222   2320.222   1.882693  
5202       8.75       9.339627   9.511454   1.536709   0.0358854  52.69207   99.27459   104.1208   -7.528069  10.40469   1.438309   277.0859   8.348804   3.608653   0.3038948  94.50788   93.11851   0.04765321 -0.3129444 0.06210044 1071.207   2321.207   1.884052  
5202.5     8.75       9.339621   9.511427   1.559333   0.03620243 52.73068   98.63473   105.8499   -5.181412  11.70576   3.262177   234.0288   8.318021   3.350809   0.2999128  94.50788   93.7485    0.0705694  -0.3106968 0.06471299 1071.774   2321.773   1.870538  
5203       8.75       9.339651   9.511375   1.484627   0.03787945 52.85641   97.68913   106.6581   -3.970345  13.64898   4.839317   203.4192   8.092226   3.388514   0.2930324  94.50788   94.34871   0.08778218 -0.3077318 0.06654485 1072.067   2322.067   1.848198  
5203.5     8.75       9.339663   9.511384   1.394877   0.03875756 52.96845   97.10612   106.771    -2.516708  15.21875   6.351021   189.6641   8.025408   3.434882   0.2882185  94.50788   94.8448    0.0948109  -0.3053862 0.06885298 1072.327   2322.327   1.833282  
5204       8.75       9.339619   9.511377   1.546215   0.03908426 53.01452   97.32021   106.5224   -2.574051  17.94019   7.683067   173.778    7.724166   3.594079   0.2890202  94.50788   95.19171   0.0902869  -0.3041825 0.06921839 1072.587   2322.587   1.835727  
5204.5     8.75       9.339649   9.511433   1.312693   0.03874975 53.00768   98.2578    105.7876   -2.874016  20.69292   8.909454   184.1234   7.385057   3.771225   0.2947477  94.50788   95.37477   0.07380544 -0.3033991 0.06692174 1072.873   2322.873   1.853652  
5205       8.75       9.339599   9.511384   1.538805   0.0385031  52.99146   99.35572   104.6107   -1.742371  24.62605   11.44184   179.0087   7.1015     3.922917   0.301224   94.50788   95.40701   0.0515282  -0.3015587 0.06140133 1073.294   2323.294   1.874938  
5205.5     8.75       9.33964    9.511451   1.654183   0.03866609 52.98647   100.0925   103.3732   1.32415    29.45679   15.39047   178.137    6.916684   3.962446   0.3053258  94.50788   95.3233    0.03224887 -0.2990662 0.05736114 1073.942   2323.942   1.889019  
5206       8.75       9.339622   9.511465   1.552941   0.03866725 52.96579   100.6059   102.3726   5.964516   34.74804   20.35628   168.9832   6.914331   4.015345   0.3082756  94.50788   95.18156   0.01740837 -0.2962609 0.05530785 1075.025   2325.025   1.89945   
5206.5     8.75       9.33967    9.511503   1.552118   0.03831872 52.88287   101.138    101.8471   10.52892   37.93499   24.23196   178.0789   7.298211   3.992537   0.311862   94.50788   94.99942   0.006986481 -0.2939005 0.05254021 1076.488   2326.488   1.912491  
5207       8.75       9.339661   9.511377   1.622952   0.03670239 52.71988   101.7503   101.9332   13.69894   40.31073   27.00484   174.5045   7.683733   3.894285   0.3165115  94.50788   94.83566   0.001796443 -0.2923464 0.04943463 1078.262   2328.262   1.930017  
5207.5     8.75       9.339595   9.511327   1.487759   0.03513461 52.5197    102.2942   102.3201   16.45154   41.06096   28.75625   165.7576   8.147675   3.722424   0.321023   94.50788   94.70766   0.0002526547 -0.2913269 0.0486323  1080.003   2330.003   1.947731  
5208       8.75       9.339652   9.511454   1.547641   0.03319763 52.36946   102.5112   102.5145   17.7832    41.15407   29.46864   191.2139   8.520897   3.685679   0.3234251  94.50788   94.61916   0.0000318  -0.2905387 0.0487801  1081.306   2331.306   1.957462  
5208.5     8.75       9.339693   9.5114     1.662821   0.03327451 52.3742    102.493    102.519    18.47102   41.20238   29.8367    193.6841   8.677296   3.623802   0.3232968  94.50788   94.56454   0.0002535044 -0.2898371 0.04900508 1082.165   2332.165   1.956937  
5209       8.75       9.339665   9.511473   1.471507   0.0348248  52.56567   102.4304   102.5981   19.53949   41.0808    30.31014   185.1114   8.741457   3.519938   0.321244   94.50788   94.53424   0.001635962 -0.2895354 0.04727055 1082.453   2332.453   1.948617  
5209.5     8.75       9.339634   9.511476   1.449316   0.03819821 52.84575   102.1577   102.7441   19.09423   40.11134   29.60278   195.8634   8.865266   3.532894   0.3173175  94.50788   94.5191    0.005723896 -0.2889379 0.04682327 1082.026   2332.026   1.933129  
5210       8.75       9.339672   9.511419   1.70585    0.03985023 53.03142   101.3423   102.6971   18.34588   39.4562    28.90104   178.2823   8.990912   3.578594   0.3114536  94.50788   94.50788   0.01327961 -0.2882976 0.0452998  1081.057   2331.057   1.910986  
5210.5     8.75       9.339683   9.511556   1.296749   0.03933641 53.03738   100.1219   102.4315   16.59805   38.74597   27.67201   170.1747   9.048249   3.779421   0.3049649  94.50788   94.50788   0.02280516 -0.2875078 0.04568628 1079.993   2329.993   1.887761  
5211       8.75       9.339663   9.511443   1.547542   0.03847882 52.89674   99.18781   102.185    14.91619   38.11264   26.51442   167.2879   9.091314   3.927632   0.3012782  94.50788   94.50788   0.02976797 -0.2867053 0.04470619 1079.064   2329.064   1.875121  
5211.5     8.75       9.339705   9.511486   1.484931   0.03625691 52.65482   99.06113   102.1406   12.03779   36.97932   24.50855   179.0089   8.896139   4.03295    0.3031034  94.50788   94.50788   0.03061045 -0.2862109 0.04503709 1078.348   2328.348   1.88133   
5212       8.75       9.339652   9.511673   1.509835   0.03374296 52.40644   99.44525   102.3513   8.815468   35.71209   22.26378   184.0071   8.462087   4.105066   0.3077514  94.50788   94.50788   0.0288015  -0.2861189 0.04445633 1077.753   2327.752   1.897577  
5212.5     8.75       9.339688   9.511449   1.39081    0.03209946 52.29601   99.71589   102.6087   5.287209   32.55904   18.92313   187.872    8.079393   4.081896   0.3102993  94.50788   94.50788   0.02859548 -0.2860737 0.04440352 1076.835   2326.835   1.906759  
5213       8.75       9.339665   9.511642   1.477767   0.03461211 52.32849   99.65481   102.3804   2.003799   28.92017   15.46198   193.1514   7.698416   3.950024   0.3096522  94.44834   94.5078    0.02698107 -0.2865922 0.04451499 1075.384   2325.384   1.904408  
5213.5     8.75       9.33964    9.511486   1.486692   0.03377215 52.3448    99.08394   101.3412   -0.7823715 24.47961   11.84862   195.2824   7.449088   3.729056   0.3064344  94.50788   94.5077    0.0225252  -0.2877132 0.04339765 1073.26    2323.26    1.892909  
5214       8.75       9.339664   9.511632   1.430532   0.033557   52.31802   97.74099   99.79052   -2.44017   20.81728   9.188553   189.9546   7.29089    3.599188   0.2992133  111.4074   94.52966   0.02075142 -0.2896809 0.04275027 1070.321   2320.321   1.868209  
5214.5     8.75       9.339656   9.511696   1.470192   0.03372967 52.26859   95.92049   98.58772   -3.389977  17.73775   7.173889   220.4677   7.341197   3.560254   0.28883    94.50788   94.55925   0.02742536 -0.2917609 0.04265033 1066.791   2316.791   1.835146  
5215       8.75       9.339659   9.511473   1.556846   0.03218067 52.20314   94.39155   98.40018   -6.042458  15.42757   4.692558   266.2853   7.281135   3.752871   0.279681   94.50788   94.61858   0.04158507 -0.293034  0.0425384  1062.857   2312.857   1.808158  
5215.5     8.75       9.339638   9.511459   1.4465     0.03254971 52.18616   93.54027   98.99557   -8.678513  14.87254   3.097015   258.1969   7.035074   3.887326   0.274044   94.50788   94.72581   0.05666789 -0.2955815 0.04309227 1058.655   2308.655   1.792434  
5216       8.75       9.339696   9.511359   1.404635   0.03262543 52.24121   93.29841   99.50468   -11.39795  15.02893   1.815491   248.7526   6.712118   4.09066    0.2716369  94.50788   94.89991   0.06437935 -0.2990134 0.04255818 1054.325   2304.325   1.785916  
5216.5     8.75       9.339639   9.511558   1.426309   0.03388298 52.36153   93.5343    99.33237   -14.66784  14.66834   0.00025177 234.8037   6.473124   4.298526   0.2717863  94.50788   95.15235   0.06012519 -0.3010994 0.04248286 1049.948   2299.948   1.786317  
