~Version
 VERS              .         3.0                           : CWLS LOG ASCII STANDARD - VERSION 3.0
 WRAP              .         NO                            : ONE LINE PER DEPTH STEP
 DLM               .         SPACE                         : DELIMITING CHARACTER(SPACE TAB OR COMMA)
~Well Information
#_______________________________________________________________________________
#
#PARAMETER_NAME    .UNIT     VALUE                         : DESCRIPTION
#_______________________________________________________________________________
STRT               .ft       5000                          : First reference value
STOP               .ft       6000                          : Last reference value
STEP               .ft       0.5                           : Step increment
NULL               .         -9999                         : Missing value
COMP               .         University of Utah            : Company
WELL               .         Forge 16A(78)-32              : Well name
FLD                .         Wildcat                       : Field
LOC                .                                       : Location
SRVC               .         Schlumberger                  : Service Company
CTRY               .         US                            : Country
STAT               .         Utah                          : State
CNTY               .         Beaver                        : County
API                .                                       : API NUMBER
DATE               .         26-Dec-2020                   : Service Date
LATI               .         38° 30' 14.447" N             : Latitude
LONG               .         112° 53' 47.066" W            : Longitude
GDAT               .                                       : Geodetic Datum
APD                .ft       32                            : Elevation of Depth Reference (LMF) Above Permanent Datum
BHS                .         OPEN                          : Borehole Status (Open or Cased Hole)
BHT                .degF     270                           : Bottom Hole Temperature
BLI                .ft       -999.25                       : Bottom Log Interval
BS                 .in       8.75                          : Bit Size
CBDR               .ft       5132                          : Casing Bottom of Driller
CBLO               .ft       5110                          : Logger Casing Shoe Depth
CSIZ               .in       9.625                         : Current Casing Size
CWEI               .lbm/ft   40                            : Casing Weight
COUNTRY            .         USA                           : Country
DFD                .lbm/gal  9                             : Drilling Fluid Density
DFT                .         WBM                           : Drilling Fluid Type
DLAB               .         26-Dec-2020                   : Date Logger At Bottom
EDF                .ft       5434.5                        : Elevation of Drill Floor
EGL                .ft       5403.5                        : Elevation of Ground Level
EKB                .ft       5435.5                        : Elevation of Kelly Bushing
EPD                .ft       5403.5                        : Elevation of Permanent Datum (PDAT) above Mean Sea Level
LMF                .         KB                            : Logging Measured From (Name of Logging Elevation Reference)
LUL                .         Fort Morgan, CO               : Logging Unit Location
LUN                .         2801                          : Logging Unit Number
MCST               .degF     68                            : Mudcake Sample Temperature
MFST               .degF     68                            : Mud Filtrate Sample Temperature
MRT                .degF     322                           : Maximum Recorded Temperature
MST                .degF     68                            : Mud Sample Temperature
ORIGINALWELLNAME   .         Forge 16A(78)-32              : 
PDAT               .         GL                            : Permanent Datum
PRODUCER-CODE      .         440                           : 
PRODUCER-NAME      .         Schlumberger                  : 
RMB                .ohm.m    0.05403042                    : Resistivity of Mud at Bottom Hole Temperature
RMCS               .ohm.m    -999.25                       : Resistivity of Mud Cake Sample
RMFS               .ohm.m    0.15                          : Resistivity of Mud Filtrate Sample
RMS                .ohm.m    0.2                           : Resistivity of Mud Sample
RUN                .         5B                            : Run Number
TDD                .ft       10987                         : Driller Total Depth
TDL                .ft       10987                         : Logger Total Depth
TLAB               .         17_37_17                      : Time Logger At Bottom
TLI                .ft       -999.25                       : Top Log Interval
UWI                .         0000000000                    : UNIQUE WELL ID
~Parameter Information Block
#_______________________________________________________________________________
#
#PARAMETER_NAME    .UNIT     VALUE                         : DESCRIPTION
#_______________________________________________________________________________
SET                .         ThruBitDP_Aniso_5000ft-6000ft : 
TLFamily_BS_RM     .         Bit Size                      : 
TLFamily_C1_13     .         Caliper                       : 
TLFamily_C1_24     .         Caliper                       : 
TLFamily_DEVI      .         Hole Deviation                : 
TLFamily_DPHI      .         Density Porosity              : 
TLFamily_DTCO_MPS_final .    Compressional Slowness        : 
TLFamily_DTSH_FAST .         Fast Shear Slowness           : 
TLFamily_DTSH_SLOW .         Slow Shear Slowness           : 
TLFamily_FSA_TOH_REF0_ERRMINUS .        Fast Shear Azimuth            : 
TLFamily_FSA_TOH_REF0_ERRPLUS .         Fast Shear Azimuth            : 
TLFamily_FSA_TOH_REF0_OVERALL .         Fast Shear Azimuth            : 
TLFamily_GR_TMG    .         Gamma Ray                     : 
TLFamily_MAXXENE_OVERALL .   Acoustic Energy               : 
TLFamily_MINXENE_OVERALL .   Acoustic Energy               : 
TLFamily_PR_FAST   .         Poisson Ratio (Dynamic)       : 
TLFamily_RB_TBDS   .         Relative Bearing              : 
TLFamily_SENSOR_AZIM_QCI .   Sensor Azimuth                : 
TLFamily_SLOANI    .         Acoustic Anisotropy           : 
TLFamily_TDEP      .         Measured Depth                : 
TLFamily_TIMANI    .         Acoustic Anisotropy           : 
TLFamily_TNPH      .         Thermal Neutron Porosity      : 
TLFamily_TW_B_L10  .         Travel Time                   : 
TLFamily_TW_E_L10  .         Travel Time                   : 
TLFamily_VPVS_FAST .         VpVs (Compressional To Shear) Ratio: 
~Curve Information
#_______________________________________________________________________________
#
#LOGNAME           .UNIT     LOG_ID                        : DESCRIPTION
#_______________________________________________________________________________
TDEP               .ft                                     : Measured Depth {F}
BS_RM              .in                                     : Bit Size {F}
C1_13              .in                                     : Caliper Section 1, Pads 1-3 {F}
C1_24              .in                                     : Caliper Section 1, Pads 2-4 {F}
DEVI               .deg                                    : Hole Deviation {F}
DPHI               .ft3/ft3                                : Density Porosity {F}
DTCO_MPS_final     .us/ft                                  : Compressional slowness {F}
DTSH_FAST          .us/ft                                  : Fast Shear Slowness {F}
DTSH_SLOW          .us/ft                                  : Slow Shear Slowness {F}
FSA_TOH_REF0_ERRMINUS .deg                                 : Fast shear azimuth error minus(TOH REF0) - swapped {F}
FSA_TOH_REF0_ERRPLUS .deg                                  : Fast shear azimuth error plus(TOH REF0) - swapped {F}
FSA_TOH_REF0_OVERALL .deg                                  : Fast shear azimuth(TOH REF0) - overall - swapped {F}
GR_TMG             .gAPI                                   : Gamma Ray {F}
MAXXENE_OVERALL    .%                                      : Maximum cross energy - overall {F}
MINXENE_OVERALL    .%                                      : Minimum cross energy - overall {F}
PR_FAST            .unitless                               : Possion's Ratio {F}
RB_TBDS            .deg                                    : TBDS Relatvie Bearing 6inch {F}
SENSOR_AZIM_QCI    .deg                                    : Tool azimuth for input QC {F}
SLOANI             .unitless                               : Slowness-based anisotropy {F}
TIMANI             .unitless                               : Time-based anisotropy {F}
TNPH               .ft3/ft3                                : Thermal Neutron Porosity (Ratio Method) in Selected Lithology {F}
TW_B_L10           .us                                     : Time window begin - packed {F}
TW_E_L10           .us                                     : Time window end - packed {F}
VPVS_FAST          .unitless                               : VpVs Ratio {F}
~Ascii
# ...
5325.5     8.75       9.290038   8.872138   0.7200907  0.04618176 54.00026   96.27083   96.93994   84.93045   93.35004   89.14024   172.543    11.25951   2.434134   0.2704654  94.50788   81.38005   0.006926251 0.02437559 0.05217622 1066.688   2316.688   1.782785  
5326       8.75       9.290089   8.873168   0.7785507  0.04445518 53.74906   95.89044   96.38203   85.17397   92.32639   88.75018   208.6856   11.80722   2.508129   0.270936   83.55749   82.18874   0.005113497 0.02519334 0.05352199 1067.472   2317.472   1.784039  
5326.5     8.75       9.290049   8.87415    0.7633839  0.04211883 53.44403   95.55125   96.26385   84.68215   92.06567   88.37391   201.2396   12.06712   2.561374   0.2723649  94.50788   82.92628   0.007430159 0.02561117 0.0559045  1067.982   2317.982   1.787875  
5327       8.75       9.290001   8.87431    0.8212524  0.0391503  53.14849   95.17616   96.67858   84.23963   91.96241   88.10102   194.6042   12.08619   2.600219   0.2734296  72.60683   83.63424   0.01566212 0.02588147 0.05660341 1067.534   2317.534   1.790759  
5327.5     8.75       9.289971   8.873249   0.7255517  0.03789882 52.95461   95.01483   97.3624    84.12859   92.24186   88.18523   210.5098   11.52844   2.590625   0.2747141  72.60683   84.30175   0.02440585 0.02526102 0.05527959 1066.718   2316.718   1.794269  
5328       8.75       9.290005   8.871016   0.7179884  0.03768669 52.87033   95.34171   98.2313    83.22675   92.54184   87.88429   229.5729   10.87962   2.635375   0.2779687  94.50788   84.94032   0.02985527 0.02444549 0.05081439 1065.668   2315.668   1.803312  
5328.5     8.75       9.290014   8.869861   0.6169428  0.03711883 52.8646    95.99749   99.30849   81.97272   92.41234   87.19253   239.2595   10.31913   2.685994   0.2823757  94.50788   85.47873   0.03390582 0.02347635 0.04914264 1064.239   2314.239   1.815912  
5329       8.75       9.289993   8.875995   0.5512638  0.03852492 52.91898   96.54449   100.4211   80.70708   91.21654   85.96181   241.972    9.864637   2.623432   0.2852578  72.60683   85.84821   0.03936301 0.02286899 0.04729285 1062.572   2312.572   1.824383  
5329.5     8.75       9.290035   8.913426   0.6934429  0.03784969 53.03056   96.91175   101.2265   78.85542   89.76276   84.30909   270.6055   9.037349   2.520148   0.2862925  94.50788   86.05521   0.04355285 0.02161315 0.04809334 1060.826   2310.826   1.82747   
5330       8.75       9.29013    8.901592   0.7040972  0.04063759 53.24037   97.23918   101.6335   77.52596   88.6031    83.06453   264.0573   8.511253   2.424417   0.2859409  72.60683   86.06144   0.04419249 0.02068431 0.04710792 1059.092   2309.092   1.826418  
5330.5     8.75       9.290473   8.88389    0.6478221  0.04258006 53.4656    97.34866   102.041    76.89808   87.52587   82.21198   243.9093   8.127036   2.245345   0.2840369  106.4302   85.9247    0.04706686 0.02000707 0.04728882 1057.644   2307.644   1.820772  
5331       8.75       9.292192   8.879707   0.8547797  0.04351451 53.60172   96.90331   102.5979   76.09321   86.61962   81.35641   254.4676   7.602894   2.043241   0.2795691  72.60709   85.66751   0.05708833 0.02137356 0.04681251 1056.785   2306.785   1.80784   
5331.5     8.75       9.29283    8.8811     0.8275478  0.04371753 53.63066   96.20979   103.0998   75.04883   85.19757   80.1232    255.7112   7.055695   1.802633   0.2745913  72.60709   85.35659   0.06913882 0.02024803 0.04769251 1056.624   2306.624   1.793932  
5332       8.75       9.295095   8.883066   0.7334412  0.0429491  53.58284   95.86628   103.5663   74.46531   84.74845   79.60688   273.3954   6.712353   1.685832   0.2728264  72.60681   85.10398   0.0772192  0.01969564 0.04793924 1057.13    2307.13    1.789123  
5332.5     8.75       9.297085   8.88316    0.6081533  0.04251156 53.49909   95.93279   104.1637   74.53328   84.66797   79.60062   265.2197   6.661186   1.616133   0.274312   72.60678   84.87199   0.08226927 0.01962177 0.0488051  1058.219   2308.219   1.793167  
5333       8.75       9.297132   8.883117   0.7751102  0.04182665 53.36581   96.23132   104.9694   74.38366   84.29171   79.33768   253.0145   6.871609   1.564416   0.2779428  106.4302   84.70525   0.08685914 0.02005841 0.0496546  1059.814   2309.814   1.803239  
5333.5     8.75       9.297184   8.882358   0.6992171  0.0401976  53.14047   96.6509    105.7124   74.76361   84.18124   79.47243   201.9662   6.983141   1.550924   0.2833591  72.60683   84.53017   0.0895569  0.01767224 0.04799096 1061.644   2311.644   1.818781  
5334       8.75       9.29717    8.880497   0.7851088  0.03734727 52.83967   97.14175   105.866    75.04735   84.02005   79.5337    177.8465   7.096311   1.538072   0.2898988  72.60683   84.26633   0.08594979 0.01757651 0.04583792 1063.347   2313.347   1.838425  
5334.5     8.75       9.297199   8.885309   0.6677266  0.03520671 52.54131   97.59119   105.3809   74.06064   83.60582   78.83323   164.1301   7.152183   1.568335   0.2959185  72.60683   83.83701   0.07675648 0.01746796 0.04412437 1064.885   2314.885   1.857418  
5335       8.75       9.297167   8.890366   0.9333749  0.03258786 52.34383   97.76257   104.5797   72.46192   83.1639    77.81291   184.6755   7.199802   1.623181   0.2990598  72.60678   83.19833   0.06738188 0.01724236 0.04593725 1066.38    2316.38    1.8677    
5335.5     8.75       9.297173   8.895613   0.5394141  0.03343027 52.32207   97.31513   103.6602   70.50018   82.42018   76.46018   185.5474   7.306621   1.698087   0.2966919  72.60683   82.41253   0.0631427  0.01723002 0.04642686 1067.775   2317.775   1.859925  
5336       8.75       9.297201   8.891966   0.702034   0.03412963 52.43348   96.07384   103.1075   68.48863   81.36679   74.92771   204.0003   7.406648   1.755985   0.2878949  94.50788   81.56651   0.07062518 0.01715702 0.04741359 1069.426   2319.426   1.8323    
5336.5     8.75       9.297152   8.889575   0.642287   0.03571692 52.62278   94.5435    103.5436   66.30291   79.92933   73.11612   193.2482   7.715155   1.837657   0.2755703  72.60683   80.7351    0.0908699  0.01745082 0.04731217 1070.481   2320.481   1.796627  
5337       8.75       9.297138   8.891741   0.756847   0.03780793 52.83797   93.41171   104.6442   63.74697   78.67889   71.21293   162.9291   8.124733   2.021797   0.2647539  72.60681   79.97166   0.1134279  0.01815189 0.05181193 1070.915   2320.915   1.76789   
5337.5     8.75       9.297106   8.890138   0.812143   0.0390818  53.0163    92.831     105.382    61.10551   77.36679   69.23615   123.3591   8.332559   2.2229     0.2579823  72.60683   79.31179   0.1266413  0.01843395 0.05521736 1070.923   2320.923   1.75099   
5338       8.75       9.297205   8.893295   0.8702434  0.03954723 53.17355   92.81958   105.4277   58.21719   74.78711   66.50215   73.66678   8.524695   2.321672   0.2557531  72.60683   78.71568   0.127196   0.01860784 0.05857792 1070.285   2320.285   1.745597  
5338.5     8.75       9.297203   8.888315   0.5405167  0.04136369 53.37097   93.40645   104.9899   55.05168   72.05756   63.55462   74.24801   8.704894   2.4344     0.2576317  72.60709   78.15391   0.116771   0.0188722  0.05603473 1068.813   2318.813   1.750136  
5339       8.75       9.297771   8.887727   0.8052528  0.04320601 53.60001   94.23331   103.9658   52.54869   69.08426   60.81647   69.54993   8.960554   2.442634   0.2608638  72.60683   77.64169   0.09820915 0.01957014 0.05842644 1066.791   2316.791   1.758084  
5339.5     8.75       9.298709   8.88758    0.7523552  0.04463883 53.82932   94.97881   102.2794   50.73983   66.04649   58.39316   74.68388   9.289294   2.352479   0.2633989  72.60683   77.193     0.07402087 0.0203385  0.06093771 1064.636   2314.636   1.764444  
5340       8.75       9.298752   8.88052    0.6469842  0.0468739  54.01984   95.77667   100.3393   49.21682   63.67004   56.44343   90.52151   9.665964   2.347323   0.2667361  94.50788   76.80283   0.04653014 0.02120463 0.06639247 1062.363   2312.363   1.772991  
5340.5     8.75       9.298714   8.880908   0.6410696  0.04704123 54.10966   96.46183   98.88627   48.10769   61.99797   55.05283   92.41036   10.00464   2.312456   0.2704374  72.60683   76.45972   0.02482173 0.02196908 0.06607004 1059.951   2309.951   1.78271   
