~Version
 VERS              .         3.0                           : CWLS LOG ASCII STANDARD - VERSION 3.0
 WRAP              .         NO                            : ONE LINE PER DEPTH STEP
 DLM               .         SPACE                         : DELIMITING CHARACTER(SPACE TAB OR COMMA)
~Well Information
#_______________________________________________________________________________
#
#PARAMETER_NAME    .UNIT     VALUE                         : DESCRIPTION
#_______________________________________________________________________________
STRT               .ft       5000                          : First reference value
STOP               .ft       6000                          : Last reference value
STEP               .ft       0.5                           : Step increment
NULL               .         -9999                         : Missing value
COMP               .         University of Utah            : Company
WELL               .         Forge 16A(78)-32              : Well name
FLD                .         Wildcat                       : Field
LOC                .                                       : Location
SRVC               .         Schlumberger                  : Service Company
CTRY               .         US                            : Country
STAT               .         Utah                          : State
CNTY               .         Beaver                        : County
API                .                                       : API NUMBER
DATE               .         26-Dec-2020                   : Service Date
LATI               .         38° 30' 14.447" N             : Latitude
LONG               .         112° 53' 47.066" W            : Longitude
GDAT               .                                       : Geodetic Datum
APD                .ft       32                            : Elevation of Depth Reference (LMF) Above Permanent Datum
BHS                .         OPEN                          : Borehole Status (Open or Cased Hole)
BHT                .degF     270                           : Bottom Hole Temperature
BLI                .ft       -999.25                       : Bottom Log Interval
BS                 .in       8.75                          : Bit Size
CBDR               .ft       5132                          : Casing Bottom of Driller
CBLO               .ft       5110                          : Logger Casing Shoe Depth
CSIZ               .in       9.625                         : Current Casing Size
CWEI               .lbm/ft   40                            : Casing Weight
COUNTRY            .         USA                           : Country
DFD                .lbm/gal  9                             : Drilling Fluid Density
DFT                .         WBM                           : Drilling Fluid Type
DLAB               .         26-Dec-2020                   : Date Logger At Bottom
EDF                .ft       5434.5                        : Elevation of Drill Floor
EGL                .ft       5403.5                        : Elevation of Ground Level
EKB                .ft       5435.5                        : Elevation of Kelly Bushing
EPD                .ft       5403.5                        : Elevation of Permanent Datum (PDAT) above Mean Sea Level
LMF                .         KB                            : Logging Measured From (Name of Logging Elevation Reference)
LUL                .         Fort Morgan, CO               : Logging Unit Location
LUN                .         2801                          : Logging Unit Number
MCST               .degF     68                            : Mudcake Sample Temperature
MFST               .degF     68                            : Mud Filtrate Sample Temperature
MRT                .degF     322                           : Maximum Recorded Temperature
MST                .degF     68                            : Mud Sample Temperature
ORIGINALWELLNAME   .         Forge 16A(78)-32              : 
PDAT               .         GL                            : Permanent Datum
PRODUCER-CODE      .         440                           : 
PRODUCER-NAME      .         Schlumberger                  : 
RMB                .ohm.m    0.05403042                    : Resistivity of Mud at Bottom Hole Temperature
RMCS               .ohm.m    -999.25                       : Resistivity of Mud Cake Sample
RMFS               .ohm.m    0.15                          : Resistivity of Mud Filtrate Sample
RMS                .ohm.m    0.2                           : Resistivity of Mud Sample
RUN                .         5B                            : Run Number
TDD                .ft       10987                         : Driller Total Depth
TDL                .ft       10987                         : Logger Total Depth
TLAB               .         17_37_17                      : Time Logger At Bottom
TLI                .ft       -999.25                       : Top Log Interval
UWI                .         0000000000                    : UNIQUE WELL ID
~Parameter Information Block
#_______________________________________________________________________________
#
#PARAMETER_NAME    .UNIT     VALUE                         : DESCRIPTION
#_______________________________________________________________________________
SET                .         ThruBitDP_Aniso_5000ft-6000ft : 
TLFamily_BS_RM     .         Bit Size                      : 
TLFamily_C1_13     .         Caliper                       : 
TLFamily_C1_24     .         Caliper                       : 
TLFamily_DEVI      .         Hole Deviation                : 
TLFamily_DPHI      .         Density Porosity              : 
TLFamily_DTCO_MPS_final .    Compressional Slowness        : 
TLFamily_DTSH_FAST .         Fast Shear Slowness           : 
TLFamily_DTSH_SLOW .         Slow Shear Slowness           : 
TLFamily_FSA_TOH_REF0_ERRMINUS .        Fast Shear Azimuth            : 
TLFamily_FSA_TOH_REF0_ERRPLUS .         Fast Shear Azimuth            : 
TLFamily_FSA_TOH_REF0_OVERALL .         Fast Shear Azimuth            : 
TLFamily_GR_TMG    .         Gamma Ray                     : 
TLFamily_MAXXENE_OVERALL .   Acoustic Energy               : 
TLFamily_MINXENE_OVERALL .   Acoustic Energy               : 
TLFamily_PR_FAST   .         Poisson Ratio (Dynamic)       : 
TLFamily_RB_TBDS   .         Relative Bearing              : 
TLFamily_SENSOR_AZIM_QCI .   Sensor Azimuth                : 
TLFamily_SLOANI    .         Acoustic Anisotropy           : 
TLFamily_TDEP      .         Measured Depth                : 
TLFamily_TIMANI    .         Acoustic Anisotropy           : 
TLFamily_TNPH      .         Thermal Neutron Porosity      : 
TLFamily_TW_B_L10  .         Travel Time                   : 
TLFamily_TW_E_L10  .         Travel Time                   : 
TLFamily_VPVS_FAST .         VpVs (Compressional To Shear) Ratio: 
~Curve Information
#_______________________________________________________________________________
#
#LOGNAME           .UNIT     LOG_ID                        : DESCRIPTION
#_______________________________________________________________________________
TDEP               .ft                                     : Measured Depth {F}
BS_RM              .in                                     : Bit Size {F}
C1_13              .in                                     : Caliper Section 1, Pads 1-3 {F}
C1_24              .in                                     : Caliper Section 1, Pads 2-4 {F}
DEVI               .deg                                    : Hole Deviation {F}
DPHI               .ft3/ft3                                : Density Porosity {F}
DTCO_MPS_final     .us/ft                                  : Compressional slowness {F}
DTSH_FAST          .us/ft                                  : Fast Shear Slowness {F}
DTSH_SLOW          .us/ft                                  : Slow Shear Slowness {F}
FSA_TOH_REF0_ERRMINUS .deg                                 : Fast shear azimuth error minus(TOH REF0) - swapped {F}
FSA_TOH_REF0_ERRPLUS .deg                                  : Fast shear azimuth error plus(TOH REF0) - swapped {F}
FSA_TOH_REF0_OVERALL .deg                                  : Fast shear azimuth(TOH REF0) - overall - swapped {F}
GR_TMG             .gAPI                                   : Gamma Ray {F}
MAXXENE_OVERALL    .%                                      : Maximum cross energy - overall {F}
MINXENE_OVERALL    .%                                      : Minimum cross energy - overall {F}
PR_FAST            .unitless                               : Possion's Ratio {F}
RB_TBDS            .deg                                    : TBDS Relatvie Bearing 6inch {F}
SENSOR_AZIM_QCI    .deg                                    : Tool azimuth for input QC {F}
SLOANI             .unitless                               : Slowness-based anisotropy {F}
TIMANI             .unitless                               : Time-based anisotropy {F}
TNPH               .ft3/ft3                                : Thermal Neutron Porosity (Ratio Method) in Selected Lithology {F}
TW_B_L10           .us                                     : Time window begin - packed {F}
TW_E_L10           .us                                     : Time window end - packed {F}
VPVS_FAST          .unitless                               : VpVs Ratio {F}
~Ascii
# ...
5403       8.75       9.31732    8.933439   1.004656   0.03791818 52.99864   97.395     97.424     53.0015    67.66544   60.33347   228.7593   12.92508   3.162622   0.2896597  9.056581   53.54035   0.000297627 0.03148804 0.05071576 1048.403   2298.403   1.837689  
5403.5     8.75       9.319995   8.944058   1.392175   0.03836005 53.02994   97.40598   97.41245   52.0572    68.04733   60.05226   225.9406   12.07092   3.193218   0.2893739  72.60683   53.51136   0.0000664  0.02958023 0.05195738 1047.449   2297.449   1.836811  
5404       8.75       9.322227   8.954952   0.979048   0.04004603 53.17057   97.45191   97.45244   51.6207    67.89423   59.75746   223.3735   11.71368   3.149415   0.2880653  38.78339   54.03515   0.0000054  0.02854753 0.05529852 1046.655   2296.655   1.832817  
5404.5     8.75       9.326209   8.976149   1.09927    0.04138912 53.32181   97.62138   97.62426   51.64816   68.89297   60.27057   255.1456   10.91651   3.089479   0.2873982  9.056581   54.98394   0.0000295  0.02706931 0.05722604 1045.726   2295.726   1.830796  
5405       8.75       9.331905   8.996373   1.332186   0.04199152 53.4149    98.01815   98.05726   52.23403   70.02402   61.12902   236.5475   10.00937   3.015286   0.2887933  38.78339   56.08231   0.0003989106 0.02552108 0.0590947  1045.346   2295.346   1.835034  
5405.5     8.75       9.332875   9.010744   1.209799   0.04216246 53.44713   98.52983   98.74739   52.72162   70.20668   61.46415   234.8037   9.472177   2.929736   0.291536   9.056581   56.87782   0.002205625 0.02438389 0.0570428  1044.851   2294.851   1.843501  
5406       8.75       9.334471   8.997219   1.304373   0.04181697 53.45457   98.69996   99.33597   53.08282   70.15213   61.61748   232.4789   8.941691   2.844063   0.2924702  9.056581   56.91471   0.00642317 0.02326551 0.05728568 1044.223   2294.223   1.846427  
5406.5     8.75       9.339767   9.011343   1.168036   0.04230667 53.46894   98.1247    99.48976   52.72517   69.81024   61.2677    247.2996   8.768847   2.734812   0.2888386  72.60709   56.03794   0.01381537 0.02307082 0.05648193 1043.612   2293.612   1.835172  
5407       8.75       9.341391   9.019625   1.454916   0.04218125 53.48772   97.0586    99.3951    51.77769   69.41586   60.59678   247.59     8.456984   2.670323   0.2819221  9.056581   53.95257   0.02378672 0.02270335 0.0569649  1043.089   2293.089   1.814596  
5407.5     8.75       9.333367   8.981901   1.109083   0.04231274 53.52607   96.20854   99.22207   50.53291   68.61453   59.57372   242.1269   8.19156    2.607485   0.275855   72.60683   50.90647   0.03083987 0.02242493 0.05647032 1042.625   2292.625   1.797415  
5408       8.75       9.331544   8.992521   1.209718   0.04335152 53.57158   95.53949   98.72234   49.67274   67.66809   58.67042   221.5816   8.024755   2.512643   0.2706959  72.60683   47.16684   0.0327687  0.02222389 0.05698385 1043.182   2293.182   1.783399  
5408.5     8.75       9.331454   8.997706   1.284955   0.04306903 53.5645    94.94001   97.98644   49.4088    66.24267   57.82573   214.8977   8.20717    2.420364   0.2665246  72.60709   43.24063   0.03158128 0.02265826 0.05711956 1042.866   2292.866   1.772443  
5409       8.75       9.331634   9.006425   1.070212   0.04233152 53.50828   94.76973   97.56258   49.6602    64.95399   57.3071    217.949    8.550467   2.353777   0.2660135  72.60683   39.69626   0.02904197 0.02374795 0.05496502 1042.821   2292.821   1.771123  
5409.5     8.75       9.341958   9.041484   1.287215   0.04203516 53.4404    94.98765   97.59301   49.44998   63.63041   56.54019   220.1286   8.629158   2.273973   0.2684466  72.60709   37.14277   0.02705736 0.02434203 0.05440287 1043.158   2293.158   1.77745   
5410       8.75       9.367387   9.07127    1.279866   0.04152552 53.3535    95.46936   97.82484   49.39902   63.78043   56.58973   230.8322   8.591848   2.313301   0.2729192  72.60683   35.99779   0.02437201 0.0247428  0.05407063 1043.699   2293.699   1.789374  
5410.5     8.75       9.388453   9.110335   1.183154   0.04035641 53.23838   96.14738   98.1815    47.63532   64.55521   56.09526   234.8038   8.096738   2.398017   0.2789135  72.60683   36.63071   0.02093481 0.02354546 0.05544371 1044.016   2294.016   1.805979  
5411       8.75       9.389323   9.256307   1.421771   0.03979822 53.09607   96.6853    98.57321   46.25542   65.56196   55.90869   239.4534   7.740235   2.517832   0.2840975  83.55736   39.13648   0.01933761 0.02206635 0.05588711 1044.404   2294.404   1.82095   
5411.5     8.75       9.392605   9.276381   1.415936   0.0380436  52.90895   96.79374   98.70477   45.58501   66.68512   56.13507   234.5132   7.38039    2.592702   0.2869484  72.60709   43.28477   0.01955029 0.02065356 0.05592209 1044.702   2294.702   1.82944   
5412       8.75       9.392571   9.27558    1.270244   0.03654301 52.6772    96.44792   98.49131   45.8643    68.11559   56.98994   175.231    6.98799    2.635526   0.2874404  72.60683   48.57219   0.02096436 0.01998421 0.05577047 1045.826   2295.826   1.830924  
5412.5     8.75       9.392647   9.29791    1.01911    0.03457454 52.38747   95.86076   98.20924   47.07007   70.01126   58.54067   167.0943   6.634425   2.662869   0.2870817  72.60683   54.27222   0.02420248 0.01944447 0.05485034 1047.201   2297.201   1.829841  
5413       8.75       9.392506   9.327667   1.080233   0.03128422 52.07065   95.60941   98.15009   50.4928    71.96016   61.22648   140.3592   6.487211   2.613953   0.2891576  72.60696   59.62231   0.02622509 0.01911231 0.05461921 1048.463   2298.463   1.836148  
5413.5     8.75       9.392599   9.310806   1.431951   0.02881637 51.88885   96.19935   98.38678   53.85949   73.12346   63.49148   136.1455   6.593723   2.567574   0.2948408  72.60709   64.1781    0.02248291 0.01921972 0.05356021 1050.136   2300.136   1.85395   
5414       8.75       9.392586   9.280734   1.2702     0.0302437  51.9827    97.37902   98.90053   56.72558   74.62687   65.67622   134.7216   6.528157   2.527664   0.3007365  9.056581   67.59042   0.01550347 0.01906945 0.05244693 1050.136   2300.136   1.873297  
5414.5     8.75       9.396689   9.24962    1.234929   0.03324359 52.31733   98.39766   99.63392   57.69028   75.31825   66.50426   132.6583   6.291546   2.53235    0.3029442  23.91998   69.97444   0.01248548 0.01819685 0.05249458 1050.485   2300.485   1.880785  
5415       8.75       9.388507   9.321646   1.42234    0.03637641 52.84167   99.02125   100.4556   58.47207   75.54208   67.00707   129.4617   6.301763   2.514111   0.3009229  38.78339   71.37768   0.01438149 0.01792284 0.05512711 1051.356   2301.356   1.873923  
5415.5     8.75       9.3902     9.421662   1.321555   0.04255275 53.54811   99.41801   101.2637   56.91537   74.21976   65.56757   128.7353   6.271324   2.549289   0.2956685  72.60683   71.86356   0.01839403 0.01738971 0.05849346 1052.571   2302.571   1.856611  
5416       8.75       9.421829   9.468801   1.300653   0.04879874 54.2976    99.6038    101.8937   55.9136    72.93641   64.425     144.137    6.357385   2.536282   0.2885873  38.78339   71.42519   0.02272906 0.01739002 0.06014917 1054.42    2304.42    1.834405  
5416.5     8.75       9.405204   9.574847   1.231442   0.05398065 54.84      99.66267   102.1925   54.23629   71.85859   63.04744   151.6925   6.309294   2.546882   0.2828643  9.056581   69.99171   0.02506618 0.01747242 0.06023201 1056.287   2306.287   1.817335  
5417       8.75       9.459438   9.518997   1.313602   0.05424667 55.00365   99.71066   102.3189   51.76804   71.34821   61.55812   147.6242   6.216304   2.644078   0.2813009  38.78339   67.51762   0.02582066 0.01759881 0.06009928 1058.602   2308.602   1.812801  
5417.5     8.75       9.448551   9.452146   1.67888    0.05262123 54.85089   99.73399   102.3715   47.75597   70.09351   58.92474   175.9866   6.229331   2.814249   0.283186   38.78339   64.10126   0.02610013 0.01587034 0.06111028 1062.07    2312.07    1.818275  
5418       8.75       9.40851    9.422868   1.449616   0.049817   54.55578   99.72926   102.1449   44.04704   67.70672   55.87688   191.892    6.446661   2.8988     0.2864772  9.056581   59.80622   0.02393208 0.01514919 0.06128989 1064.916   2314.916   1.828024  
