~Version
 VERS              .         3.0                           : CWLS LOG ASCII STANDARD - VERSION 3.0
 WRAP              .         NO                            : ONE LINE PER DEPTH STEP
 DLM               .         SPACE                         : DELIMITING CHARACTER(SPACE TAB OR COMMA)
~Well Information
#_______________________________________________________________________________
#
#PARAMETER_NAME    .UNIT     VALUE                         : DESCRIPTION
#_______________________________________________________________________________
STRT               .ft       5000                          : First reference value
STOP               .ft       6000                          : Last reference value
STEP               .ft       0.5                           : Step increment
NULL               .         -9999                         : Missing value
COMP               .         University of Utah            : Company
WELL               .         Forge 16A(78)-32              : Well name
FLD                .         Wildcat                       : Field
LOC                .                                       : Location
SRVC               .         Schlumberger                  : Service Company
CTRY               .         US                            : Country
STAT               .         Utah                          : State
CNTY               .         Beaver                        : County
API                .                                       : API NUMBER
DATE               .         26-Dec-2020                   : Service Date
LATI               .         38° 30' 14.447" N             : Latitude
LONG               .         112° 53' 47.066" W            : Longitude
GDAT               .                                       : Geodetic Datum
APD                .ft       32                            : Elevation of Depth Reference (LMF) Above Permanent Datum
BHS                .         OPEN                          : Borehole Status (Open or Cased Hole)
BHT                .degF     270                           : Bottom Hole Temperature
BLI                .ft       -999.25                       : Bottom Log Interval
BS                 .in       8.75                          : Bit Size
CBDR               .ft       5132                          : Casing Bottom of Driller
CBLO               .ft       5110                          : Logger Casing Shoe Depth
CSIZ               .in       9.625                         : Current Casing Size
CWEI               .lbm/ft   40                            : Casing Weight
COUNTRY            .         USA                           : Country
DFD                .lbm/gal  9                             : Drilling Fluid Density
DFT                .         WBM                           : Drilling Fluid Type
DLAB               .         26-Dec-2020                   : Date Logger At Bottom
EDF                .ft       5434.5                        : Elevation of Drill Floor
EGL                .ft       5403.5                        : Elevation of Ground Level
EKB                .ft       5435.5                        : Elevation of Kelly Bushing
EPD                .ft       5403.5                        : Elevation of Permanent Datum (PDAT) above Mean Sea Level
LMF                .         KB                            : Logging Measured From (Name of Logging Elevation Reference)
LUL                .         Fort Morgan, CO               : Logging Unit Location
LUN                .         2801                          : Logging Unit Number
MCST               .degF     68                            : Mudcake Sample Temperature
MFST               .degF     68                            : Mud Filtrate Sample Temperature
MRT                .degF     322                           : Maximum Recorded Temperature
MST                .degF     68                            : Mud Sample Temperature
ORIGINALWELLNAME   .         Forge 16A(78)-32              : 
PDAT               .         GL                            : Permanent Datum
PRODUCER-CODE      .         440                           : 
PRODUCER-NAME      .         Schlumberger                  : 
RMB                .ohm.m    0.05403042                    : Resistivity of Mud at Bottom Hole Temperature
RMCS               .ohm.m    -999.25                       : Resistivity of Mud Cake Sample
RMFS               .ohm.m    0.15                          : Resistivity of Mud Filtrate Sample
RMS                .ohm.m    0.2                           : Resistivity of Mud Sample
RUN                .         5B                            : Run Number
TDD                .ft       10987                         : Driller Total Depth
TDL                .ft       10987                         : Logger Total Depth
TLAB               .         17_37_17                      : Time Logger At Bottom
TLI                .ft       -999.25                       : Top Log Interval
UWI                .         0000000000                    : UNIQUE WELL ID
~Parameter Information Block
#_______________________________________________________________________________
#
#PARAMETER_NAME    .UNIT     VALUE                         : DESCRIPTION
#_______________________________________________________________________________
SET                .         ThruBitDP_Aniso_5000ft-6000ft : 
TLFamily_BS_RM     .         Bit Size                      : 
TLFamily_C1_13     .         Caliper                       : 
TLFamily_C1_24     .         Caliper                       : 
TLFamily_DEVI      .         Hole Deviation                : 
TLFamily_DPHI      .         Density Porosity              : 
TLFamily_DTCO_MPS_final .    Compressional Slowness        : 
TLFamily_DTSH_FAST .         Fast Shear Slowness           : 
TLFamily_DTSH_SLOW .         Slow Shear Slowness           : 
TLFamily_FSA_TOH_REF0_ERRMINUS .        Fast Shear Azimuth            : 
TLFamily_FSA_TOH_REF0_ERRPLUS .         Fast Shear Azimuth            : 
TLFamily_FSA_TOH_REF0_OVERALL .         Fast Shear Azimuth            : 
TLFamily_GR_TMG    .         Gamma Ray                     : 
TLFamily_MAXXENE_OVERALL .   Acoustic Energy               : 
TLFamily_MINXENE_OVERALL .   Acoustic Energy               : 
TLFamily_PR_FAST   .         Poisson Ratio (Dynamic)       : 
TLFamily_RB_TBDS   .         Relative Bearing              : 
TLFamily_SENSOR_AZIM_QCI .   Sensor Azimuth                : 
TLFamily_SLOANI    .         Acoustic Anisotropy           : 
TLFamily_TDEP      .         Measured Depth                : 
TLFamily_TIMANI    .         Acoustic Anisotropy           : 
TLFamily_TNPH      .         Thermal Neutron Porosity      : 
TLFamily_TW_B_L10  .         Travel Time                   : 
TLFamily_TW_E_L10  .         Travel Time                   : 
TLFamily_VPVS_FAST .         VpVs (Compressional To Shear) Ratio: 
~Curve Information
#_______________________________________________________________________________
#
#LOGNAME           .UNIT     LOG_ID                        : DESCRIPTION
#_______________________________________________________________________________
TDEP               .ft                                     : Measured Depth {F}
BS_RM              .in                                     : Bit Size {F}
C1_13              .in                                     : Caliper Section 1, Pads 1-3 {F}
C1_24              .in                                     : Caliper Section 1, Pads 2-4 {F}
DEVI               .deg                                    : Hole Deviation {F}
DPHI               .ft3/ft3                                : Density Porosity {F}
DTCO_MPS_final     .us/ft                                  : Compressional slowness {F}
DTSH_FAST          .us/ft                                  : Fast Shear Slowness {F}
DTSH_SLOW          .us/ft                                  : Slow Shear Slowness {F}
FSA_TOH_REF0_ERRMINUS .deg                                 : Fast shear azimuth error minus(TOH REF0) - swapped {F}
FSA_TOH_REF0_ERRPLUS .deg                                  : Fast shear azimuth error plus(TOH REF0) - swapped {F}
FSA_TOH_REF0_OVERALL .deg                                  : Fast shear azimuth(TOH REF0) - overall - swapped {F}
GR_TMG             .gAPI                                   : Gamma Ray {F}
MAXXENE_OVERALL    .%                                      : Maximum cross energy - overall {F}
MINXENE_OVERALL    .%                                      : Minimum cross energy - overall {F}
PR_FAST            .unitless                               : Possion's Ratio {F}
RB_TBDS            .deg                                    : TBDS Relatvie Bearing 6inch {F}
SENSOR_AZIM_QCI    .deg                                    : Tool azimuth for input QC {F}
SLOANI             .unitless                               : Slowness-based anisotropy {F}
TIMANI             .unitless                               : Time-based anisotropy {F}
TNPH               .ft3/ft3                                : Thermal Neutron Porosity (Ratio Method) in Selected Lithology {F}
TW_B_L10           .us                                     : Time window begin - packed {F}
TW_E_L10           .us                                     : Time window end - packed {F}
VPVS_FAST          .unitless                               : VpVs Ratio {F}
~Ascii
# ...
5139.5     8.75       9.285541   8.953516   1.530254   0.05327277 54.93631   99.80653   101.3828   -71.82441  -53.29327  -62.55884  207.6812   14.3095    5.399695   0.2826697  94.50788   94.0239    0.0156696  0.02596786 0.06965113 1060.526   2310.525   1.816768  
5140       8.75       9.294856   8.946282   1.494921   0.0592224  55.79602   101.7061   103.0423   -70.22863  -56.43761  -63.33312  174.4755   15.48671   4.160065   0.2847309  94.50788   93.94691   0.01305194 0.02908054 0.07726289 1059.857   2309.857   1.82282   
5140.5     8.75       9.296247   8.916534   1.516344   0.06423815 56.52156   101.7953   103.7276   -69.34771  -58.87104  -64.10938  205.4532   16.68453   3.199481   0.277144   94.50788   93.97206   0.01880304 0.0322584  0.08895689 1060.592   2310.592   1.801     
5141       8.75       9.283735   8.91926    1.485939   0.06713457 57.26518   101.7873   103.6653   -69.52365  -60.4469   -64.98528  230.9679   17.23805   2.788842   0.268455   94.50788   94.06062   0.01828143 0.0341965  0.1060667  1063.205   2313.205   1.777472  
5141.5     8.75       9.276386   8.938956   1.511672   0.07414306 58.3154    103.2378   104.4536   -69.47535  -61.03001  -65.25268  225.5047   17.97206   2.584939   0.265708   94.50788   94.16534   0.01170743 0.03447777 0.1221054  1067.878   2317.877   1.770336  
5142       8.75       9.276471   8.919237   1.481691   0.0840763  59.78168   105.5817   106.5457   -69.43326  -61.39862  -65.41594  245.8464   18.4738    2.485337   0.2640602  94.50788   94.27943   0.009088489 0.03433327 0.1303427  1073.15    2323.15    1.766121  
5142.5     8.75       9.276387   8.903201   1.567223   0.09636728 61.49088   107.64     108.4623   -69.27608  -61.36863  -65.32236  228.5559   18.97428   2.476179   0.2577824  94.50788   94.36864   0.007611096 0.03479629 0.122308   1077.861   2327.861   1.750503  
5143       8.75       9.277124   8.920743   1.503884   0.1066382  63.08248   108.4032   109.2203   -69.09022  -60.7508   -64.92051  223.1798   19.51015   2.622799   0.2439864  94.50788   94.43031   0.007509095 0.03602392 0.1112084  1080.811   2330.811   1.718436  
5143.5     8.75       9.284551   8.912107   1.482615   0.1158636  63.99584   107.171    108.3578   -69.02137  -59.84469  -64.43303  222.1627   19.80348   2.792599   0.2229109  94.50788   94.46839   0.01101233 0.03694209 0.1067968  1082.505   2332.505   1.674656  
5144       8.75       9.289559   8.900249   1.642159   0.1130994  63.51872   104.0534   105.3169   -68.94519  -58.76287  -63.85403  239.0175   19.71679   2.962947   0.2030075  94.50788   94.4895    0.01206979 0.03748545 0.1108162  1083.116   2333.116   1.638153  
5144.5     8.75       9.293819   8.885695   1.5188     0.1018503  61.26337   100.1095   100.8592   -68.62481  -57.39434  -63.00957  218.4611   19.3005    3.103792   0.2006405  111.4074   94.52225   0.007460809 0.03695426 0.1232597  1083.161   2333.161   1.634085  
5145       8.75       9.293762   8.894821   1.507382   0.06670787 57.91844   96.493     97.08457   -68.50744  -55.95205  -62.22974  216.066    18.13405   3.301586   0.2184062  94.50788   94.56004   0.006111947 0.03482836 0.1348628  1082.324   2332.324   1.666015  
5145.5     8.75       9.296868   8.900599   1.531424   0.04965704 55.15475   93.77749   94.60423   -67.97552  -54.44211  -61.20882  191.7952   16.85793   3.453897   0.235574   102.9577   94.6312    0.008777329 0.03270781 0.1577076  1080.09    2330.09    1.700261  
5146       8.75       9.304933   8.875148   1.49274    0.04056549 53.55795   92.4194    93.09939   -67.17033  -53.14064  -60.15548  191.0201   15.48143   3.386219   0.2471788  111.4074   94.77672   0.007330715 0.0306304  0.1695775  1077.642   2327.642   1.725596  
5146.5     8.75       9.311934   8.882524   1.501408   0.03518359 52.71251   92.31934   92.60448   -65.94955  -51.89116  -58.92035  195.5148   14.15049   3.210939   0.2581401  111.4074   95.03464   0.003083875 0.02859625 0.1564697  1075.009   2325.009   1.751374  
5147       8.75       9.326551   8.885127   1.517      0.03255217 52.26861   92.7309    92.79314   -64.83438  -50.47118  -57.65278  227.5389   12.62699   2.997802   0.2671721  111.4074   95.45583   0.0006709708 0.02648871 0.1321764  1072.084   2322.084   1.774122  
5147.5     8.75       9.332607   8.895789   1.485867   0.03123812 52.0382    93.18382   93.19135   -63.96754  -48.97005  -56.4688   249.1012   11.24596   2.796744   0.2734007  102.9577   96.08053   0.0000808  0.02483937 0.1007218  1068.738   2318.738   1.790681  
5148       8.75       9.333787   8.88355    1.510939   0.03013822 51.93394   93.62569   93.63419   -63.18977  -47.50129  -55.34553  243.9576   10.0245    2.651169   0.2777808  94.50788   96.93343   0.0000908  0.02320817 0.07972453 1064.67    2314.67    1.802784  
5148.5     8.75       9.334966   8.874737   1.392124   0.03063875 51.92393   94.06825   94.10503   -62.20071  -45.51312  -53.85691  252.3851   8.780226   2.475475   0.2809029  94.50788   98.01156   0.0003908491 0.02131127 0.06673139 1060.203   2310.203   1.811655  
5149       8.75       9.345924   8.876705   1.49556    0.03088367 51.9535    94.4879    94.54852   -60.98551  -44.33964  -52.66257  259.5627   7.555443   2.298526   0.2833316  111.4074   99.28091   0.0006413914 0.01941975 0.06092343 1053.959   2303.959   1.818701  
5149.5     8.75       9.356451   8.871703   1.457012   0.03114911 51.98725   94.83783   94.8746    -60.13396  -43.24004  -51.687    244.4517   6.351566   2.191477   0.2852136  94.50788   100.6153   0.0003876781 0.01866785 0.05829596 1047.559   2297.559   1.824252  
5150       8.75       9.3643     8.868383   1.315882   0.03118177 52.04033   95.10155   95.10976   -59.91784  -42.01287  -50.96535  232.9149   5.26543    2.08058    0.2862886  111.4074   101.9013   0.0000863  0.01715717 0.05530175 1040.677   2290.677   1.827459  
5150.5     8.75       9.36727    8.892462   1.385425   0.03221694 52.13751   95.29069   95.29587   -61.00084  -43.04157  -52.02121  241.3422   4.893209   1.93959    0.2863626  94.50788   102.9619   0.0000544  0.01735792 0.05211386 1033.01    2283.01    1.82768   
5151       8.75       9.3697     8.947986   1.654092   0.03320544 52.25854   95.25187   95.31308   -62.8774   -44.5773   -53.72735  234.6101   4.551045   1.811767   0.2846917  111.4074   103.6982   0.0006424123 0.01759484 0.05323518 1025.461   2275.461   1.822704  
5151.5     8.75       9.368401   9.032737   1.376142   0.03424176 52.34884   94.69819   95.0261    -64.86877  -45.91784  -55.39331  256.3081   4.458364   1.77045    0.2799703  94.50788   104.0242   0.003456715 0.01762565 0.05601567 1018.622   2268.622   1.808983  
5152       8.75       9.367066   8.940767   1.351099   0.03467641 52.32254   93.63115   94.44765   -67.33695  -47.26584  -57.3014   256.308    4.354796   1.774055   0.2729654  94.50788   103.9696   0.008682589 0.01739537 0.06179778 1013.867   2263.867   1.789499  
5152.5     8.75       9.375843   8.875493   1.42381    0.03234915 52.14627   92.53571   93.68318   -71.51466  -50.34341  -60.92903  257.0831   4.524753   1.823586   0.2673333  94.50788   103.6302   0.01232395 0.01762172 0.06146191 1010.092   2260.092   1.774541  
5153       8.75       9.388535   8.865031   1.39911    0.0302515  51.92756   91.85629   92.96545   -74.45972  -53.92103  -64.19038  258.0516   4.95152    1.764244   0.265161   94.50788   103.1376   0.0120025  0.01852199 0.0601951  1007.299   2257.299   1.768932  
5153.5     8.75       9.400048   8.845273   1.546282   0.02919639 51.76924   91.61399   92.48183   -74.56902  -56.46452  -65.51677  243.173    5.672658   1.626031   0.2654454  94.50788   102.6063   0.009428172 0.02028652 0.05840632 1005.281   2255.281   1.769661  
5154       8.75       9.525791   8.906924   1.57761    0.02881218 51.673     91.5717    92.21847   -73.13605  -58.73581  -65.93594  242.7469   6.575812   1.536385   0.2664069  94.50788   102.0911   0.007038099 0.02278623 0.05714997 1003.289   2253.289   1.772138  
5154.5     8.75       9.605454   9.003043   1.327819   0.02770057 51.64906   91.57469   92.23566   -72.43706  -60.46585  -66.45145  246.0403   7.636027   1.552958   0.2667466  111.4074   101.6004   0.007191814 0.02562176 0.05684398 1002.469   2252.469   1.773018  
