~Version
 VERS              .         2.0                           : CWLS LOG ASCII STANDARD - VERSION 2.0
 WRAP              .         NO                            : ONE LINE PER DEPTH STEP
 DLM               .         SPACE                         : DELIMITING CHARACTER(SPACE TAB OR COMMA)
~Well Information
#_______________________________________________________________________________
#
#PARAMETER_NAME    .UNIT     VALUE                         : DESCRIPTION
#_______________________________________________________________________________
STRT               .ft       6000                          : First reference value
STOP               .ft       10942                         : Last reference value
STEP               .ft       0.5                           : Step increment
NULL               .         -9999                         : Missing value
COMP               .         University of Utah            : Company
WELL               .         Forge 16A(78)-32              : Well name
FLD                .         Wildcat                       : Field
LOC                .                                       : Location
CNTY               .         Beaver                        : County
STAT               .         Utah                          : State
CTRY               .         USA                           : Country
SRVC               .         Schlumberger                  : Service Company
DATE               .         26-Dec-2020                   : Date
UWI                .         0000000000                    : Unique Well ID
APD                .ft       32                            : Elevation of Depth Reference (LMF) Above Permanent Datum
API                .                                       : API NUMBER
BHS                .         OPEN                          : Borehole Status (Open or Cased Hole)
BHT                .degF     270                           : Bottom Hole Temperature
BLI                .ft       -999.25                       : Bottom Log Interval
BS                 .in       8.75                          : Bit Size
CBDR               .ft       5132                          : Casing Bottom of Driller
CBLO               .ft       5110                          : Logger Casing Shoe Depth
CSIZ               .in       9.625                         : Current Casing Size
CWEI               .lbm/ft   40                            : Casing Weight
DFD                .lbm/gal  9                             : Drilling Fluid Density
DFT                .         WBM                           : Drilling Fluid Type
DLAB               .         26-Dec-2020                   : Date Logger At Bottom
EDF                .ft       5434.5                        : Elevation of Drill Floor
EGL                .ft       5403.5                        : Elevation of Ground Level
EKB                .ft       5435.5                        : Elevation of Kelly Bushing
EPD                .ft       5403.5                        : Elevation of Permanent Datum (PDAT) above Mean Sea Level
GDAT               .                                       : Geodetic Datum
LMF                .         KB                            : Logging Measured From (Name of Logging Elevation Reference)
LUL                .         Fort Morgan, CO               : Logging Unit Location
LUN                .         2801                          : Logging Unit Number
LATI               .         38° 30' 14.447" N             : Latitude
LONG               .         112° 53' 47.066" W            : Longitude
MCST               .degF     68                            : Mudcake Sample Temperature
MFST               .degF     68                            : Mud Filtrate Sample Temperature
MRT                .degF     322                           : Maximum Recorded Temperature
MST                .degF     68                            : Mud Sample Temperature
ORIGINALWELLNAME   .         Forge 16A(78)-32              : 
PDAT               .         GL                            : Permanent Datum
PRODUCER-CODE      .         440                           : 
PRODUCER-NAME      .         Schlumberger                  : 
RMB                .ohm.m    0.05403042                    : Resistivity of Mud at Bottom Hole Temperature
RMCS               .ohm.m    -999.25                       : Resistivity of Mud Cake Sample
RMFS               .ohm.m    0.15                          : Resistivity of Mud Filtrate Sample
RMS                .ohm.m    0.2                           : Resistivity of Mud Sample
RUN                .         5B                            : Run Number
TDD                .ft       10987                         : Driller Total Depth
TDL                .ft       10987                         : Logger Total Depth
TLAB               .         17_37_17                      : Time Logger At Bottom
TLI                .ft       -999.25                       : Top Log Interval
~Parameter Information Block
#_______________________________________________________________________________
#
#PARAMETER_NAME    .UNIT     VALUE                         : DESCRIPTION
#_______________________________________________________________________________
SET                .         LQC_SonicFracture             : 
TLFamily_BS_RM     .         Bit Size                      : 
TLFamily_C1_13     .         Caliper                       : 
TLFamily_C1_24     .         Caliper                       : 
TLFamily_DEVI      .         Hole Deviation                : 
TLFamily_DPHI      .         Density Porosity              : 
TLFamily_DTCO_MPS_final .         Compressional Slowness        : 
TLFamily_DTSH_FAST_final .        Fast Shear Slowness           : 
TLFamily_DTSH_SLOW_final .        Slow Shear Slowness           : 
TLFamily_DTST_MLF_FA_R_4 .        Stoneley Slowness             : 
TLFamily_DTST_STM_2 .        Stoneley Slowness             : 
TLFamily_GR_TMG    .         Gamma Ray                     : 
TLFamily_MD        .         Measured Depth                : 
TLFamily_RB        .         Relative Bearing              : 
TLFamily_RHOB_model .        Bulk Density                  : 
TLFamily_STRC_DN_7 .         Reflection Coefficient        : 
TLFamily_STRC_DN_STM_6 .     Reflection Coefficient        : 
TLFamily_STTC_R_5  .         Transmission Coefficient      : 
TLFamily_STTC_R_STM_8 .      Transmission Coefficient      : 
TLFamily_TENS      .         Tension                       : 
TLFamily_TNPH      .         Thermal Neutron Porosity      : 
TLFamily_TVD       .         True Vertical Depth           : 
~Curve Information
#_______________________________________________________________________________
#
#LOGNAME           .UNIT     LOG_ID                        : DESCRIPTION
#_______________________________________________________________________________
MD                 .ft                                     : Measured Depth 
BS_RM              .in                                     : Bit Size 
C1_13              .in                                     : Caliper Section 1, Pads 1-3 
C1_24              .in                                     : Caliper Section 1, Pads 2-4 
DEVI               .deg                                    : Hole Deviation 
DPHI               .ft3/ft3                                : Density Porosity using sandstone matrix 
DTCO_MPS           .us/ft                                  : Compressional slowness 
DTSH_FAST          .us/ft                                  : Fast Shear Slowness 
DTSH_SLOW          .us/ft                                  : Slow Shear Slowness 
DTST               .us/ft                                  : Stoneley slowness 
DTST_STM_2         .us/ft                                  : Modeled Stoneley slowness computed from wavenumber at dominant frequency of source wavelet 
GR_TMG             .gAPI                                   : Gamma Ray 
RB                 .deg                                    : Relative Bearing 
RHOB_model         .g/cm3                                  : Bulk density (g/cc) 
STRC_DN_7          .unitless                               : Down-going reflection coefficient for Stoneley waveform 
STRC_DN_STM_6      .unitless                               : Down-going reflection coefficient for Modeled Stoneley waveform 
STTC_R_5           .unitless                               : Transmission coefficient for Stoneley waveform from receiver array 
STTC_R_STM_8       .unitless                               : Transmission coefficient for Modeled Stoneley waveform from receiver array 
TENS               .lbf                                    : Cable Tension 
TNPH               .ft3/ft3                                : Thermal Neutron Porosity (Ratio Method) in Selected Lithology 
TVD                .ft                                     : True Vertical Depth 
~Ascii
6000.0     8.75       9.51957    8.828351   6.439884   0.03327812 52.33733   -9999      -9999      208.3163   209.9368   109.2652   169.1586   2.595091   0.001792823 0.0000113  -9999      -9999      -9999      0.05073645 5998.331  
6000.5     8.75       9.495223   8.846418   6.453007   0.03571028 52.61543   96.48579   97.29585   208.4355   210.0568   124.2309   168.7305   2.591078   0.001361795 0.0000114  -9999      -9999      -9999      0.05083078 5998.826  
6001       8.75       9.50189    8.84795    6.175514   0.03832609 52.93026   97.06632   99.04041   208.4355   210.1524   135.0315   170.3333   2.586762   0.001225638 0.0000139  -9999      -9999      -9999      0.04974254 5999.321  
6001.5     8.75       9.503267   8.841002   6.473142   0.04073701 53.2036    97.26463   100.5644   208.782    210.1419   139.4874   171.2686   2.582784   0.0006185659 0.0000146  -9999      -9999      -9999      0.05028985 5999.815  
6002       8.75       9.490554   8.857239   6.169049   0.04176784 53.37801   97.76452   102.018    208.9209   210.1907   143.5558   168.6209   2.581083   0.0005274106 0.0000127  1.041056   1.014949   -9999      0.04956964 6000.31   
6002.5     8.75       9.458845   8.87885    6.433249   0.04260188 53.42934   98.59816   103.0794   208.9855   210.2677   158.6668   170.0148   2.579707   0.001004817 0.0000150  1.036135   1.011382   -9999      0.04909071 6000.804  
6003       8.75       9.451397   8.893365   6.368136   0.04152003 53.3473    99.18394   103.4075   209.1316   210.4748   183.1741   171.4279   2.581492   0.0009521925 0.0000126  1.036202   1.011816   -9999      0.04792507 6001.299  
6003.5     8.75       9.4515     8.90223    6.526203   0.04005947 53.18133   99.06221   103.3115   208.9456   210.7926   191.214    170.9353   2.583902   0.0005511994 0.0000086  1.00824    1.014713   -9999      0.04808414 6001.793  
6004       8.75       9.467994   8.930131   6.298393   0.03857823 52.99941   98.884     103.3138   209.0517   210.5076   177.4589   171.209    2.586346   0.0007926278 0.0000142  1.00858    1.016405   -9999      0.05075764 6002.288  
6004.5     8.75       9.484494   8.953507   6.511144   0.03743701 52.83485   99.08768   103.601    208.5117   210.4525   143.9433   171.3459   2.588229   0.0009877435 0.0000163  1.02047    1.016972   -9999      0.05403936 6002.782  
6005       8.75       9.496514   8.987102   6.465142   0.0362637  52.69992   99.51097   103.7068   208.5121   210.5289   139.0515   172.5225   2.590165   0.001161932 0.0000158  1.020696   1.018214   -9999      0.05773386 6003.277  
6005.5     8.75       9.496563   8.989515   6.590612   0.03559873 52.61213   100.2792   103.2925   208.3112   210.5994   116.9659   172.8027   2.591262   0.0008560227 0.0000198  1.019127   1.013656   -9999      0.05821912 6003.771  
6006       8.75       9.496917   8.990232   6.376053   0.03537765 52.5792    101.3454   102.6139   208.1582   210.5974   135.7097   171.6614   2.591627   0.0005836037 0.0000221  1.009267   1.003681   -9999      0.05744367 6004.265  
6006.5     8.75       9.51146    8.990377   6.792852   0.03571216 52.57867   101.9416   102.1862   208.4897   211.4084   135.7096   172.7771   2.591075   0.0008554987 0.0000171  1.018753   1.000705   -9999      0.05668739 6004.759  
6007       8.75       9.51958    8.98975    6.631457   0.03555812 52.57527   101.8587   101.8772   208.1645   211.3934   137.1626   172.2647   2.591329   0.001044034 0.0000154  1.029584   1.003554   -9999      0.05849101 6005.254  
6007.5     8.75       9.490357   8.949346   6.702458   0.0354642  52.55807   101.3501   101.3501   208.1645   211.4192   141.8122   172.6752   2.591484   0.0009690351 0.0000278  1.019926   0.9991249  -9999      0.06082498 6005.748  
6008       8.75       9.431363   8.926979   6.766576   0.03537216 52.50174   100.6771   100.6771   208.0918   211.3686   133.288    172.0069   2.591636   0.0008158992 0.0000310  1.003984   0.9946138  -9999      0.06150053 6006.242  
6008.5     8.75       9.405213   8.946381   6.579837   0.03483029 52.3454    99.94401   99.94401   208.0757   211.2205   141.231    171.449    2.59253    0.0005735838 0.0000295  1.020849   0.9954819  -9999      0.06153301 6006.736  
6009       8.75       9.384498   8.921309   6.809497   0.03045813 52.16549   99.21672   99.21672   208.0272   211.3013   137.1627   172.469    2.599744   0.001107907 0.0000272  1.040868   0.9979013  -9999      0.06016007 6007.23   
6009.5     8.75       9.379749   8.902252   6.804811   0.03288249 52.10818   98.59946   98.59946   207.9688   210.9722   140.2624   174.3175   2.595744   0.00102457 0.0000235  1.042234   0.9979367  -9999      0.05991565 6007.724  
6010       8.75       9.373088   8.868787   6.838111   0.03189515 52.05686   98.04215   98.04215   207.9688   210.948    151.148    172.7771   2.597373   0.0006155991 0.0000172  1.041443   0.9986661  -9999      0.0595199  6008.218  
6010.5     8.75       9.372923   8.864426   6.945763   0.03066664 51.94875   97.65753   97.65753   207.848    210.7465   132.8291   174.0978   2.5994     0.0003370565 0.0000167  1.059832   0.9994664  -9999      0.06074156 6008.712  
6011       8.75       9.372925   8.887717   6.671969   0.02987451 51.86246   97.35785   97.35785   207.848    210.7361   137.7438   173.42     2.600707   0.0004203824 0.0000143  1.077709   1.003645   -9999      0.06231582 6009.206  
6011.5     8.75       9.370518   8.901642   6.856027   0.02962309 51.85844   96.93681   96.93681   207.9908   210.6747   135.2253   175.3982   2.601122   0.0005107077 0.0000074  1.070304   1.002582   -9999      0.06300098 6009.7    
6012       8.75       9.368152   8.884454   6.737407   0.03068297 51.95446   96.51718   96.51718   207.7108   210.7216   136.2326   174.5237   2.599373   0.0006779364 0.0000085  1.069285   1.004505   -9999      0.06480636 6010.193  
6012.5     8.75       9.371168   8.880742   7.063998   0.03193459 52.13242   96.64494   96.64494   207.9028   210.4521   126.1199   176.9033   2.597308   0.001084372 0.0000159  1.07056    1.003951   -9999      0.0664559  6010.687  
6013       8.75       9.372104   8.878595   6.779672   0.03373993 52.38775   97.50423   97.50423   207.6816   210.6097   136.5814   176.8995   2.594329   0.001694638 0.0000132  1.074874   1.003316   -9999      0.06809364 6011.181  
6013.5     8.75       9.372054   8.872793   6.88321    0.03665037 52.69797   98.56761   98.56761   207.9682   210.7546   132.3967   177.8951   2.589527   0.00207307 0.0000151  1.064967   1.0051     -9999      0.06744391 6011.674  
6014       8.75       9.372018   8.860027   6.880786   0.03903455 52.98363   99.41982   99.41982   208.0779   210.8973   142.1997   178.2748   2.585593   0.002235149 0.0000198  1.066017   1.002645   -9999      0.0679085  6012.168  
6014.5     8.75       9.371855   8.858477   6.994876   0.04021205 53.19888   100.4289   100.4289   208.0779   210.9201   166.9975   180.9287   2.58365    0.001964575 0.0000219  1.076219   1.009495   -9999      0.06783969 6012.662  
6015       8.75       9.371888   8.909766   6.951877   0.04162002 53.35856   101.7007   101.7007   207.9768   211.1294   156.2452   177.8951   2.581327   0.00284258 0.0000225  1.079695   1.001248   -9999      0.06948294 6013.155  
6015.5     8.75       9.376731   8.915406   7.000351   0.04227878 53.46607   102.6655   102.6655   208.0701   211.441    151.402    181.6418   2.58024    0.00284226 0.0000170  1.077334   1.010823   -9999      0.06851904 6013.649  
6016       8.75       9.359518   8.914353   7.05983    0.04278365 53.51857   103.0218   103.0218   207.7649   211.6425   134.8378   180.2157   2.579407   0.002362683 0.0000106  1.048188   1.005329   -9999      0.06890213 6014.142  
6016.5     8.75       9.356488   8.904641   6.902839   0.04257153 53.52379   103.1162   103.1162   207.6135   211.7144   125.3933   180.8382   2.579757   0.001539835 0.0000081  1.026101   1.002863   -9999      0.06843932 6014.636  
6017       8.75       9.356653   8.903484   6.915432   0.04247269 53.50305   103.0686   103.0686   207.6414   211.7203   115.9489   182.8081   2.57992    0.001551659 0.0000055  1.034831   1.002322   -9999      0.06833972 6015.129  
