~Version
 VERS              .         2.0                           : CWLS LOG ASCII STANDARD - VERSION 2.0
 WRAP              .         NO                            : ONE LINE PER DEPTH STEP
 DLM               .         SPACE                         : DELIMITING CHARACTER(SPACE TAB OR COMMA)
~Well Information
#_______________________________________________________________________________
#
#PARAMETER_NAME    .UNIT     VALUE                         : DESCRIPTION
#_______________________________________________________________________________
STRT               .ft       6000                          : First reference value
STOP               .ft       10942                         : Last reference value
STEP               .ft       0.5                           : Step increment
NULL               .         -9999                         : Missing value
COMP               .         University of Utah            : Company
WELL               .         Forge 16A(78)-32              : Well name
FLD                .         Wildcat                       : Field
LOC                .                                       : Location
CNTY               .         Beaver                        : County
STAT               .         Utah                          : State
CTRY               .         USA                           : Country
SRVC               .         Schlumberger                  : Service Company
DATE               .         26-Dec-2020                   : Date
UWI                .         0000000000                    : Unique Well ID
APD                .ft       32                            : Elevation of Depth Reference (LMF) Above Permanent Datum
API                .                                       : API NUMBER
BHS                .         OPEN                          : Borehole Status (Open or Cased Hole)
BHT                .degF     270                           : Bottom Hole Temperature
BLI                .ft       -999.25                       : Bottom Log Interval
BS                 .in       8.75                          : Bit Size
CBDR               .ft       5132                          : Casing Bottom of Driller
CBLO               .ft       5110                          : Logger Casing Shoe Depth
CSIZ               .in       9.625                         : Current Casing Size
CWEI               .lbm/ft   40                            : Casing Weight
DFD                .lbm/gal  9                             : Drilling Fluid Density
DFT                .         WBM                           : Drilling Fluid Type
DLAB               .         26-Dec-2020                   : Date Logger At Bottom
EDF                .ft       5434.5                        : Elevation of Drill Floor
EGL                .ft       5403.5                        : Elevation of Ground Level
EKB                .ft       5435.5                        : Elevation of Kelly Bushing
EPD                .ft       5403.5                        : Elevation of Permanent Datum (PDAT) above Mean Sea Level
GDAT               .                                       : Geodetic Datum
LMF                .         KB                            : Logging Measured From (Name of Logging Elevation Reference)
LUL                .         Fort Morgan, CO               : Logging Unit Location
LUN                .         2801                          : Logging Unit Number
LATI               .         38° 30' 14.447" N             : Latitude
LONG               .         112° 53' 47.066" W            : Longitude
MCST               .degF     68                            : Mudcake Sample Temperature
MFST               .degF     68                            : Mud Filtrate Sample Temperature
MRT                .degF     322                           : Maximum Recorded Temperature
MST                .degF     68                            : Mud Sample Temperature
ORIGINALWELLNAME   .         Forge 16A(78)-32              : 
PDAT               .         GL                            : Permanent Datum
PRODUCER-CODE      .         440                           : 
PRODUCER-NAME      .         Schlumberger                  : 
RMB                .ohm.m    0.05403042                    : Resistivity of Mud at Bottom Hole Temperature
RMCS               .ohm.m    -999.25                       : Resistivity of Mud Cake Sample
RMFS               .ohm.m    0.15                          : Resistivity of Mud Filtrate Sample
RMS                .ohm.m    0.2                           : Resistivity of Mud Sample
RUN                .         5B                            : Run Number
TDD                .ft       10987                         : Driller Total Depth
TDL                .ft       10987                         : Logger Total Depth
TLAB               .         17_37_17                      : Time Logger At Bottom
TLI                .ft       -999.25                       : Top Log Interval
~Parameter Information Block
#_______________________________________________________________________________
#
#PARAMETER_NAME    .UNIT     VALUE                         : DESCRIPTION
#_______________________________________________________________________________
SET                .         LQC_SonicFracture             : 
TLFamily_BS_RM     .         Bit Size                      : 
TLFamily_C1_13     .         Caliper                       : 
TLFamily_C1_24     .         Caliper                       : 
TLFamily_DEVI      .         Hole Deviation                : 
TLFamily_DPHI      .         Density Porosity              : 
TLFamily_DTCO_MPS_final .         Compressional Slowness        : 
TLFamily_DTSH_FAST_final .        Fast Shear Slowness           : 
TLFamily_DTSH_SLOW_final .        Slow Shear Slowness           : 
TLFamily_DTST_MLF_FA_R_4 .        Stoneley Slowness             : 
TLFamily_DTST_STM_2 .        Stoneley Slowness             : 
TLFamily_GR_TMG    .         Gamma Ray                     : 
TLFamily_MD        .         Measured Depth                : 
TLFamily_RB        .         Relative Bearing              : 
TLFamily_RHOB_model .        Bulk Density                  : 
TLFamily_STRC_DN_7 .         Reflection Coefficient        : 
TLFamily_STRC_DN_STM_6 .     Reflection Coefficient        : 
TLFamily_STTC_R_5  .         Transmission Coefficient      : 
TLFamily_STTC_R_STM_8 .      Transmission Coefficient      : 
TLFamily_TENS      .         Tension                       : 
TLFamily_TNPH      .         Thermal Neutron Porosity      : 
TLFamily_TVD       .         True Vertical Depth           : 
~Curve Information
#_______________________________________________________________________________
#
#LOGNAME           .UNIT     LOG_ID                        : DESCRIPTION
#_______________________________________________________________________________
MD                 .ft                                     : Measured Depth 
BS_RM              .in                                     : Bit Size 
C1_13              .in                                     : Caliper Section 1, Pads 1-3 
C1_24              .in                                     : Caliper Section 1, Pads 2-4 
DEVI               .deg                                    : Hole Deviation 
DPHI               .ft3/ft3                                : Density Porosity using sandstone matrix 
DTCO_MPS           .us/ft                                  : Compressional slowness 
DTSH_FAST          .us/ft                                  : Fast Shear Slowness 
DTSH_SLOW          .us/ft                                  : Slow Shear Slowness 
DTST               .us/ft                                  : Stoneley slowness 
DTST_STM_2         .us/ft                                  : Modeled Stoneley slowness computed from wavenumber at dominant frequency of source wavelet 
GR_TMG             .gAPI                                   : Gamma Ray 
RB                 .deg                                    : Relative Bearing 
RHOB_model         .g/cm3                                  : Bulk density (g/cc) 
STRC_DN_7          .unitless                               : Down-going reflection coefficient for Stoneley waveform 
STRC_DN_STM_6      .unitless                               : Down-going reflection coefficient for Modeled Stoneley waveform 
STTC_R_5           .unitless                               : Transmission coefficient for Stoneley waveform from receiver array 
STTC_R_STM_8       .unitless                               : Transmission coefficient for Modeled Stoneley waveform from receiver array 
TENS               .lbf                                    : Cable Tension 
TNPH               .ft3/ft3                                : Thermal Neutron Porosity (Ratio Method) in Selected Lithology 
TVD                .ft                                     : True Vertical Depth 
~Ascii
# ...
6647.5     8.75       9.518591   9.010973   28.70061   0.03021733 51.89578   96.93294   96.95277   209.7573   209.9722   190.4875   160.8708   2.600142   0.000548053 0.0000245  1.011292   1.00206    -9999      0.04901171 6606.753  
6648       8.75       9.487422   8.945644   29.11614   0.02919943 51.77106   96.56219   96.57134   209.7471   210.2603   173.1969   161.4465   2.601821   0.0004869192 0.0000278  1.019807   0.9956751  -9999      0.04736365 6607.179  
6648.5     8.75       9.485176   8.930157   28.86569   0.02874304 51.7219    96.48432   96.48613   209.7964   210.1015   172.2281   160.6368   2.602574   0.0002903941 0.0000274  1.009919   0.9988604  -9999      0.04569134 6607.604  
6649       8.75       9.484961   8.919693   29.01271   0.02908361 51.75726   96.58241   96.58255   209.4582   210.1272   155.4704   161.179    2.602012   0.0003415534 0.0000247  1.019991   1.005046   -9999      0.04367079 6608.029  
6649.5     8.75       9.485175   8.896178   29.07066   0.03006207 51.86053   96.5563    96.5563    210.1701   210.1598   166.0564   160.8853   2.600398   0.0006903909 0.0000263  1.028832   0.9994629  -9999      0.04354713 6608.455  
6650       8.75       9.384178   8.906127   29.10031   0.03124209 51.9913    96.46343   96.46343   209.7811   210.2266   195.2824   161.1645   2.598451   0.0005634738 0.0000335  1.015542   0.998486   -9999      0.04394882 6608.879  
6650.5     8.75       9.370881   8.895045   29.12665   0.03221997 52.10618   96.47095   96.47095   209.979    210.1985   182.5499   162.0365   2.596837   0.0007112588 0.0000339  1.012818   1.003805   -9999      0.04641417 6609.304  
6651       8.75       9.370891   8.887346   28.8694    0.03279059 52.17485   96.55988   96.55988   209.5608   210.2505   177.8465   160.8618   2.595896   0.0005555786 0.0000277  1.013093   1.00207    -9999      0.04780364 6609.728  
6651.5     8.75       9.37082    8.873657   29.52973   0.03285301 52.18352   96.65583   96.65583   209.6619   210.1819   184.5882   161.8503   2.595793   0.0006048841 0.0000261  1.00256    1.004495   -9999      0.04583009 6610.152  
6652       8.75       9.370732   8.86935    28.85338   0.03238267 52.13778   96.72907   96.72907   209.5888   210.19     170.1456   161.6488   2.596569   0.0006669704 0.0000189  0.9972228  1.007551   -9999      0.04161015 6610.576  
6652.5     8.75       9.370759   8.850421   28.80548   0.03165752 52.06457   96.79842   96.79842   209.6188   210.2249   194.4687   161.6413   2.597765   0.000376355 0.0000136  0.9971957  1.003055   -9999      0.03696022 6611      
6653       8.75       9.370782   8.855885   28.92806   0.03108387 51.99781   96.85641   96.85641   209.8119   210.1615   211.3621   161.3424   2.598711   0.0006503179 0.0000111  0.9984788  1.005014   -9999      0.03483325 6611.424  
6653.5     8.75       9.37077    8.859053   29.0896    0.03077631 51.95906   96.83227   96.83227   209.6831   210.1101   215.3918   161.8741   2.599219   0.0008620381 0.0000108  1.003299   1.006776   -9999      0.03438201 6611.847  
6654       8.75       9.370768   8.859004   29.15756   0.03073304 51.95619   96.74935   96.74935   209.6831   210.1109   207.6328   161.6451   2.59929    0.0008633411 0.0000102  1.00757    1.015419   -9999      0.0357373  6612.271  
6654.5     8.75       9.370715   8.856138   29.38727   0.03106942 51.98408   96.76488   96.76488   209.9623   210.3279   216.3992   161.4688   2.598735   0.001344713 0.0000164  1.011349   1.016203   -9999      0.03730995 6612.694  
6655       8.75       9.370787   8.816185   29.16458   0.03148059 52.02105   96.95827   96.95827   209.4863   210.3489   210.5388   161.8429   2.598057   0.001594849 0.0000131  1.005651   1.007091   -9999      0.03898989 6613.117  
6655.5     8.75       9.370761   8.802097   29.14133   0.03159849 52.04959   97.20439   97.20439   209.2767   210.3434   199.3508   161.843    2.597862   0.001595902 0.0000133  0.9997724  1.007058   -9999      0.03965005 6613.54   
6656       8.75       9.370811   8.822078   29.40783   0.03175975 52.07299   97.33028   97.33028   209.284    210.2848   212.3307   162.0396   2.597596   0.001312478 0.0000112  1.006121   1.007223   -9999      0.04057561 6613.962  
6656.5     8.75       9.370845   8.851686   29.40759   0.03198762 52.09672   97.26048   97.26048   209.2393   210.3397   203.855    162.0366   2.59722    0.0009276784 0.0000107  1.006885   1.010297   -9999      0.03949016 6614.384  
6657       8.75       9.370755   8.860228   29.40759   0.03205156 52.12893   97.09669   97.09669   209.1685   210.2623   211.091    162.0366   2.597115   0.000327521 0.0000118  0.9969062  1.008737   -9999      0.04014038 6614.807  
6657.5     8.75       9.370783   8.890924   29.36288   0.03244337 52.19305   97.01306   97.01306   209.0624   210.3351   192.3763   162.2227   2.596468   0.001071562 0.0000125  1.016377   1.012219   -9999      0.04052916 6615.229  
6658       8.75       9.37084    8.929433   29.39128   0.0334406  52.29704   97.08989   97.08989   209.4072   210.4592   179.0089   162.4204   2.594823   0.0006227851 0.0000136  1.021119   1.0101     -9999      0.04310901 6615.65   
6658.5     8.75       9.370743   8.940321   29.14286   0.03442087 52.41389   97.31947   97.31947   209.3876   210.55     184.8209   162.3361   2.593205   0.0008751439 0.0000190  1.010557   1.010818   -9999      0.04359697 6616.072  
6659       8.75       9.370741   8.874204   29.81245   0.03527086 52.50598   97.6021    97.6021    209.1467   210.5989   177.6527   161.8504   2.591803   0.001008942 0.0000263  1.002311   1.002916   -9999      0.04383486 6616.494  
6659.5     8.75       9.370785   8.838407   29.26673   0.03563607 52.53693   97.87871   97.87871   208.8782   210.6711   164.9147   162.0366   2.5912     0.0008888869 0.0000260  1.001979   1.001909   -9999      0.04360097 6616.915  
6660       8.75       9.370766   8.839283   30.11567   0.03516639 52.48659   98.14857   98.14857   208.8782   210.6652   158.3764   162.0424   2.591975   0.0009966486 0.0000231  1.000952   0.9975407  -9999      0.04670376 6617.336  
6660.5     8.75       9.370769   8.842576   29.40601   0.03409185 52.3728    98.38467   98.38467   208.9663   210.6213   158.7961   162.4243   2.593749   0.001016911 0.0000206  0.9996626  1.008234   -9999      0.05120061 6617.757  
6661       8.75       9.370801   8.862948   29.57819   0.03289094 52.24389   98.56727   98.56727   208.9335   210.5918   142.2965   161.288    2.59573    0.0009592322 0.0000170  1.004722   1.006982   -9999      0.05700326 6618.178  
6661.5     8.75       9.37074    8.864885   29.85529   0.03210062 52.14798   98.60138   98.60138   209.3414   210.4975   127.2822   160.914    2.597034   0.001226095 0.0000143  0.9983214  0.9952918  -9999      0.0611613  6618.598  
6662       8.75       9.370838   8.866723   29.57045   0.03182333 52.10767   98.44647   98.44647   209.0939   210.4783   145.6868   160.9274   2.597492   0.000819008 0.0000104  1.008567   1.007966   -9999      0.06146189 6619.019  
6662.5     8.75       9.370729   8.86693    29.76249   0.03199788 52.11799   98.29539   98.29539   209.2439   210.461    142.684    160.7311   2.597203   0.001128175 0.0000085  1.004212   1.003855   -9999      0.06140244 6619.439  
6663       8.75       9.370773   8.87694    29.8383    0.03245001 52.15174   98.2419    98.2419    209.1136   210.4933   138.79     160.6515   2.596457   0.001430767 0.0000097  0.9986705  1.0029     -9999      0.05990037 6619.859  
6663.5     8.75       9.370648   8.880313   30.10617   0.0327312  52.16717   98.12032   98.12032   208.9994   210.4213   134.5472   160.3557   2.595994   0.001837144 0.0000084  1.010939   0.9962764  -9999      0.05955005 6620.279  
6664       8.75       9.370725   8.883457   30.17719   0.03247364 52.12789   97.85351   97.85351   208.9305   210.5398   134.6441   160.2043   2.596418   0.001420882 0.0000061  1.011642   1.015031   -9999      0.05939819 6620.698  
6664.5     8.75       9.370791   8.884801   30.05401   0.03164575 52.01815   97.6403    97.6403    209.2584   210.4092   153.4362   160.5616   2.597785   0.001008514 0.0000092  1.013158   0.9905658  -9999      0.05715033 6621.118  
