~Version
 VERS              .         3.0                           : CWLS LOG ASCII STANDARD - VERSION 3.0
 WRAP              .         NO                            : ONE LINE PER DEPTH STEP
 DLM               .         SPACE                         : DELIMITING CHARACTER(SPACE TAB OR COMMA)
~Well Information
#_______________________________________________________________________________
#
#PARAMETER_NAME    .UNIT     VALUE                         : DESCRIPTION
#_______________________________________________________________________________
STRT               .ft       5000                          : First reference value
STOP               .ft       6000                          : Last reference value
STEP               .ft       0.5                           : Step increment
NULL               .         -9999                         : Missing value
COMP               .         University of Utah            : Company
WELL               .         Forge 16A(78)-32              : Well name
FLD                .         Wildcat                       : Field
LOC                .                                       : Location
SRVC               .         Schlumberger                  : Service Company
CTRY               .         US                            : Country
STAT               .         Utah                          : State
CNTY               .         Beaver                        : County
API                .                                       : API NUMBER
DATE               .         26-Dec-2020                   : Service Date
LATI               .         38° 30' 14.447" N             : Latitude
LONG               .         112° 53' 47.066" W            : Longitude
GDAT               .                                       : Geodetic Datum
APD                .ft       32                            : Elevation of Depth Reference (LMF) Above Permanent Datum
BHS                .         OPEN                          : Borehole Status (Open or Cased Hole)
BHT                .degF     270                           : Bottom Hole Temperature
BLI                .ft       -999.25                       : Bottom Log Interval
BS                 .in       8.75                          : Bit Size
CBDR               .ft       5132                          : Casing Bottom of Driller
CBLO               .ft       5110                          : Logger Casing Shoe Depth
CSIZ               .in       9.625                         : Current Casing Size
CWEI               .lbm/ft   40                            : Casing Weight
COUNTRY            .         USA                           : Country
DFD                .lbm/gal  9                             : Drilling Fluid Density
DFT                .         WBM                           : Drilling Fluid Type
DLAB               .         26-Dec-2020                   : Date Logger At Bottom
EDF                .ft       5434.5                        : Elevation of Drill Floor
EGL                .ft       5403.5                        : Elevation of Ground Level
EKB                .ft       5435.5                        : Elevation of Kelly Bushing
EPD                .ft       5403.5                        : Elevation of Permanent Datum (PDAT) above Mean Sea Level
LMF                .         KB                            : Logging Measured From (Name of Logging Elevation Reference)
LUL                .         Fort Morgan, CO               : Logging Unit Location
LUN                .         2801                          : Logging Unit Number
MCST               .degF     68                            : Mudcake Sample Temperature
MFST               .degF     68                            : Mud Filtrate Sample Temperature
MRT                .degF     322                           : Maximum Recorded Temperature
MST                .degF     68                            : Mud Sample Temperature
ORIGINALWELLNAME   .         Forge 16A(78)-32              : 
PDAT               .         GL                            : Permanent Datum
PRODUCER-CODE      .         440                           : 
PRODUCER-NAME      .         Schlumberger                  : 
RMB                .ohm.m    0.05403042                    : Resistivity of Mud at Bottom Hole Temperature
RMCS               .ohm.m    -999.25                       : Resistivity of Mud Cake Sample
RMFS               .ohm.m    0.15                          : Resistivity of Mud Filtrate Sample
RMS                .ohm.m    0.2                           : Resistivity of Mud Sample
RUN                .         5B                            : Run Number
TDD                .ft       10987                         : Driller Total Depth
TDL                .ft       10987                         : Logger Total Depth
TLAB               .         17_37_17                      : Time Logger At Bottom
TLI                .ft       -999.25                       : Top Log Interval
UWI                .         0000000000                    : UNIQUE WELL ID
~Parameter Information Block
#_______________________________________________________________________________
#
#PARAMETER_NAME    .UNIT     VALUE                         : DESCRIPTION
#_______________________________________________________________________________
SET                .         ThruBitDP_Aniso_5000ft-6000ft : 
TLFamily_BS_RM     .         Bit Size                      : 
TLFamily_C1_13     .         Caliper                       : 
TLFamily_C1_24     .         Caliper                       : 
TLFamily_DEVI      .         Hole Deviation                : 
TLFamily_DPHI      .         Density Porosity              : 
TLFamily_DTCO_MPS_final .    Compressional Slowness        : 
TLFamily_DTSH_FAST .         Fast Shear Slowness           : 
TLFamily_DTSH_SLOW .         Slow Shear Slowness           : 
TLFamily_FSA_TOH_REF0_ERRMINUS .        Fast Shear Azimuth            : 
TLFamily_FSA_TOH_REF0_ERRPLUS .         Fast Shear Azimuth            : 
TLFamily_FSA_TOH_REF0_OVERALL .         Fast Shear Azimuth            : 
TLFamily_GR_TMG    .         Gamma Ray                     : 
TLFamily_MAXXENE_OVERALL .   Acoustic Energy               : 
TLFamily_MINXENE_OVERALL .   Acoustic Energy               : 
TLFamily_PR_FAST   .         Poisson Ratio (Dynamic)       : 
TLFamily_RB_TBDS   .         Relative Bearing              : 
TLFamily_SENSOR_AZIM_QCI .   Sensor Azimuth                : 
TLFamily_SLOANI    .         Acoustic Anisotropy           : 
TLFamily_TDEP      .         Measured Depth                : 
TLFamily_TIMANI    .         Acoustic Anisotropy           : 
TLFamily_TNPH      .         Thermal Neutron Porosity      : 
TLFamily_TW_B_L10  .         Travel Time                   : 
TLFamily_TW_E_L10  .         Travel Time                   : 
TLFamily_VPVS_FAST .         VpVs (Compressional To Shear) Ratio: 
~Curve Information
#_______________________________________________________________________________
#
#LOGNAME           .UNIT     LOG_ID                        : DESCRIPTION
#_______________________________________________________________________________
TDEP               .ft                                     : Measured Depth {F}
BS_RM              .in                                     : Bit Size {F}
C1_13              .in                                     : Caliper Section 1, Pads 1-3 {F}
C1_24              .in                                     : Caliper Section 1, Pads 2-4 {F}
DEVI               .deg                                    : Hole Deviation {F}
DPHI               .ft3/ft3                                : Density Porosity {F}
DTCO_MPS_final     .us/ft                                  : Compressional slowness {F}
DTSH_FAST          .us/ft                                  : Fast Shear Slowness {F}
DTSH_SLOW          .us/ft                                  : Slow Shear Slowness {F}
FSA_TOH_REF0_ERRMINUS .deg                                 : Fast shear azimuth error minus(TOH REF0) - swapped {F}
FSA_TOH_REF0_ERRPLUS .deg                                  : Fast shear azimuth error plus(TOH REF0) - swapped {F}
FSA_TOH_REF0_OVERALL .deg                                  : Fast shear azimuth(TOH REF0) - overall - swapped {F}
GR_TMG             .gAPI                                   : Gamma Ray {F}
MAXXENE_OVERALL    .%                                      : Maximum cross energy - overall {F}
MINXENE_OVERALL    .%                                      : Minimum cross energy - overall {F}
PR_FAST            .unitless                               : Possion's Ratio {F}
RB_TBDS            .deg                                    : TBDS Relatvie Bearing 6inch {F}
SENSOR_AZIM_QCI    .deg                                    : Tool azimuth for input QC {F}
SLOANI             .unitless                               : Slowness-based anisotropy {F}
TIMANI             .unitless                               : Time-based anisotropy {F}
TNPH               .ft3/ft3                                : Thermal Neutron Porosity (Ratio Method) in Selected Lithology {F}
TW_B_L10           .us                                     : Time window begin - packed {F}
TW_E_L10           .us                                     : Time window end - packed {F}
VPVS_FAST          .unitless                               : VpVs Ratio {F}
~Ascii
# ...
5992       8.75       9.828594   8.827413   6.166212   0.0285333  51.71787   99.2786    106.0144   71.41864   107.0719   89.24529   55.6787    3.052291   2.222485   0.3137759  122.943    120.3272   0.06562084 0.0009221872 0.05318915 1064.897   2314.897   1.919619  
5992.5     8.75       9.81601    8.847455   6.127233   0.02971875 51.755     99.16357   106.4661   -106.886   -70.83994  -88.86299  53.08271   3.092624   2.300005   0.3128132  130.7309   121.0876   0.07102623 0.001238657 0.0533731  1067.32    2317.32    1.916019  
5993       8.75       9.763602   8.863421   6.429882   0.02964607 51.78273   99.00008   106.7177   70.22993   107.2497   88.73982   69.04629   3.183554   2.333805   0.3116844  122.943    121.7295   0.07503136 0.002389274 0.05447281 1069.73    2319.73    1.911836  
5993.5     8.75       9.66087    8.866428   6.331542   0.02946125 51.79655   99.02652   106.7711   68.15662   107.0641   87.61034   66.11118   3.199293   2.35114    0.3116844  130.7309   122.3386   0.07526436 0.003386592 0.05497139 1071.864   2321.864   1.911836  
5994       8.75       9.674763   8.882557   6.192172   0.02992855 51.82343   99.26707   106.7753   70.72871   108.6821   89.70543   59.28214   3.318651   2.401774   0.3126701  122.943    122.9798   0.07288061 0.003730638 0.05509761 1073.385   2323.385   1.915486  
5994.5     8.75       9.769955   8.878718   6.1754     0.03041218 51.82774   99.705     106.7697   69.39821   106.4441   87.92117   66.45024   3.469895   2.378839   0.3148777  122.943    123.6669   0.06843188 0.004982029 0.0540504  1074.669   2324.669   1.923777  
5995       8.75       9.81508    8.868132   6.438434   0.0294049  51.77901   99.79934   106.696    69.82587   107.312    88.56892   73.57957   3.523015   2.417938   0.3158316  122.943    124.3364   0.06679717 0.005563731 0.05379676 1075.8     2325.8     1.927409  
5995.5     8.75       9.803126   8.873415   6.671149   0.02909395 51.70903   99.41245   106.3337   71.172     107.8311   89.50155   76.1369    3.587136   2.374044   0.3145498  130.7309   124.9355   0.06727922 0.005854545 0.05324643 1076.555   2326.555   1.922535  
5996       8.75       9.723613   8.902235   6.517088   0.02852723 51.62822   98.62485   105.6611   71.34447   108.1738   89.75916   79.33345   3.657618   2.366177   0.3112642  122.943    125.4011   0.06888619 0.00624598 0.05347239 1077.265   2327.265   1.91029   
5996.5     8.75       9.654232   8.920497   6.300157   0.02751879 51.54656   97.76836   105.463    69.77099   107.8655   88.81825   73.81204   3.640754   2.363983   0.307505   130.7309   125.6965   0.07572283 0.00655311 0.05390735 1077.998   2327.998   1.8967    
5997       8.75       9.641371   8.920287   6.264792   0.02711695 51.51471   97.6999    106.0908   68.32109   108.1594   88.24023   70.6155    3.609094   2.423086   0.3074611  130.7309   125.8431   0.08234857 0.006736244 0.05378791 1078.545   2328.544   1.896544  
5997.5     8.75       9.641329   8.918031   6.206336   0.02765158 51.56481   98.32956   106.5597   69.13254   107.8927   88.51263   71.92321   3.607976   2.342173   0.3103413  130.7309   125.8849   0.08033767 0.006821498 0.0540004  1078.421   2328.421   1.906912  
5998       8.75       9.641383   8.894673   6.268223   0.02873935 51.67653   99.01427   106.385    67.29305   105.8914   86.59222   71.19666   3.567005   2.264123   0.3128187  130.7309   125.8825   0.07176997 0.007344965 0.05280048 1078.14    2328.14    1.916039  
5998.5     8.75       9.641035   8.877888   6.202802   0.02976903 51.81413   99.55108   105.8927   66.23253   105.635    85.93376   75.99156   3.572423   2.280972   0.3142256  130.7309   125.8993   0.06173612 0.007660743 0.05229893 1078.373   2328.373   1.921311  
5999       8.75       9.631116   8.890319   6.037777   0.03089451 51.96443   99.73423   105.5818   66.07275   104.7501   85.41145   72.14114   3.628757   2.298315   0.3136853  136.4381   126.001    0.05696124 0.007940261 0.05100965 1079.023   2329.023   1.919279  
5999.5     8.75       9.607672   8.869511   6.305885   0.03217937 52.1304    99.58176   105.4455   63.87961   101.7997   82.83965   91.53859   3.629404   2.245771   0.3112517  145.9867   126.2539   0.05719946 0.008588446 0.05123329 1079.682   2329.682   1.910243  
6000       8.75       9.51957    8.828351   6.439884   0.03327812 52.33733   99.45369   105.1345   63.35626   101.1408   82.24852   109.2652   3.662006   2.26928    0.3084971  145.9867   126.6802   0.05553423 0.008896309 0.05073645 1080.35    2330.35    1.900244  
