~Version
 VERS              .         3.0                           : CWLS LOG ASCII STANDARD - VERSION 3.0
 WRAP              .         NO                            : ONE LINE PER DEPTH STEP
 DLM               .         SPACE                         : DELIMITING CHARACTER(SPACE TAB OR COMMA)
~Well Information
#_______________________________________________________________________________
#
#PARAMETER_NAME    .UNIT     VALUE                         : DESCRIPTION
#_______________________________________________________________________________
STRT               .ft       5000                          : First reference value
STOP               .ft       6000                          : Last reference value
STEP               .ft       0.5                           : Step increment
NULL               .         -9999                         : Missing value
COMP               .         University of Utah            : Company
WELL               .         Forge 16A(78)-32              : Well name
FLD                .         Wildcat                       : Field
LOC                .                                       : Location
SRVC               .         Schlumberger                  : Service Company
CTRY               .         US                            : Country
STAT               .         Utah                          : State
CNTY               .         Beaver                        : County
API                .                                       : API NUMBER
DATE               .         26-Dec-2020                   : Service Date
LATI               .         38° 30' 14.447" N             : Latitude
LONG               .         112° 53' 47.066" W            : Longitude
GDAT               .                                       : Geodetic Datum
APD                .ft       32                            : Elevation of Depth Reference (LMF) Above Permanent Datum
BHS                .         OPEN                          : Borehole Status (Open or Cased Hole)
BHT                .degF     270                           : Bottom Hole Temperature
BLI                .ft       -999.25                       : Bottom Log Interval
BS                 .in       8.75                          : Bit Size
CBDR               .ft       5132                          : Casing Bottom of Driller
CBLO               .ft       5110                          : Logger Casing Shoe Depth
CSIZ               .in       9.625                         : Current Casing Size
CWEI               .lbm/ft   40                            : Casing Weight
COUNTRY            .         USA                           : Country
DFD                .lbm/gal  9                             : Drilling Fluid Density
DFT                .         WBM                           : Drilling Fluid Type
DLAB               .         26-Dec-2020                   : Date Logger At Bottom
EDF                .ft       5434.5                        : Elevation of Drill Floor
EGL                .ft       5403.5                        : Elevation of Ground Level
EKB                .ft       5435.5                        : Elevation of Kelly Bushing
EPD                .ft       5403.5                        : Elevation of Permanent Datum (PDAT) above Mean Sea Level
LMF                .         KB                            : Logging Measured From (Name of Logging Elevation Reference)
LUL                .         Fort Morgan, CO               : Logging Unit Location
LUN                .         2801                          : Logging Unit Number
MCST               .degF     68                            : Mudcake Sample Temperature
MFST               .degF     68                            : Mud Filtrate Sample Temperature
MRT                .degF     322                           : Maximum Recorded Temperature
MST                .degF     68                            : Mud Sample Temperature
ORIGINALWELLNAME   .         Forge 16A(78)-32              : 
PDAT               .         GL                            : Permanent Datum
PRODUCER-CODE      .         440                           : 
PRODUCER-NAME      .         Schlumberger                  : 
RMB                .ohm.m    0.05403042                    : Resistivity of Mud at Bottom Hole Temperature
RMCS               .ohm.m    -999.25                       : Resistivity of Mud Cake Sample
RMFS               .ohm.m    0.15                          : Resistivity of Mud Filtrate Sample
RMS                .ohm.m    0.2                           : Resistivity of Mud Sample
RUN                .         5B                            : Run Number
TDD                .ft       10987                         : Driller Total Depth
TDL                .ft       10987                         : Logger Total Depth
TLAB               .         17_37_17                      : Time Logger At Bottom
TLI                .ft       -999.25                       : Top Log Interval
UWI                .         0000000000                    : UNIQUE WELL ID
~Parameter Information Block
#_______________________________________________________________________________
#
#PARAMETER_NAME    .UNIT     VALUE                         : DESCRIPTION
#_______________________________________________________________________________
SET                .         ThruBitDP_Aniso_5000ft-6000ft : 
TLFamily_BS_RM     .         Bit Size                      : 
TLFamily_C1_13     .         Caliper                       : 
TLFamily_C1_24     .         Caliper                       : 
TLFamily_DEVI      .         Hole Deviation                : 
TLFamily_DPHI      .         Density Porosity              : 
TLFamily_DTCO_MPS_final .    Compressional Slowness        : 
TLFamily_DTSH_FAST .         Fast Shear Slowness           : 
TLFamily_DTSH_SLOW .         Slow Shear Slowness           : 
TLFamily_FSA_TOH_REF0_ERRMINUS .        Fast Shear Azimuth            : 
TLFamily_FSA_TOH_REF0_ERRPLUS .         Fast Shear Azimuth            : 
TLFamily_FSA_TOH_REF0_OVERALL .         Fast Shear Azimuth            : 
TLFamily_GR_TMG    .         Gamma Ray                     : 
TLFamily_MAXXENE_OVERALL .   Acoustic Energy               : 
TLFamily_MINXENE_OVERALL .   Acoustic Energy               : 
TLFamily_PR_FAST   .         Poisson Ratio (Dynamic)       : 
TLFamily_RB_TBDS   .         Relative Bearing              : 
TLFamily_SENSOR_AZIM_QCI .   Sensor Azimuth                : 
TLFamily_SLOANI    .         Acoustic Anisotropy           : 
TLFamily_TDEP      .         Measured Depth                : 
TLFamily_TIMANI    .         Acoustic Anisotropy           : 
TLFamily_TNPH      .         Thermal Neutron Porosity      : 
TLFamily_TW_B_L10  .         Travel Time                   : 
TLFamily_TW_E_L10  .         Travel Time                   : 
TLFamily_VPVS_FAST .         VpVs (Compressional To Shear) Ratio: 
~Curve Information
#_______________________________________________________________________________
#
#LOGNAME           .UNIT     LOG_ID                        : DESCRIPTION
#_______________________________________________________________________________
TDEP               .ft                                     : Measured Depth {F}
BS_RM              .in                                     : Bit Size {F}
C1_13              .in                                     : Caliper Section 1, Pads 1-3 {F}
C1_24              .in                                     : Caliper Section 1, Pads 2-4 {F}
DEVI               .deg                                    : Hole Deviation {F}
DPHI               .ft3/ft3                                : Density Porosity {F}
DTCO_MPS_final     .us/ft                                  : Compressional slowness {F}
DTSH_FAST          .us/ft                                  : Fast Shear Slowness {F}
DTSH_SLOW          .us/ft                                  : Slow Shear Slowness {F}
FSA_TOH_REF0_ERRMINUS .deg                                 : Fast shear azimuth error minus(TOH REF0) - swapped {F}
FSA_TOH_REF0_ERRPLUS .deg                                  : Fast shear azimuth error plus(TOH REF0) - swapped {F}
FSA_TOH_REF0_OVERALL .deg                                  : Fast shear azimuth(TOH REF0) - overall - swapped {F}
GR_TMG             .gAPI                                   : Gamma Ray {F}
MAXXENE_OVERALL    .%                                      : Maximum cross energy - overall {F}
MINXENE_OVERALL    .%                                      : Minimum cross energy - overall {F}
PR_FAST            .unitless                               : Possion's Ratio {F}
RB_TBDS            .deg                                    : TBDS Relatvie Bearing 6inch {F}
SENSOR_AZIM_QCI    .deg                                    : Tool azimuth for input QC {F}
SLOANI             .unitless                               : Slowness-based anisotropy {F}
TIMANI             .unitless                               : Time-based anisotropy {F}
TNPH               .ft3/ft3                                : Thermal Neutron Porosity (Ratio Method) in Selected Lithology {F}
TW_B_L10           .us                                     : Time window begin - packed {F}
TW_E_L10           .us                                     : Time window end - packed {F}
VPVS_FAST          .unitless                               : VpVs Ratio {F}
~Ascii
# ...
5728.5     8.75       9.332314   8.9453     1.842129   0.03328115 52.23526   98.31979   98.9991    69.52343   93.63398   81.5787    142.8293   3.055158   1.730938   0.3033712  94.50788   95.88051   0.006885362 0.002150537 0.07506245 1049.604   2299.604   1.882249  
5729       8.75       9.337837   8.955841   1.858094   0.03376059 52.3306    98.17538   98.81711   65.79932   93.19967   79.4995    151.4019   2.907626   1.843236   0.3015561  111.4074   96.46875   0.006515209 0.0002220812 0.07584128 1050.43    2300.43    1.876061  
5729.5     8.75       9.338205   8.969945   1.735773   0.0342146  52.40914   97.74908   98.09397   -27.0378   3.134075   -11.95186  148.0601   2.863589   1.958444   0.2982777  88.62856   96.93363   0.003522073 0.001599786 0.07486572 1051.113   2301.113   1.865115  
5730       8.75       9.338166   8.98168    1.814955   0.03499401 52.48666   96.88361   97.05567   -31.56575  0.6890621  -15.43834  140.8823   2.869571   2.022373   0.2922932  94.50788   97.25754   0.001774429 0.003716525 0.07606848 1051.439   2301.439   1.845871  
5730.5     8.75       9.33812    8.982263   1.731196   0.03545452 52.55532   95.77745   96.27779   -36.37402  -2.51284   -19.44343  149.9489   2.901548   2.087663   0.2845928  111.4074   97.46264   0.005210331 0.006672588 0.07275284 1052.374   2302.374   1.822412  
5731       8.75       9.33733    8.976643   1.805037   0.03567936 52.63311   94.81438   95.90749   -38.3306   -4.155716  -21.24316  191.6015   3.072229   2.216218   0.2772945  102.9577   97.59841   0.01146286 0.008531937 0.06954948 1052.849   2302.849   1.801421  
5731.5     8.75       9.330367   8.961145   1.774819   0.0366534  52.766     94.36805   95.90379   -40.55091  -8.396084  -24.4735   183.6585   3.249651   2.28777    0.2725686  88.62856   97.72375   0.01614255 0.0101046  0.06953647 1053.369   2303.369   1.788425  
5732       8.75       9.328669   8.962949   1.908081   0.0383297  52.9664    94.39623   96.5832    -41.21317  -10.85866  -26.03592  187.533    3.371506   2.324674   0.2702422  94.50788   97.90028   0.02290263 0.01062477 0.0704996  1053.004   2303.004   1.782191  
5732.5     8.75       9.326185   8.965154   1.976306   0.0402291  53.20638   95.02489   97.86605   -43.50948  -14.94451  -29.22699  185.4989   3.468159   2.375519   0.2716563  88.62856   98.12656   0.02945876 0.01097436 0.07340094 1052.673   2302.673   1.785968  
5733       8.75       9.326276   8.935262   1.86222    0.04201941 53.45897   96.50957   99.02657   -45.4726   -19.7448   -32.6087   171.8892   3.583812   2.379534   0.2786744  88.62856   98.37093   0.02574458 0.01125394 0.07182879 1052.355   2302.355   1.805302  
5733.5     8.75       9.322923   8.969769   1.855387   0.0441042  53.69398   98.21046   99.62203   -45.08722  -23.27601  -34.18161  168.8959   3.740376   2.29286    0.2868281  88.62856   98.5583    0.01427033 0.01152639 0.07121101 1051.618   2301.618   1.829078  
5734       8.75       9.334819   8.964242   1.754245   0.04559453 53.84025   99.2654    99.73296   -43.87291  -22.07978  -32.97635  173.7781   3.780984   2.350829   0.2916006  94.50788   98.60703   0.004699056 0.0109999  0.07257368 1050.141   2300.141   1.843703  
5734.5     8.75       9.360958   8.994523   1.705046   0.0453249  53.83967   99.77357   99.85165   -45.51643  -22.00237  -33.7594   162.0572   3.729584   2.414784   0.2945941  94.50788   98.45738   0.0007823346 0.01048622 0.0756035  1048.416   2298.416   1.853161  
5735       8.75       9.319658   8.940805   1.90174    0.04402661 53.72196   100.1071   100.1125   -46.7551   -22.02143  -34.38827  161.7666   3.747318   2.469122   0.2977651  94.50788   98.04241   0.0000533  0.01045081 0.07885961 1046.419   2296.419   1.86343   
5735.5     8.75       9.319698   8.915443   1.836143   0.04301817 53.53857   100.1462   100.1462   -48.11644  -21.95652  -35.03648  171.7439   3.754004   2.545823   0.2999143  85.19681   97.36896   0          0.01046092 0.07861391 1044.694   2294.694   1.870542  
5736       8.75       9.334924   8.930316   1.893995   0.04102239 53.30148   99.53876   99.54126   -49.19567  -22.29264  -35.74416  202.373    3.797332   2.62264    0.2989896  111.4074   96.48811   0.0000251  0.01060079 0.07414903 1043.103   2293.103   1.867467  
5736.5     8.75       9.313867   8.938771   1.717878   0.03871218 53.06012   98.3687    98.40144   -51.64856  -23.46538  -37.55697  224.0516   3.803823   2.664203   0.2948283  88.62856   95.46679   0.000332751 0.01095786 0.07150061 1041.639   2291.639   1.85391   
5737       8.75       9.309609   8.908      1.833013   0.03750911 52.88987   97.07139   97.23584   -54.60934  -25.17249  -39.89091  206.9064   3.719242   2.634177   0.2888966  94.50788   94.48871   0.001692697 0.01138303 0.07029969 1040.348   2290.348   1.835349  
5737.5     8.75       9.309529   8.90746    1.922539   0.03721087 52.80075   96.0872    96.43903   -57.71463  -26.50824  -42.11143  186.5643   3.658154   2.674598   0.2837089  102.4761   93.68309   0.003654795 0.01160774 0.07004466 1039.359   2289.358   1.819808  
5738       8.75       9.309552   8.901868   1.838609   0.03653636 52.77977   95.6224    95.98279   -60.6403   -27.90824  -44.27427  198.9148   3.593606   2.700764   0.2809272  94.50788   93.14745   0.003761795 0.01187531 0.06836679 1038.665   2288.665   1.811725  
5738.5     8.75       9.312827   8.916617   1.989651   0.03730363 52.84852   95.49884   95.74573   -62.29541  -28.37201  -45.33371  179.9776   3.490561   2.691258   0.2792841  88.62856   92.94129   0.0025819  0.01176499 0.06417271 1038.148   2288.148   1.80703   
5739       8.75       9.313888   8.929544   1.836357   0.03857144 52.98809   95.53671   95.82568   -64.51463  -28.94003  -46.72733  190.0515   3.358548   2.672433   0.2778521  88.62856   93.0454    0.003020144 0.01143199 0.06355733 1037.429   2287.429   1.802984  
5739.5     8.75       9.310237   8.929686   1.85624    0.04003461 53.12787   95.58926   96.15872   -66.87698  -31.26218  -49.06958  167.1911   3.303668   2.620769   0.2765092  111.4074   93.39068   0.00593973 0.01146698 0.06314164 1036.145   2286.145   1.79923   
5740       8.75       9.309361   8.91606    1.779349   0.04051217 53.19798   95.60312   96.57568   -69.0571   -32.07804  -50.56757  165.4088   3.171118   2.577951   0.2757483  111.4074   93.89654   0.01012138 0.01104044 0.06677903 1035.055   2285.055   1.797119  
5740.5     8.75       9.309289   8.898005   1.831697   0.04038906 53.17011   95.60435   96.75028   -72.8728   -35.02249  -53.94765  185.8863   3.014344   2.514293   0.2760968  102.9577   94.43813   0.01191474 0.01025739 0.06838098 1033.29    2283.29    1.798084  
5741       8.75       9.309237   8.89814    1.866268   0.03919812 53.05782   95.60338   96.59059   -76.74902  -39.66825  -58.20863  196.8806   2.919485   2.40116    0.2774554  88.62856   94.93947   0.01027309 0.009671625 0.06842566 1031.731   2281.731   1.801871  
5741.5     8.75       9.309196   8.897876   1.731196   0.03804302 52.90628   95.59478   96.234     -80.30974  -45.3911   -62.85042  195.2824   2.862455   2.250752   0.279228   111.4074   95.43031   0.006664497 0.009324953 0.06652306 1029.648   2279.647   1.80687   
5742       8.75       9.310332   8.894918   1.777453   0.03668548 52.76574   95.58322   95.85235   -82.15602  -49.02245  -65.58923  216.0601   2.788812   2.119131   0.2808364  102.4761   95.91783   0.002811671 0.009074421 0.06517797 1028.028   2278.028   1.811464  
5742.5     8.75       9.312254   8.895947   1.796985   0.03593034 52.69224   95.69501   95.75719   -83.26385  -51.50368  -67.38377  198.043    2.743146   2.049015   0.2824444  111.4074   96.46415   0.000649557 0.008965656 0.06360295 1027.241   2277.241   1.816112  
5743       8.75       9.313637   8.901684   1.743582   0.03635097 52.71328   96.02976   96.03702   -83.3868   -53.82017  -68.60349  195.2824   2.689501   1.948945   0.2843646  94.50788   97.12328   0.0000756  0.008948796 0.06206666 1026.699   2276.699   1.821738  
5743.5     8.75       9.325336   8.906406   1.810111   0.03721145 52.79408   96.35061   96.35563   -83.10423  -55.68618  -69.3952   185.7507   2.699744   1.855433   0.2854743  111.4074   97.94769   0.0000521  0.009341103 0.05823295 1026.214   2276.214   1.825027  
