~Version
 VERS              .         3.0                           : CWLS LOG ASCII STANDARD - VERSION 3.0
 WRAP              .         NO                            : ONE LINE PER DEPTH STEP
 DLM               .         SPACE                         : DELIMITING CHARACTER(SPACE TAB OR COMMA)
~Well Information
#_______________________________________________________________________________
#
#PARAMETER_NAME    .UNIT     VALUE                         : DESCRIPTION
#_______________________________________________________________________________
STRT               .ft       5000                          : First reference value
STOP               .ft       6000                          : Last reference value
STEP               .ft       0.5                           : Step increment
NULL               .         -9999                         : Missing value
COMP               .         University of Utah            : Company
WELL               .         Forge 16A(78)-32              : Well name
FLD                .         Wildcat                       : Field
LOC                .                                       : Location
SRVC               .         Schlumberger                  : Service Company
CTRY               .         US                            : Country
STAT               .         Utah                          : State
CNTY               .         Beaver                        : County
API                .                                       : API NUMBER
DATE               .         26-Dec-2020                   : Service Date
LATI               .         38° 30' 14.447" N             : Latitude
LONG               .         112° 53' 47.066" W            : Longitude
GDAT               .                                       : Geodetic Datum
APD                .ft       32                            : Elevation of Depth Reference (LMF) Above Permanent Datum
BHS                .         OPEN                          : Borehole Status (Open or Cased Hole)
BHT                .degF     270                           : Bottom Hole Temperature
BLI                .ft       -999.25                       : Bottom Log Interval
BS                 .in       8.75                          : Bit Size
CBDR               .ft       5132                          : Casing Bottom of Driller
CBLO               .ft       5110                          : Logger Casing Shoe Depth
CSIZ               .in       9.625                         : Current Casing Size
CWEI               .lbm/ft   40                            : Casing Weight
COUNTRY            .         USA                           : Country
DFD                .lbm/gal  9                             : Drilling Fluid Density
DFT                .         WBM                           : Drilling Fluid Type
DLAB               .         26-Dec-2020                   : Date Logger At Bottom
EDF                .ft       5434.5                        : Elevation of Drill Floor
EGL                .ft       5403.5                        : Elevation of Ground Level
EKB                .ft       5435.5                        : Elevation of Kelly Bushing
EPD                .ft       5403.5                        : Elevation of Permanent Datum (PDAT) above Mean Sea Level
LMF                .         KB                            : Logging Measured From (Name of Logging Elevation Reference)
LUL                .         Fort Morgan, CO               : Logging Unit Location
LUN                .         2801                          : Logging Unit Number
MCST               .degF     68                            : Mudcake Sample Temperature
MFST               .degF     68                            : Mud Filtrate Sample Temperature
MRT                .degF     322                           : Maximum Recorded Temperature
MST                .degF     68                            : Mud Sample Temperature
ORIGINALWELLNAME   .         Forge 16A(78)-32              : 
PDAT               .         GL                            : Permanent Datum
PRODUCER-CODE      .         440                           : 
PRODUCER-NAME      .         Schlumberger                  : 
RMB                .ohm.m    0.05403042                    : Resistivity of Mud at Bottom Hole Temperature
RMCS               .ohm.m    -999.25                       : Resistivity of Mud Cake Sample
RMFS               .ohm.m    0.15                          : Resistivity of Mud Filtrate Sample
RMS                .ohm.m    0.2                           : Resistivity of Mud Sample
RUN                .         5B                            : Run Number
TDD                .ft       10987                         : Driller Total Depth
TDL                .ft       10987                         : Logger Total Depth
TLAB               .         17_37_17                      : Time Logger At Bottom
TLI                .ft       -999.25                       : Top Log Interval
UWI                .         0000000000                    : UNIQUE WELL ID
~Parameter Information Block
#_______________________________________________________________________________
#
#PARAMETER_NAME    .UNIT     VALUE                         : DESCRIPTION
#_______________________________________________________________________________
SET                .         ThruBitDP_Aniso_5000ft-6000ft : 
TLFamily_BS_RM     .         Bit Size                      : 
TLFamily_C1_13     .         Caliper                       : 
TLFamily_C1_24     .         Caliper                       : 
TLFamily_DEVI      .         Hole Deviation                : 
TLFamily_DPHI      .         Density Porosity              : 
TLFamily_DTCO_MPS_final .    Compressional Slowness        : 
TLFamily_DTSH_FAST .         Fast Shear Slowness           : 
TLFamily_DTSH_SLOW .         Slow Shear Slowness           : 
TLFamily_FSA_TOH_REF0_ERRMINUS .        Fast Shear Azimuth            : 
TLFamily_FSA_TOH_REF0_ERRPLUS .         Fast Shear Azimuth            : 
TLFamily_FSA_TOH_REF0_OVERALL .         Fast Shear Azimuth            : 
TLFamily_GR_TMG    .         Gamma Ray                     : 
TLFamily_MAXXENE_OVERALL .   Acoustic Energy               : 
TLFamily_MINXENE_OVERALL .   Acoustic Energy               : 
TLFamily_PR_FAST   .         Poisson Ratio (Dynamic)       : 
TLFamily_RB_TBDS   .         Relative Bearing              : 
TLFamily_SENSOR_AZIM_QCI .   Sensor Azimuth                : 
TLFamily_SLOANI    .         Acoustic Anisotropy           : 
TLFamily_TDEP      .         Measured Depth                : 
TLFamily_TIMANI    .         Acoustic Anisotropy           : 
TLFamily_TNPH      .         Thermal Neutron Porosity      : 
TLFamily_TW_B_L10  .         Travel Time                   : 
TLFamily_TW_E_L10  .         Travel Time                   : 
TLFamily_VPVS_FAST .         VpVs (Compressional To Shear) Ratio: 
~Curve Information
#_______________________________________________________________________________
#
#LOGNAME           .UNIT     LOG_ID                        : DESCRIPTION
#_______________________________________________________________________________
TDEP               .ft                                     : Measured Depth {F}
BS_RM              .in                                     : Bit Size {F}
C1_13              .in                                     : Caliper Section 1, Pads 1-3 {F}
C1_24              .in                                     : Caliper Section 1, Pads 2-4 {F}
DEVI               .deg                                    : Hole Deviation {F}
DPHI               .ft3/ft3                                : Density Porosity {F}
DTCO_MPS_final     .us/ft                                  : Compressional slowness {F}
DTSH_FAST          .us/ft                                  : Fast Shear Slowness {F}
DTSH_SLOW          .us/ft                                  : Slow Shear Slowness {F}
FSA_TOH_REF0_ERRMINUS .deg                                 : Fast shear azimuth error minus(TOH REF0) - swapped {F}
FSA_TOH_REF0_ERRPLUS .deg                                  : Fast shear azimuth error plus(TOH REF0) - swapped {F}
FSA_TOH_REF0_OVERALL .deg                                  : Fast shear azimuth(TOH REF0) - overall - swapped {F}
GR_TMG             .gAPI                                   : Gamma Ray {F}
MAXXENE_OVERALL    .%                                      : Maximum cross energy - overall {F}
MINXENE_OVERALL    .%                                      : Minimum cross energy - overall {F}
PR_FAST            .unitless                               : Possion's Ratio {F}
RB_TBDS            .deg                                    : TBDS Relatvie Bearing 6inch {F}
SENSOR_AZIM_QCI    .deg                                    : Tool azimuth for input QC {F}
SLOANI             .unitless                               : Slowness-based anisotropy {F}
TIMANI             .unitless                               : Time-based anisotropy {F}
TNPH               .ft3/ft3                                : Thermal Neutron Porosity (Ratio Method) in Selected Lithology {F}
TW_B_L10           .us                                     : Time window begin - packed {F}
TW_E_L10           .us                                     : Time window end - packed {F}
VPVS_FAST          .unitless                               : VpVs Ratio {F}
~Ascii
# ...
5852.5     8.75       9.555675   8.856305   1.799823   0.03556361 52.52901   99.68219   100.7915   -64.68258  -44.45045  -54.56652  171.4532   3.469348   1.99194    0.3077745  111.4074   106.906    0.01106693 0.009277956 0.06762309 1081.12    2331.12    1.89766   
5853       8.75       9.555723   8.856379   1.934459   0.0341279  52.35812   99.01427   100.3952   -64.81721  -44.11247  -54.46484  182.6413   3.305598   1.870342   0.3059193  98.492     106.9728   0.01384987 0.008637804 0.06910312 1078.616   2328.616   1.891097  
5853.5     8.75       9.55568    8.856313   1.796281   0.03224179 52.14489   98.9905    100.0933   -65.7475   -43.71596  -54.73173  164.2851   3.198636   1.818785   0.3079747  111.4074   106.8212   0.01107843 0.007983581 0.06783249 1075.738   2325.738   1.898374  
5854       8.75       9.555862   8.856289   1.990582   0.03056795 51.94114   99.06791   99.61893   -66.94999  -43.98586  -55.46793  185.5473   3.094678   1.770974   0.3104506  102.4761   106.412    0.005546672 0.007261734 0.06295524 1072.678   2322.678   1.907311  
5854.5     8.75       9.555882   8.856395   1.963085   0.02930057 51.79036   98.7006    98.85756   -67.55736  -44.6286   -56.09298  177.7012   3.025881   1.717359   0.3100279  111.4074   105.8134   0.001588996 0.006891191 0.06019033 1069.584   2319.584   1.905772  
5855       8.75       9.55572    8.85635    2.130016   0.02875091 51.7155    98.12154   98.14455   -68.22545  -45.07952  -56.65248  186.7581   2.983302   1.709615   0.307683   111.4074   105.0945   0.0002345579 0.006662239 0.05743675 1066.564   2316.564   1.897333  
5855.5     8.75       9.555839   8.856376   2.012574   0.02887633 51.71393   97.55664   97.55803   -68.78347  -45.30733  -57.0454   200.8036   2.928076   1.711744   0.3045928  111.4074   104.4102   0.0000142  0.006419647 0.05751093 1063.703   2313.703   1.886467  
5856       8.75       9.555816   8.856349   1.992512   0.02926792 51.76558   97.07777   97.08415   -71.46384  -46.67349  -59.06866  191.989    2.870699   1.783864   0.3013413  111.4074   103.9152   0.0000657  0.005815587 0.058875   1061.072   2311.072   1.875335  
5856.5     8.75       9.555806   8.856248   1.857354   0.03021509 51.83414   96.82596   96.91349   -71.39197  -46.11097  -58.75147  180.8354   2.856678   1.796111   0.299149   111.4074   103.7419   0.0009036058 0.006193366 0.06217857 1058.655   2308.655   1.867996  
5857       8.75       9.555666   8.856406   2.002618   0.03047692 51.86791   96.81818   97.29445   -72.2917   -45.2914   -58.79155  179.8807   2.768958   1.819694   0.2987366  102.4761   103.9351   0.004907099 0.006626236 0.0649488  1056.316   2306.316   1.86663   
5857.5     8.75       9.55584    8.856332   1.829017   0.03016062 51.85148   96.89355   98.1148    -73.30269  -45.69404  -59.49836  179.9776   2.768951   1.877906   0.2993535  94.50788   104.46     0.01252513 0.006634839 0.06603767 1053.967   2303.967   1.868675  
5858       8.75       9.555816   8.856241   1.988016   0.02978175 51.80465   96.89773   98.72105   -73.91106  -45.36401  -59.63754  187.6105   2.77693    1.948114   0.2998849  111.4074   105.218    0.01864163 0.00682106 0.06331838 1051.755   2301.755   1.870445  
5858.5     8.75       9.55585    8.856304   1.910661   0.02943091 51.72504   96.70449   98.841     -74.21613  -45.15304  -59.68458  189.1217   2.725418   1.949404   0.2996279  102.9577   106.0703   0.02185182 0.006829852 0.06192643 1049.632   2299.632   1.869587  
5859       8.75       9.555749   8.856307   1.724072   0.02846727 51.57999   96.23765   98.80598   -73.79729  -45.17982  -59.48856  201.0944   2.724699   1.950516   0.2984837  111.4074   106.8808   0.02633594 0.006937429 0.06123276 1047.604   2297.604   1.865794  
5859.5     8.75       9.555784   8.856253   1.808016   0.02624723 51.38134   95.64919   98.68179   -72.16913  -43.99884  -58.08398  180.6361   2.739933   1.978141   0.297192   111.4074   107.5232   0.03121075 0.007509056 0.06309286 1045.997   2295.997   1.861555  
5860       8.75       9.555844   8.856345   1.663769   0.02479576 51.21116   95.25856   98.06648   -70.77345  -42.61103  -56.69224  204.8722   2.78276    2.051625   0.2967498  111.4074   107.902    0.02904872 0.007892652 0.0628803  1045.062   2295.062   1.860113  
5860.5     8.75       9.555827   8.856464   1.90404    0.02420492 51.13491   95.47971   97.14746   -70.04564  -42.01347  -56.02956  177.4106   2.839582   2.088288   0.2989125  88.62856   107.9741   0.01731589 0.008175182 0.06364764 1044.978   2294.978   1.867212  
5861       8.75       9.555889   8.856376   1.819007   0.02408788 51.21045   96.52979   97.18433   -70.97581  -42.80577  -56.89079  176.9746   2.91608    2.136675   0.3041585  102.4761   107.799    0.006757883 0.0082936  0.06713573 1045.801   2295.801   1.884963  
5861.5     8.75       9.555767   8.856377   1.94264    0.02651873 51.5107    98.05451   98.34432   -68.89676  -42.2676   -55.58218  178.8926   2.999403   2.147949   0.3094222  94.50788   107.4395   0.002951241 0.009153872 0.07085644 1047.299   2297.299   1.903576  
5862       8.75       9.55577    8.856391   1.935451   0.03108481 52.01714   99.47281   99.6025    -70.5038   -42.51162  -56.50771  179.2995   3.010575   2.278819   0.3118124  111.4074   107.0142   0.001302945 0.008779677 0.07389068 1049.071   2299.071   1.912308  
5862.5     8.75       9.55572    8.856334   1.825015   0.03605461 52.59711   100.6651   100.6928   -70.82299  -43.42266  -57.12283  170.872    3.12203    2.403297   0.3122399  94.50788   106.5747   0.0002756099 0.008816643 0.07466421 1050.849   2300.849   1.913889  
5863       8.75       9.555902   8.856297   1.729072   0.04033878 53.08252   101.7773   101.7803   -70.30943  -42.89194  -56.60069  173.612    3.17799    2.440589   0.3131678  111.4074   106.1738   0.0000291  0.009128231 0.07444234 1052.113   2302.113   1.917342  
5863.5     8.75       9.555888   8.856297   1.955189   0.04230912 53.3389    102.6433   102.6464   -70.0441   -42.40068  -56.22239  187.2908   3.18882    2.451111   0.3150315  111.4074   105.7888   0.0000301  0.00918322 0.069637   1052.821   2302.821   1.92436   
5864       8.75       9.555777   8.856563   1.851931   0.04188358 53.33451   102.8047   102.8098   -69.10149  -41.31895  -55.21022  171.0657   3.239769   2.499097   0.3158674  88.62856   105.3228   0.0000496  0.009604549 0.06367873 1053.287   2303.287   1.927546  
5864.5     8.75       9.555877   8.856339   1.878037   0.04001337 53.14008   102.0934   102.0964   -68.57253  -40.30413  -54.43833  189.3736   3.293438   2.552147   0.3141994  95.55234   104.7755   0.0000302  0.01008971 0.05837394 1053.399   2303.399   1.921212  
5865       8.75       9.555735   8.856293   1.71917    0.03764363 52.86101   100.7893   100.792    -68.15838  -39.51947  -53.83892  194.8671   3.344883   2.569017   0.3102789  94.50788   104.1438   0.0000271  0.01040594 0.05706783 1053.147   2303.147   1.906685  
5865.5     8.75       9.555827   8.856503   1.867588   0.0352424  52.5943    99.16685   99.197     -68.64455  -40.24635  -54.44545  199.0602   3.407463   2.542684   0.3043154  88.62856   103.4894   0.0003039237 0.01055731 0.05639301 1052.644   2302.644   1.885506  
5866       8.75       9.555627   8.856395   1.743727   0.03400479 52.40253   97.33841   97.51305   -68.43453  -40.78566  -54.6101   176.9747   3.45713    2.491728   0.295948   102.4761   102.8925   0.001792513 0.01087254 0.05596253 1052.066   2302.066   1.857513  
5866.5     8.75       9.555614   8.856421   1.894823   0.03312177 52.29174   96.14446   96.61074   -68.17414  -40.56009  -54.36712  187.9205   3.469821   2.433629   0.2899611  111.4074   102.385    0.004838034 0.01108623 0.0552898  1051.681   2301.681   1.838617  
5867       8.75       9.555758   8.856383   1.86655    0.03301629 52.23921   95.94721   96.52437   -68.2515   -41.29777  -54.77464  180.1711   3.477679   2.345963   0.2893343  111.4074   101.9395   0.005997312 0.01109179 0.05547953 1051.654   2301.654   1.83669   
5867.5     8.75       9.555882   8.856318   1.747465   0.03279275 52.21331   96.18758   96.49856   -68.21727  -42.55599  -55.38663  181.5273   3.487457   2.237084   0.2911198  111.4074   101.5068   0.003227779 0.01101693 0.05578153 1051.925   2301.925   1.842204  
