~Version
 VERS              .         2.0                           : CWLS LOG ASCII STANDARD - VERSION 2.0
 WRAP              .         NO                            : ONE LINE PER DEPTH STEP
 DLM               .         SPACE                         : DELIMITING CHARACTER(SPACE TAB OR COMMA)
~Well Information
#_______________________________________________________________________________
#
#PARAMETER_NAME    .UNIT     VALUE                         : DESCRIPTION
#_______________________________________________________________________________
STRT               .ft       6000                          : First reference value
STOP               .ft       10942                         : Last reference value
STEP               .ft       0.5                           : Step increment
NULL               .         -9999                         : Missing value
COMP               .         University of Utah            : Company
WELL               .         Forge 16A(78)-32              : Well name
FLD                .         Wildcat                       : Field
LOC                .                                       : Location
CNTY               .         Beaver                        : County
STAT               .         Utah                          : State
CTRY               .         USA                           : Country
SRVC               .         Schlumberger                  : Service Company
DATE               .         26-Dec-2020                   : Date
UWI                .         0000000000                    : Unique Well ID
APD                .ft       32                            : Elevation of Depth Reference (LMF) Above Permanent Datum
API                .                                       : API NUMBER
BHS                .         OPEN                          : Borehole Status (Open or Cased Hole)
BHT                .degF     270                           : Bottom Hole Temperature
BLI                .ft       -999.25                       : Bottom Log Interval
BS                 .in       8.75                          : Bit Size
CBDR               .ft       5132                          : Casing Bottom of Driller
CBLO               .ft       5110                          : Logger Casing Shoe Depth
CSIZ               .in       9.625                         : Current Casing Size
CWEI               .lbm/ft   40                            : Casing Weight
DFD                .lbm/gal  9                             : Drilling Fluid Density
DFT                .         WBM                           : Drilling Fluid Type
DLAB               .         26-Dec-2020                   : Date Logger At Bottom
EDF                .ft       5434.5                        : Elevation of Drill Floor
EGL                .ft       5403.5                        : Elevation of Ground Level
EKB                .ft       5435.5                        : Elevation of Kelly Bushing
EPD                .ft       5403.5                        : Elevation of Permanent Datum (PDAT) above Mean Sea Level
GDAT               .                                       : Geodetic Datum
LMF                .         KB                            : Logging Measured From (Name of Logging Elevation Reference)
LUL                .         Fort Morgan, CO               : Logging Unit Location
LUN                .         2801                          : Logging Unit Number
LATI               .         38° 30' 14.447" N             : Latitude
LONG               .         112° 53' 47.066" W            : Longitude
MCST               .degF     68                            : Mudcake Sample Temperature
MFST               .degF     68                            : Mud Filtrate Sample Temperature
MRT                .degF     322                           : Maximum Recorded Temperature
MST                .degF     68                            : Mud Sample Temperature
ORIGINALWELLNAME   .         Forge 16A(78)-32              : 
PDAT               .         GL                            : Permanent Datum
PRODUCER-CODE      .         440                           : 
PRODUCER-NAME      .         Schlumberger                  : 
RMB                .ohm.m    0.05403042                    : Resistivity of Mud at Bottom Hole Temperature
RMCS               .ohm.m    -999.25                       : Resistivity of Mud Cake Sample
RMFS               .ohm.m    0.15                          : Resistivity of Mud Filtrate Sample
RMS                .ohm.m    0.2                           : Resistivity of Mud Sample
RUN                .         5B                            : Run Number
TDD                .ft       10987                         : Driller Total Depth
TDL                .ft       10987                         : Logger Total Depth
TLAB               .         17_37_17                      : Time Logger At Bottom
TLI                .ft       -999.25                       : Top Log Interval
~Parameter Information Block
#_______________________________________________________________________________
#
#PARAMETER_NAME    .UNIT     VALUE                         : DESCRIPTION
#_______________________________________________________________________________
SET                .         LQC_SonicFracture             : 
TLFamily_BS_RM     .         Bit Size                      : 
TLFamily_C1_13     .         Caliper                       : 
TLFamily_C1_24     .         Caliper                       : 
TLFamily_DEVI      .         Hole Deviation                : 
TLFamily_DPHI      .         Density Porosity              : 
TLFamily_DTCO_MPS_final .         Compressional Slowness        : 
TLFamily_DTSH_FAST_final .        Fast Shear Slowness           : 
TLFamily_DTSH_SLOW_final .        Slow Shear Slowness           : 
TLFamily_DTST_MLF_FA_R_4 .        Stoneley Slowness             : 
TLFamily_DTST_STM_2 .        Stoneley Slowness             : 
TLFamily_GR_TMG    .         Gamma Ray                     : 
TLFamily_MD        .         Measured Depth                : 
TLFamily_RB        .         Relative Bearing              : 
TLFamily_RHOB_model .        Bulk Density                  : 
TLFamily_STRC_DN_7 .         Reflection Coefficient        : 
TLFamily_STRC_DN_STM_6 .     Reflection Coefficient        : 
TLFamily_STTC_R_5  .         Transmission Coefficient      : 
TLFamily_STTC_R_STM_8 .      Transmission Coefficient      : 
TLFamily_TENS      .         Tension                       : 
TLFamily_TNPH      .         Thermal Neutron Porosity      : 
TLFamily_TVD       .         True Vertical Depth           : 
~Curve Information
#_______________________________________________________________________________
#
#LOGNAME           .UNIT     LOG_ID                        : DESCRIPTION
#_______________________________________________________________________________
MD                 .ft                                     : Measured Depth 
BS_RM              .in                                     : Bit Size 
C1_13              .in                                     : Caliper Section 1, Pads 1-3 
C1_24              .in                                     : Caliper Section 1, Pads 2-4 
DEVI               .deg                                    : Hole Deviation 
DPHI               .ft3/ft3                                : Density Porosity using sandstone matrix 
DTCO_MPS           .us/ft                                  : Compressional slowness 
DTSH_FAST          .us/ft                                  : Fast Shear Slowness 
DTSH_SLOW          .us/ft                                  : Slow Shear Slowness 
DTST               .us/ft                                  : Stoneley slowness 
DTST_STM_2         .us/ft                                  : Modeled Stoneley slowness computed from wavenumber at dominant frequency of source wavelet 
GR_TMG             .gAPI                                   : Gamma Ray 
RB                 .deg                                    : Relative Bearing 
RHOB_model         .g/cm3                                  : Bulk density (g/cc) 
STRC_DN_7          .unitless                               : Down-going reflection coefficient for Stoneley waveform 
STRC_DN_STM_6      .unitless                               : Down-going reflection coefficient for Modeled Stoneley waveform 
STTC_R_5           .unitless                               : Transmission coefficient for Stoneley waveform from receiver array 
STTC_R_STM_8       .unitless                               : Transmission coefficient for Modeled Stoneley waveform from receiver array 
TENS               .lbf                                    : Cable Tension 
TNPH               .ft3/ft3                                : Thermal Neutron Porosity (Ratio Method) in Selected Lithology 
TVD                .ft                                     : True Vertical Depth 
~Ascii
# ...
9605       8.75       9.259073   8.532206   60.35065   0.03225639 52.1384    97.93323   98.45731   211.1333   210.5519   156.093    168.9909   2.596777   0.002753616 0.0000312  1.009855   1.012154   -9999      0.04622472 8006.502  
9605.5     8.75       9.259127   8.552872   60.14878   0.03042338 51.89796   97.74226   97.88167   211.7111   210.3884   147.9148   168.7048   2.599802   0.004525586 0.0000353  1.003056   1.011191   -9999      0.05494412 8006.734  
9606       8.75       9.259056   8.583394   60.27296   0.02851791 51.6828    97.3903    97.53474   209.0625   210.3592   152.1575   168.8033   2.602945   0.005238242 0.0000781  1.025214   1.012761   -9999      0.06735327 8006.965  
9606.5     8.75       9.259089   8.579833   59.91962   0.02714881 51.54964   97.08758   97.72449   212.1017   210.2495   126.701    169.408    2.605205   0.005300417 0.0000646  1.010528   1.012441   -9999      0.07994647 8007.197  
9607       8.75       9.25911    8.427884   60.31765   0.0273027  51.54422   96.49901   98.30542   211.8171   210.0233   119.4361   168.4378   2.60495    0.006101364 0.0000668  1.013499   1.005911   -9999      0.07961645 8007.429  
9607.5     8.75       9.259079   8.395776   59.91323   0.0283542  51.65237   95.72744   99.01493   210.0938   209.8608   133.7916   169.6137   2.603216   0.004675296 0.0000593  1.031834   1.002088   -9999      0.07502823 8007.66   
9608       8.75       9.259187   8.395535   59.80383   0.02979605 51.83003   95.33038   99.88537   211.7566   209.806    149.9489   169.4181   2.600837   0.00398127 0.0000379  1.032108   1.00686    -9999      0.06854054 8007.892  
9608.5     8.75       9.259124   8.395357   60.44899   0.03154243 52.03957   95.60728   100.9114   209.8752   210.0773   143.0909   169.7815   2.597955   0.004398671 0.0000285  1.016197   1.010099   -9999      0.06093349 8008.124  
9609       8.75       9.259046   8.39527    60.33886   0.03323246 52.24746   96.24024   101.3828   210.3137   210.2223   139.8748   169.3521   2.595166   0.004183405 0.0000215  0.9952365  1.013604   -9999      0.05609902 8008.355  
9609.5     8.75       9.259026   8.395376   59.79621   0.03455156 52.44055   96.6655    100.7637   211.8823   210.3104   149.9489   169.075    2.59299    0.003495711 0.0000232  0.9723403  1.013582   -9999      0.05553718 8008.587  
9610       8.75       9.258983   8.40071    60.54965   0.0356506  52.65937   96.76272   99.56679   212.1771   210.0944   160.2943   169.2406   2.591177   0.00357498 0.0000357  0.9606966  1.013553   -9999      0.05522057 8008.819  
9610.5     8.75       9.259057   8.475636   60.43846   0.03814482 52.95663   96.82401   98.42163   209.6666   210.3619   153.8512   169.593    2.587061   0.005825581 0.0000391  1.015744   1.015437   -9999      0.05478572 8009.05   
9611       8.75       9.259053   8.550443   60.40956   0.04111667 53.31264   96.75517   97.38698   212.6485   210.3256   141.6185   169.1171   2.582158   0.008211398 0.0000402  1.026491   1.019002   -9999      0.05641601 8009.282  
9611.5     8.75       9.259093   8.550292   61.40903   0.04349363 53.68961   96.3427    96.48657   209.7899   210.0365   129.3746   169.2646   2.578236   0.005447896 0.0000334  0.9770405  1.014392   -9999      0.06208116 8009.514  
9612       8.75       9.259085   8.550361   60.31901   0.04682513 54.05499   95.95539   95.97344   214.4993   210.3948   144.5728   170.2491   2.572739   0.00676812 0.0000230  1.000835   1.013923   -9999      0.06616981 8009.746  
9612.5     8.75       9.259113   8.550307   60.43267   0.04950424 54.27126   95.78246   95.80235   211.6652   210.1962   137.1626   169.9819   2.568318   0.005746806 0.0000144  1.110317   1.009683   -9999      0.06378692 8009.978  
9613       8.75       9.259113   8.550349   60.41402   0.04833577 54.19718   95.63911   95.78807   211.5951   210.1339   139.4874   170.6243   2.570246   0.006001957 0.0000086  1.150875   1.015182   -9999      0.0591288  8010.209  
9613.5     8.75       9.259196   8.550468   61.81745   0.04540943 53.86762   95.56841   96.20928   212.3023   210.0518   146.4618   171.8051   2.575074   0.008343991 0.0000051  1.164486   1.010516   -9999      0.05639211 8010.441  
9614       8.75       9.259164   8.550516   60.35611   0.0421876  53.37707   95.63853   97.34789   209.4916   210.0919   159.1512   170.6047   2.58039    0.006645961 0.0000050  1.098228   1.010859   -9999      0.05742909 8010.673  
9614.5     8.75       9.259191   8.550673   59.99614   0.03658    52.83271   95.74978   98.83481   210.7028   210.0501   163.4328   171.4423   2.589643   0.006066471 0.0000067  1.163702   1.010362   -9999      0.05597188 8010.905  
9615       8.75       9.25919    8.550627   60.32555   0.03315363 52.43571   95.85897   100.0088   210.2991   210.0293   138.3249   171.8582   2.595296   0.007213288 0.0000088  1.321859   1.010701   -9999      0.05564599 8011.137  
9615.5     8.75       9.25921    8.550757   61.14279   0.03311332 52.2661    96.0426    100.6661   211.405    210.0287   148.5928   171.5585   2.595363   0.004542425 0.0000109  1.302989   1.011451   -9999      0.05554263 8011.369  
9616       8.75       9.259271   8.550776   60.34047   0.03275454 52.21048   96.26953   100.8829   211.5106   210.2374   165.9319   172.6353   2.595955   0.003335586 0.0000127  1.16206    1.01287    -9999      0.05706559 8011.6    
9616.5     8.75       9.259135   8.550862   60.61916   0.03252696 52.18296   96.34485   100.6145   210.369    210.0079   162.5415   172.6115   2.596331   0.006076783 0.0000125  1.178531   1.012743   -9999      0.0568352  8011.832  
9617       8.75       9.259222   8.550682   61.40956   0.03259328 52.15437   96.23017   99.97565   210.4285   210.1615   159.4419   173.6396   2.596221   0.007443401 0.0000104  1.250538   1.013996   -9999      0.0547312  8012.064  
9617.5     8.75       9.259257   8.55056    60.9418    0.03215878 52.08648   95.81908   98.86125   210.4999   210.0371   169.9035   173.2703   2.596938   0.008603916 0.0000090  1.116971   1.012688   -9999      0.05493784 8012.296  
9618       8.75       9.259284   8.550518   60.11555   0.03112758 51.95338   94.89497   96.80775   211.7079   210.1096   156.8264   172.9712   2.598639   0.004237534 0.0000082  1.130254   1.015123   -9999      0.05819236 8012.528  
9618.5     8.75       9.259196   8.550809   60.33612   0.02957577 51.75275   93.70702   94.42896   210.8037   209.9141   141.6669   172.2215   2.6012     0.003142952 0.0000085  1.103694   1.013741   -9999      0.06299474 8012.76   
9619       8.75       9.259237   8.550433   60.2999    0.0275664  51.48939   92.742     92.87289   210.7071   209.8331   133.6755   173.2293   2.604516   0.004153482 0.0000072  1.147963   1.01509    -9999      0.06546281 8012.992  
9619.5     8.75       9.259251   8.550619   60.71419   0.02505246 51.17231   92.17475   92.18422   214.1393   209.9395   128.154    173.9268   2.608664   0.004982791 0.0000130  0.9874952  1.014984   -9999      0.068147   8013.224  
9620       8.75       9.259206   8.550567   60.8451    0.02206703 50.83937   91.76963   91.76963   211.3999   210.0724   114.6897   174.6088   2.613589   0.007379336 0.0000188  0.8616705  1.015873   -9999      0.07157216 8013.456  
9620.5     8.75       9.259191   8.550557   61.21982   0.01949789 50.57784   91.49387   91.49387   211.9361   209.6915   102.0001   173.9274   2.617828   0.00789516 0.0000215  0.8681069  1.012553   -9999      0.0769996  8013.688  
9621       8.75       9.259221   8.550488   60.30842   0.01857485 50.4891    91.98285   91.99155   210.7732   210.3578   119.1454   174.3685   2.619351   0.009642445 0.0000204  0.9390717  1.013817   -9999      0.07945269 8013.919  
9621.5     8.75       9.259254   8.550602   59.66571   0.01976246 50.6186    93.63272   93.76965   210.5946   210.5674   104.0344   175.5267   2.617392   0.00610661 0.0000212  0.9746435  1.012769   -9999      0.08201324 8014.151  
9622       8.75       9.259212   8.550489   59.69859   0.02294939 50.91816   96.06692   96.98004   212.1839   210.6856   82.67535   175.4958   2.612134   0.0066368  0.0000236  0.9668064  1.014281   -9999      0.08649013 8014.383  
