~Version
 VERS              .         3.0                           : CWLS LOG ASCII STANDARD - VERSION 3.0
 WRAP              .         NO                            : ONE LINE PER DEPTH STEP
 DLM               .         SPACE                         : DELIMITING CHARACTER(SPACE TAB OR COMMA)
~Well Information
#_______________________________________________________________________________
#
#PARAMETER_NAME    .UNIT     VALUE                         : DESCRIPTION
#_______________________________________________________________________________
STRT               .ft       5000                          : First reference value
STOP               .ft       6000                          : Last reference value
STEP               .ft       0.5                           : Step increment
NULL               .         -9999                         : Missing value
COMP               .         University of Utah            : Company
WELL               .         Forge 16A(78)-32              : Well name
FLD                .         Wildcat                       : Field
LOC                .                                       : Location
SRVC               .         Schlumberger                  : Service Company
CTRY               .         US                            : Country
STAT               .         Utah                          : State
CNTY               .         Beaver                        : County
API                .                                       : API NUMBER
DATE               .         26-Dec-2020                   : Service Date
LATI               .         38° 30' 14.447" N             : Latitude
LONG               .         112° 53' 47.066" W            : Longitude
GDAT               .                                       : Geodetic Datum
APD                .ft       32                            : Elevation of Depth Reference (LMF) Above Permanent Datum
BHS                .         OPEN                          : Borehole Status (Open or Cased Hole)
BHT                .degF     270                           : Bottom Hole Temperature
BLI                .ft       -999.25                       : Bottom Log Interval
BS                 .in       8.75                          : Bit Size
CBDR               .ft       5132                          : Casing Bottom of Driller
CBLO               .ft       5110                          : Logger Casing Shoe Depth
CSIZ               .in       9.625                         : Current Casing Size
CWEI               .lbm/ft   40                            : Casing Weight
COUNTRY            .         USA                           : Country
DFD                .lbm/gal  9                             : Drilling Fluid Density
DFT                .         WBM                           : Drilling Fluid Type
DLAB               .         26-Dec-2020                   : Date Logger At Bottom
EDF                .ft       5434.5                        : Elevation of Drill Floor
EGL                .ft       5403.5                        : Elevation of Ground Level
EKB                .ft       5435.5                        : Elevation of Kelly Bushing
EPD                .ft       5403.5                        : Elevation of Permanent Datum (PDAT) above Mean Sea Level
LMF                .         KB                            : Logging Measured From (Name of Logging Elevation Reference)
LUL                .         Fort Morgan, CO               : Logging Unit Location
LUN                .         2801                          : Logging Unit Number
MCST               .degF     68                            : Mudcake Sample Temperature
MFST               .degF     68                            : Mud Filtrate Sample Temperature
MRT                .degF     322                           : Maximum Recorded Temperature
MST                .degF     68                            : Mud Sample Temperature
ORIGINALWELLNAME   .         Forge 16A(78)-32              : 
PDAT               .         GL                            : Permanent Datum
PRODUCER-CODE      .         440                           : 
PRODUCER-NAME      .         Schlumberger                  : 
RMB                .ohm.m    0.05403042                    : Resistivity of Mud at Bottom Hole Temperature
RMCS               .ohm.m    -999.25                       : Resistivity of Mud Cake Sample
RMFS               .ohm.m    0.15                          : Resistivity of Mud Filtrate Sample
RMS                .ohm.m    0.2                           : Resistivity of Mud Sample
RUN                .         5B                            : Run Number
TDD                .ft       10987                         : Driller Total Depth
TDL                .ft       10987                         : Logger Total Depth
TLAB               .         17_37_17                      : Time Logger At Bottom
TLI                .ft       -999.25                       : Top Log Interval
UWI                .         0000000000                    : UNIQUE WELL ID
~Parameter Information Block
#_______________________________________________________________________________
#
#PARAMETER_NAME    .UNIT     VALUE                         : DESCRIPTION
#_______________________________________________________________________________
SET                .         ThruBitDP_Aniso_5000ft-6000ft : 
TLFamily_BS_RM     .         Bit Size                      : 
TLFamily_C1_13     .         Caliper                       : 
TLFamily_C1_24     .         Caliper                       : 
TLFamily_DEVI      .         Hole Deviation                : 
TLFamily_DPHI      .         Density Porosity              : 
TLFamily_DTCO_MPS_final .    Compressional Slowness        : 
TLFamily_DTSH_FAST .         Fast Shear Slowness           : 
TLFamily_DTSH_SLOW .         Slow Shear Slowness           : 
TLFamily_FSA_TOH_REF0_ERRMINUS .        Fast Shear Azimuth            : 
TLFamily_FSA_TOH_REF0_ERRPLUS .         Fast Shear Azimuth            : 
TLFamily_FSA_TOH_REF0_OVERALL .         Fast Shear Azimuth            : 
TLFamily_GR_TMG    .         Gamma Ray                     : 
TLFamily_MAXXENE_OVERALL .   Acoustic Energy               : 
TLFamily_MINXENE_OVERALL .   Acoustic Energy               : 
TLFamily_PR_FAST   .         Poisson Ratio (Dynamic)       : 
TLFamily_RB_TBDS   .         Relative Bearing              : 
TLFamily_SENSOR_AZIM_QCI .   Sensor Azimuth                : 
TLFamily_SLOANI    .         Acoustic Anisotropy           : 
TLFamily_TDEP      .         Measured Depth                : 
TLFamily_TIMANI    .         Acoustic Anisotropy           : 
TLFamily_TNPH      .         Thermal Neutron Porosity      : 
TLFamily_TW_B_L10  .         Travel Time                   : 
TLFamily_TW_E_L10  .         Travel Time                   : 
TLFamily_VPVS_FAST .         VpVs (Compressional To Shear) Ratio: 
~Curve Information
#_______________________________________________________________________________
#
#LOGNAME           .UNIT     LOG_ID                        : DESCRIPTION
#_______________________________________________________________________________
TDEP               .ft                                     : Measured Depth {F}
BS_RM              .in                                     : Bit Size {F}
C1_13              .in                                     : Caliper Section 1, Pads 1-3 {F}
C1_24              .in                                     : Caliper Section 1, Pads 2-4 {F}
DEVI               .deg                                    : Hole Deviation {F}
DPHI               .ft3/ft3                                : Density Porosity {F}
DTCO_MPS_final     .us/ft                                  : Compressional slowness {F}
DTSH_FAST          .us/ft                                  : Fast Shear Slowness {F}
DTSH_SLOW          .us/ft                                  : Slow Shear Slowness {F}
FSA_TOH_REF0_ERRMINUS .deg                                 : Fast shear azimuth error minus(TOH REF0) - swapped {F}
FSA_TOH_REF0_ERRPLUS .deg                                  : Fast shear azimuth error plus(TOH REF0) - swapped {F}
FSA_TOH_REF0_OVERALL .deg                                  : Fast shear azimuth(TOH REF0) - overall - swapped {F}
GR_TMG             .gAPI                                   : Gamma Ray {F}
MAXXENE_OVERALL    .%                                      : Maximum cross energy - overall {F}
MINXENE_OVERALL    .%                                      : Minimum cross energy - overall {F}
PR_FAST            .unitless                               : Possion's Ratio {F}
RB_TBDS            .deg                                    : TBDS Relatvie Bearing 6inch {F}
SENSOR_AZIM_QCI    .deg                                    : Tool azimuth for input QC {F}
SLOANI             .unitless                               : Slowness-based anisotropy {F}
TIMANI             .unitless                               : Time-based anisotropy {F}
TNPH               .ft3/ft3                                : Thermal Neutron Porosity (Ratio Method) in Selected Lithology {F}
TW_B_L10           .us                                     : Time window begin - packed {F}
TW_E_L10           .us                                     : Time window end - packed {F}
VPVS_FAST          .unitless                               : VpVs Ratio {F}
~Ascii
# ...
5062       12.25      9.316932   8.960382   1.514525   0.05367158 55.72649   104.9713   106.2837   18.66902   48.38408   33.52655   107.1729   3.642756   2.525844   0.3037892  102.4761   89.6302    0.01242516 0.0111327  0.1265454  1137.38    2387.38    1.883688  
5062.5     12.25      9.298677   8.881152   1.496896   0.07552733 58.29062   109.1115   110.1005   18.50021   46.28969   32.39495   118.1283   3.740311   2.517697   0.3003062  95.55234   90.10665   0.009023355 0.01121886 0.1277074  1146.19    2396.19    1.871853  
5063       12.25      9.274158   8.847207   1.509456   0.09561215 60.9099    113.6324   114.2176   18.19643   43.86948   31.03296   130.1882   3.826351   2.457008   0.2984194  102.4761   90.67533   0.005136622 0.01144408 0.138396   1155.861   2405.861   1.865582  
5063.5     12.25      9.276746   8.838653   1.49682    0.1070909  62.7707    116.9891   117.5045   16.04396   44.16301   30.10348   128.2509   3.839823   2.656918   0.2978636  88.62856   91.28365   0.004395887 0.01150003 0.1445047  1165.057   2415.057   1.863754  
5064       12.25      9.277121   8.836084   1.513628   0.1102558  63.79147   118.8529   119.7404   14.87053   44.28077   29.57565   111.1748   3.778815   2.73717    0.2976788  88.62856   91.89626   0.007439156 0.01119014 0.155554   1174.441   2424.441   1.863147  
5064.5     12.25      9.277188   8.837203   1.682316   0.112266   64.53594   119.8762   121.0877   10.97437   41.56751   26.27094   108.933    3.69197    2.745046   0.2959473  88.62856   92.47655   0.01005496 0.008414518 0.172716   1184.007   2434.007   1.857511  
5065       12.25      9.277216   8.839317   1.508223   0.1202515  65.34008   120.4197   121.7806   4.362066   37.7226    21.04234   113.3335   3.661897   2.806458   0.2913651  88.62856   92.99779   0.01123775 0.007630962 0.2028345  1192.654   2442.654   1.842968  
5065.5     12.25      9.275663   8.839074   1.500078   0.1223545  66.04148   120.7781   121.8749   -2.425194  31.71692   14.64586   111.0087   3.701225   2.849568   0.2867431  88.62856   93.43716   0.009039707 0.00665024 0.2360066  1201.524   2451.524   1.828822  
5066       12.25      9.27432    8.857956   1.504397   0.1259284  66.67815   120.9169   121.3985   -7.718586  25.5829    8.932156   115.4646   3.845467   2.808393   0.281523   88.62856   93.76432   0.003974903 0.005946279 0.2355754  1211.256   2461.256   1.813442  
5066.5     12.25      9.274335   8.874995   1.498381   0.1295449  67.38567   120.6215   120.7159   -10.96256  20.47046   4.753946   113.7985   4.049597   2.723153   0.2731562  88.62856   93.9349    0.0007824846 0.005880863 0.2269966  1217.581   2467.581   1.790017  
5067       12.25      9.274382   8.884197   1.510504   0.1349612  68.07451   120.2794   120.2936   -13.35743  15.98576   1.314165   116.6753   4.367737   2.721506   0.2643577  94.50788   93.90565   0.0001181642 0.006560681 0.2209892  1215.682   2465.682   1.766878  
5067.5     12.25      9.274398   8.897621   1.580569   0.1373552  68.41721   119.7765   119.871    -14.71467  12.73375   -0.9904594 104.4219   4.620341   2.605251   0.2578546  88.62856   93.63474   0.0007886388 0.007669259 0.2287597  1216.244   2466.244   1.750678  
5068       12.25      9.27874    8.923349   1.571551   0.1368285  68.00463   118.6744   119.1949   -14.61905  9.874227   -2.372411  108.9745   4.861678   2.486394   0.2555428  88.62856   93.13179   0.004376547 0.008861994 0.2429768  1215.803   2465.803   1.745093  
5068.5     12.25      9.287009   8.998752   1.511974   0.1290133  66.3583    116.482    117.9366   -13.70912  7.465919   -3.121601  96.18813   5.092769   2.30944    0.2597598  88.62856   92.4558    0.01241084 0.01007565 0.2447987  1213.045   2463.045   1.755349  
5069       12.25      9.346651   9.040889   1.504473   0.1122103  63.16436   113.0931   115.9223   -12.70065  6.723549   -2.988549  104.9062   5.292744   2.226461   0.2733184  88.62856   91.70734   0.02470778 0.01155688 0.2489625  1208.071   2458.071   1.790457  
5069.5     12.25      9.310394   9.360636   1.540608   0.07205033 59.35036   108.6215   113.1312   -12.8511   5.536893   -3.657102  110.1369   5.555001   2.249123   0.2871921  88.62856   90.99105   0.04067376 0.01290103 0.2402304  1202.571   2452.571   1.830174  
5070       12.25      9.306022   9.373221   1.507443   0.061203   56.74587   104.097    110.0365   -13.41102  4.242586   -4.584218  126.701    5.791122   2.331315   0.2885993  88.62856   90.41306   0.05547466 0.01406747 0.2365938  1195.434   2445.434   1.834442  
5070.5     12.25      9.307777   9.443574   1.49932    0.0554272  55.511     100.8453   107.7027   -13.89665  3.463346   -5.216652  130.043    5.983639   2.409627   0.2826368  88.62856   89.99747   0.06576363 0.01537934 0.2171844  1187.22    2437.22    1.816672  
5071       12.25      9.333906   9.4544     1.508223   0.05167334 54.86591   98.77485   106.0287   -14.56763  3.316041   -5.625794  122.0514   6.175247   2.522977   0.2768917  88.62856   89.72657   0.07083711 0.01643293 0.1945035  1177.463   2427.463   1.800295  
5071.5     12.25      9.360788   9.433886   1.543189   0.0488194  54.42726   97.21593   104.6314   -15.04299  3.543656   -5.749667  107.5215   6.337229   2.625987   0.2717287  88.62856   89.57275   0.07347621 0.01739652 0.1689025  1167.632   2417.632   1.786162  
5072       12.25      9.374224   9.405607   1.508223   0.04650731 54.06826   95.87401   103.7167   -15.12503  4.068183   -5.528423  120.6566   6.49487    2.745182   0.2668182  88.62856   89.46492   0.07858816 0.02072828 0.15563    1158.251   2408.251   1.773203  
5072.5     12.25      9.40131    9.403624   1.500646   0.04401461 53.74041   94.85095   103.0407   -15.05875  4.957311   -5.05072   131.2344   6.536104   2.866231   0.2636121  88.62856   89.35373   0.0827702  0.02114754 0.1458541  1149.171   2399.171   1.764984  
5073       12.25      9.427358   9.325191   1.571381   0.0417388  53.44908   94.54891   102.133    -15.31014  6.110397   -4.599873  146.0743   6.381998   3.030356   0.2651694  88.62856   89.23476   0.07712082 0.0207548  0.1377043  1140.212   2390.212   1.768953  
5073.5     12.25      9.473538   9.259254   1.504442   0.04006236 53.22203   95.07113   101.2647   -15.61638  8.363241   -3.626571  128.7934   6.198943   3.191767   0.2717842  88.62856   89.09798   0.06309147 0.02036455 0.1306004  1131.866   2381.866   1.786312  
5074       12.25      9.497212   9.120728   1.599913   0.03883457 53.09098   95.84795   100.8242   -15.54685  11.56946   -1.988692  126.701    6.038651   3.360163   0.2786924  88.62856   88.9711    0.05060414 0.02013404 0.1251611  1124.048   2374.048   1.805353  
5074.5     12.25      9.494357   9.017599   1.508223   0.0386697  53.10235   96.52551   100.5071   -14.07715  14.25822   0.09053422 132.6583   5.908869   3.482013   0.282998   88.62856   88.857     0.04041585 0.01990707 0.1236727  1114.862   2364.862   1.817726  
5075       12.25      9.426865   8.991978   1.555614   0.04048847 53.26036   96.87003   99.87681   -10.97121  17.2421    3.135443   133.2105   5.780305   3.516402   0.283366   88.62856   88.7678    0.03056491 0.02054609 0.1219992  1106.283   2356.283   1.818802  
5075.5     12.25      9.394368   9.000061   1.599973   0.04231389 53.49274   96.9436    99.09303   -7.410336  19.48656   6.038113   140.456    5.733869   3.452158   0.2811188  88.62856   88.70612   0.02192885 0.02089872 0.1249959  1098.218   2348.218   1.812276  
5076       12.25      9.394678   9.026606   1.516628   0.04414611 53.73807   96.94359   98.86095   -4.832902  21.03124   8.099169   137.7438   5.688962   3.358266   0.2782138  88.62856   88.66805   0.01958449 0.02097973 0.1281047  1094.392   2344.392   1.804002  
5076.5     12.25      9.394146   9.15424    1.593859   0.0459643  53.9672    96.87094   99.48492   -2.789296  22.78431   9.997506   150.2811   5.532312   3.210366   0.2749788  88.62856   88.64693   0.02662488 0.02079694 0.1327662  1090.091   2340.091   1.794997  
5077       12.25      9.394118   9.35568    1.652915   0.04731158 54.15702   96.54536   100.305    -0.6209269 25.38753   12.3833    143.2652   5.309448   3.101227   0.2704311  88.62856   88.63637   0.03819821 0.02036772 0.1363559  1087.369   2337.369   1.782693  
