~Version
 VERS              .         3.0                           : CWLS LOG ASCII STANDARD - VERSION 3.0
 WRAP              .         NO                            : ONE LINE PER DEPTH STEP
 DLM               .         SPACE                         : DELIMITING CHARACTER(SPACE TAB OR COMMA)
~Well Information
#_______________________________________________________________________________
#
#PARAMETER_NAME    .UNIT     VALUE                         : DESCRIPTION
#_______________________________________________________________________________
STRT               .ft       5000                          : First reference value
STOP               .ft       6000                          : Last reference value
STEP               .ft       0.5                           : Step increment
NULL               .         -9999                         : Missing value
COMP               .         University of Utah            : Company
WELL               .         Forge 16A(78)-32              : Well name
FLD                .         Wildcat                       : Field
LOC                .                                       : Location
SRVC               .         Schlumberger                  : Service Company
CTRY               .         US                            : Country
STAT               .         Utah                          : State
CNTY               .         Beaver                        : County
API                .                                       : API NUMBER
DATE               .         26-Dec-2020                   : Service Date
LATI               .         38° 30' 14.447" N             : Latitude
LONG               .         112° 53' 47.066" W            : Longitude
GDAT               .                                       : Geodetic Datum
APD                .ft       32                            : Elevation of Depth Reference (LMF) Above Permanent Datum
BHS                .         OPEN                          : Borehole Status (Open or Cased Hole)
BHT                .degF     270                           : Bottom Hole Temperature
BLI                .ft       -999.25                       : Bottom Log Interval
BS                 .in       8.75                          : Bit Size
CBDR               .ft       5132                          : Casing Bottom of Driller
CBLO               .ft       5110                          : Logger Casing Shoe Depth
CSIZ               .in       9.625                         : Current Casing Size
CWEI               .lbm/ft   40                            : Casing Weight
COUNTRY            .         USA                           : Country
DFD                .lbm/gal  9                             : Drilling Fluid Density
DFT                .         WBM                           : Drilling Fluid Type
DLAB               .         26-Dec-2020                   : Date Logger At Bottom
EDF                .ft       5434.5                        : Elevation of Drill Floor
EGL                .ft       5403.5                        : Elevation of Ground Level
EKB                .ft       5435.5                        : Elevation of Kelly Bushing
EPD                .ft       5403.5                        : Elevation of Permanent Datum (PDAT) above Mean Sea Level
LMF                .         KB                            : Logging Measured From (Name of Logging Elevation Reference)
LUL                .         Fort Morgan, CO               : Logging Unit Location
LUN                .         2801                          : Logging Unit Number
MCST               .degF     68                            : Mudcake Sample Temperature
MFST               .degF     68                            : Mud Filtrate Sample Temperature
MRT                .degF     322                           : Maximum Recorded Temperature
MST                .degF     68                            : Mud Sample Temperature
ORIGINALWELLNAME   .         Forge 16A(78)-32              : 
PDAT               .         GL                            : Permanent Datum
PRODUCER-CODE      .         440                           : 
PRODUCER-NAME      .         Schlumberger                  : 
RMB                .ohm.m    0.05403042                    : Resistivity of Mud at Bottom Hole Temperature
RMCS               .ohm.m    -999.25                       : Resistivity of Mud Cake Sample
RMFS               .ohm.m    0.15                          : Resistivity of Mud Filtrate Sample
RMS                .ohm.m    0.2                           : Resistivity of Mud Sample
RUN                .         5B                            : Run Number
TDD                .ft       10987                         : Driller Total Depth
TDL                .ft       10987                         : Logger Total Depth
TLAB               .         17_37_17                      : Time Logger At Bottom
TLI                .ft       -999.25                       : Top Log Interval
UWI                .         0000000000                    : UNIQUE WELL ID
~Parameter Information Block
#_______________________________________________________________________________
#
#PARAMETER_NAME    .UNIT     VALUE                         : DESCRIPTION
#_______________________________________________________________________________
SET                .         ThruBitDP_Aniso_5000ft-6000ft : 
TLFamily_BS_RM     .         Bit Size                      : 
TLFamily_C1_13     .         Caliper                       : 
TLFamily_C1_24     .         Caliper                       : 
TLFamily_DEVI      .         Hole Deviation                : 
TLFamily_DPHI      .         Density Porosity              : 
TLFamily_DTCO_MPS_final .    Compressional Slowness        : 
TLFamily_DTSH_FAST .         Fast Shear Slowness           : 
TLFamily_DTSH_SLOW .         Slow Shear Slowness           : 
TLFamily_FSA_TOH_REF0_ERRMINUS .        Fast Shear Azimuth            : 
TLFamily_FSA_TOH_REF0_ERRPLUS .         Fast Shear Azimuth            : 
TLFamily_FSA_TOH_REF0_OVERALL .         Fast Shear Azimuth            : 
TLFamily_GR_TMG    .         Gamma Ray                     : 
TLFamily_MAXXENE_OVERALL .   Acoustic Energy               : 
TLFamily_MINXENE_OVERALL .   Acoustic Energy               : 
TLFamily_PR_FAST   .         Poisson Ratio (Dynamic)       : 
TLFamily_RB_TBDS   .         Relative Bearing              : 
TLFamily_SENSOR_AZIM_QCI .   Sensor Azimuth                : 
TLFamily_SLOANI    .         Acoustic Anisotropy           : 
TLFamily_TDEP      .         Measured Depth                : 
TLFamily_TIMANI    .         Acoustic Anisotropy           : 
TLFamily_TNPH      .         Thermal Neutron Porosity      : 
TLFamily_TW_B_L10  .         Travel Time                   : 
TLFamily_TW_E_L10  .         Travel Time                   : 
TLFamily_VPVS_FAST .         VpVs (Compressional To Shear) Ratio: 
~Curve Information
#_______________________________________________________________________________
#
#LOGNAME           .UNIT     LOG_ID                        : DESCRIPTION
#_______________________________________________________________________________
TDEP               .ft                                     : Measured Depth {F}
BS_RM              .in                                     : Bit Size {F}
C1_13              .in                                     : Caliper Section 1, Pads 1-3 {F}
C1_24              .in                                     : Caliper Section 1, Pads 2-4 {F}
DEVI               .deg                                    : Hole Deviation {F}
DPHI               .ft3/ft3                                : Density Porosity {F}
DTCO_MPS_final     .us/ft                                  : Compressional slowness {F}
DTSH_FAST          .us/ft                                  : Fast Shear Slowness {F}
DTSH_SLOW          .us/ft                                  : Slow Shear Slowness {F}
FSA_TOH_REF0_ERRMINUS .deg                                 : Fast shear azimuth error minus(TOH REF0) - swapped {F}
FSA_TOH_REF0_ERRPLUS .deg                                  : Fast shear azimuth error plus(TOH REF0) - swapped {F}
FSA_TOH_REF0_OVERALL .deg                                  : Fast shear azimuth(TOH REF0) - overall - swapped {F}
GR_TMG             .gAPI                                   : Gamma Ray {F}
MAXXENE_OVERALL    .%                                      : Maximum cross energy - overall {F}
MINXENE_OVERALL    .%                                      : Minimum cross energy - overall {F}
PR_FAST            .unitless                               : Possion's Ratio {F}
RB_TBDS            .deg                                    : TBDS Relatvie Bearing 6inch {F}
SENSOR_AZIM_QCI    .deg                                    : Tool azimuth for input QC {F}
SLOANI             .unitless                               : Slowness-based anisotropy {F}
TIMANI             .unitless                               : Time-based anisotropy {F}
TNPH               .ft3/ft3                                : Thermal Neutron Porosity (Ratio Method) in Selected Lithology {F}
TW_B_L10           .us                                     : Time window begin - packed {F}
TW_E_L10           .us                                     : Time window end - packed {F}
VPVS_FAST          .unitless                               : VpVs Ratio {F}
~Ascii
# ...
5527       8.75       9.288105   8.854295   1.922932   0.04306426 53.68739   91.81968   95.94195   -5.527943  8.114037   1.293047   235.385    21.41766   3.541539   0.2402608  33.80607   33.54146   0.0439096  0.04995617 0.06163529 1026.179   2276.179   1.710265  
5527.5     8.75       9.289529   8.856288   1.910925   0.04675758 54.08088   92.45605   97.18448   -5.095744  9.09629    2.000273   205.3079   20.13585   3.568217   0.2399481  33.80607   33.66904   0.04986731 0.04857661 0.06078053 1026.248   2276.248   1.709589  
5528       8.75       9.289578   8.851123   2.503462   0.0497855  54.47999   93.00158   98.1071    -4.657834  10.08181   2.71199    208.5531   18.88159   3.596144   0.2387826  33.80607   33.74791   0.05343056 0.04724933 0.05833151 1025.869   2275.869   1.707078  
5528.5     8.75       9.290009   8.85383    1.738311   0.05205886 54.81231   93.3378    98.45094   -4.116009  10.70783   3.295909   203.0317   17.31644   3.648455   0.2368059  33.80607   33.78348   0.05332058 0.04516806 0.05527836 1024.861   2274.861   1.702862  
5529       8.75       9.290259   8.857395   1.999364   0.05391997 55.06041   93.6517    98.44011   -3.274985  12.02691   4.375964   201.0942   15.88199   3.749527   0.2358727  33.80607   33.79646   0.04985539 0.04322155 0.05655269 1023.912   2273.912   1.70089   
5529.5     8.75       9.290287   8.863478   1.667876   0.0552843  55.18175   93.99308   98.49398   -1.481181  13.77043   6.144622   191.8921   14.41945   3.781623   0.2370296  33.80607   33.80607   0.04676574 0.04100018 0.06050163 1023.487   2273.487   1.703336  
5530       8.75       9.290338   8.860736   1.867949   0.05457641 55.12621   94.15342   98.65641   1.470589   15.70713   8.58886    178.8151   13.16042   3.586696   0.2391936  33.80607   33.80607   0.04670914 0.03886069 0.06728926 1023.094   2273.094   1.707961  
5530.5     8.75       9.290343   8.850664   1.892152   0.05284549 54.91955   94.06783   98.82925   4.620246   18.11326   11.36676   170.2908   12.09484   3.361766   0.2414397  33.80607   33.80607   0.04936756 0.03679255 0.07640018 1023.361   2273.361   1.71283   
5531       8.75       9.290342   8.84881    1.932289   0.05061823 54.62985   93.82529   98.88765   7.630009   20.74043   14.18522   164.3336   11.33708   3.0523     0.243552   33.80607   33.80607   0.05253786 0.03483411 0.08376709 1024.807   2274.808   1.717473  
5531.5     8.75       9.290342   8.848696   1.739962   0.04818    54.32251   93.46892   98.92217   9.409695   21.81722   15.61346   156.3422   10.75152   2.87348    0.2449717  26.57214   33.79646   0.05668927 0.03297451 0.08853745 1027.575   2277.575   1.72063   
5532       8.75       9.290303   8.852807   1.918049   0.04587818 54.08961   93.19774   99.5082    9.430129   22.57025   16.00019   150.1426   10.11018   2.948755   0.24604    33.80607   33.78348   0.06549319 0.03102025 0.0901242  1030.944   2280.944   1.723025  
5532.5     8.75       9.29075    8.872822   1.95363    0.04514125 54.06237   93.3639    100.7536   8.555497   23.44193   15.99872   139.4874   9.368991   3.057018   0.2477821  19.33821   33.73845   0.07613615 0.0288535  0.0879272  1035.193   2285.193   1.726966  
5533       8.75       9.294546   8.873966   1.938666   0.04750116 54.31549   94.07278   102.0909   7.444393   23.56159   15.50299   149.9489   8.816012   3.047271   0.2499649  33.80607   33.66587   0.08174943 0.02709128 0.08474943 1040.417   2290.417   1.73197   
5533.5     8.75       9.294574   8.860747   1.86705    0.05128667 54.79251   95.08955   103.286    5.956573   23.78029   14.86843   158.5215   8.173527   3.008787   0.2514638  33.80607   33.53849   0.08263531 0.02530928 0.08458    1045.028   2295.028   1.735448  
5534       8.75       9.294846   8.854239   2.083699   0.05585029 55.37757   96.09813   103.9401   5.083579   25.0226    15.05309   166.4163   7.714889   3.096937   0.2514114  33.80607   33.33579   0.0784043  0.02398628 0.08663754 1049.309   2299.309   1.735326  
5534.5     8.75       9.297153   8.865885   2.005043   0.06028126 55.94113   97.20647   103.8738   3.473754   25.50465   14.4892    160.1199   7.132596   3.248129   0.2524079  33.80607   33.04465   0.06631508 0.02279603 0.09198326 1053.123   2303.124   1.737657  
5535       8.75       9.301241   8.874346   1.800353   0.06367085 56.34153   98.59307   103.5543   1.154713   25.14623   13.15047   146.4618   6.635075   3.41949    0.2575421  33.80607   32.6702    0.04908547 0.02208065 0.09689657 1056.735   2306.735   1.749918  
5535.5     8.75       9.301368   8.896288   2.242537   0.06401576 56.51299   99.83851   103.4828   -2.873626  22.56551   9.845941   157.5046   6.291688   3.611459   0.2642668  33.80607   32.24473   0.03584794 0.02219214 0.1059746  1060.255   2310.255   1.766647  
5536       8.75       9.301407   8.952633   1.859803   0.06398181 56.51562   100.6406   103.7488   -7.823736  18.01811   5.097189   162.1541   6.216904   3.651212   0.2697019  33.80607   31.82879   0.03041448 0.02308145 0.1173709  1063.635   2313.635   1.780758  
5536.5     8.75       9.298319   8.903877   1.654784   0.06335267 56.24595   100.905    103.4611   -12.84145  13.12891   0.1437287  164.4788   6.381947   3.570293   0.2746144  33.80607   31.49971   0.02501476 0.02371218 0.1324396  1066.841   2316.841   1.793996  
5537       8.75       9.289755   8.873321   1.995389   0.06420606 55.04366   100.6316   102.4074   -16.83821  9.284816   -3.776698  179.7353   6.652844   3.567089   0.2865406  33.80607   31.32917   0.01749276 0.02417396 0.1346292  1069.756   2319.756   1.828214  
5537.5     8.75       9.288506   8.863182   2.057206   0.02916851 52.87664   100.321    101.5033   -19.21674  6.086687   -6.565028  179.7063   6.981132   3.473564   0.3076639  33.80607   31.35802   0.01171557 0.02437563 0.1305342  1072.554   2322.554   1.897265  
5538       8.75       9.288512   8.862864   2.027453   0.0219515  51.20713   100.1997   101.0199   -20.58294  4.246199   -8.168373  199.4959   7.28935    3.389539   0.3232519  33.80607   31.58046   0.008151511 0.02449322 0.121976   1075.061   2325.061   1.956754  
5538.5     8.75       9.288515   8.864261   1.796353   0.01868603 50.43963   100.0423   100.7451   -21.57272  2.063375   -9.754671  191.2139   7.661393   3.252483   0.3295784  33.80607   31.94575   0.007000789 0.02449848 0.1164138  1075.696   2325.696   1.983406  
5539       8.75       9.288491   8.863635   2.05413    0.01528546 50.06488   99.86628   100.6053   -21.93827  1.080271   -10.429    175.5217   8.05978    3.184409   0.3321571  42.25586   32.38828   0.007372905 0.02466266 0.1136435  1075.579   2325.579   1.994737  
5539.5     8.75       9.288507   8.863458   2.501673   0.01391029 49.92941   99.66611   100.5417   -22.0354   0.2482471  -10.89358  173.8749   8.436305   3.082533   0.332472   33.80607   32.82412   0.008746862 0.02484991 0.1078656  1074.396   2324.396   1.99614   
5540       8.75       9.288453   8.862312   1.93796    0.0153382  50.03172   99.53336   100.3964   -21.34914  -1.200788  -11.27496  160.5558   8.738329   2.874634   0.3309516  33.80607   33.20948   0.008633555 0.02472562 0.1033699  1072.496   2322.496   1.989405  
5540.5     8.75       9.288514   8.882503   2.114048   0.01826122 50.25152   99.50113   100.174    -20.62207  -2.051725  -11.3369   159.1029   8.957554   2.685186   0.328805   33.80607   33.52895   0.00673992 0.02463643 0.103665   1071.133   2321.133   1.980062  
5541       8.75       9.285956   8.916015   2.147639   0.01942788 50.42803   99.28623   99.9191    -19.93476  -2.533168  -11.23397  163.5101   9.041755   2.558915   0.3261745  33.80607   33.79401   0.006353905 0.02443904 0.1050464  1067.947   2317.947   1.96887   
5541.5     8.75       9.280633   8.848735   1.904039   0.02005817 50.49185   98.86182   99.53655   -19.00325  -2.278278  -10.64077  189.1797   9.103975   2.47973    0.3235503  33.80607   34.02793   0.00680183 0.02440782 0.1113638  1064.397   2314.397   1.957976  
5542       8.75       9.280621   8.835073   1.977512   0.02054238 50.39695   98.50241   99.03267   -17.96511  -1.76132   -9.863216  204.1457   9.043437   2.406655   0.3227071  33.80607   34.2528    0.00536875 0.0243242  0.1150188  1060.993   2310.993   1.954531  
