~Version Information
VERS.                            2.0: CWLS Log ASCII STANDARD - VERSION 2.0
WRAP.                             NO: One line per depth step
~Well Information
STRT.FT                      -6.0000: FIRST INDEX VALUE
STOP.FT                    7531.0000: LAST INDEX VALUE
STEP.FT                       1.0000: STEP
NULL.                      -999.2500: NULL VALUE
COMP.                UNIVERSITY OF UTAH: COMPANY
WELL.                          58-32: WELL
FLD.                           FORGE: FIELD
LOC.                                : LOCATION
CNTY.                         BEAVER: COUNTY
DATE.                       06/28/21: LOG DATE
STAT.                           UTAH: STATE
SECT.                               : SECTION
TOWN.                               : TOWNSHIP
RANG.                               : RANGE
API.                                : API#
OS.                                 : OTHER SERVICES
PDAT.FT                             : PERMANENT DATUM
EEL.FT                              : ELEVATION
LMF.FT                  GROUND LEVEL: LOG MEASURED FROM
DMF.FT                              : DRILLING MEASURED FROM
EKB.FT                              : KB
EDF.FT                              : DF
EGL.FT                              : GL
DATE1.                      06/28/21: DATE1
RUN1.                              1: RUN NUMBER
TDD1.FT                        7500': DEPTH DRILLER
TDL1.FT                        7510': DEPTH LOGGER
BLI1.FT                        7510': BOTTOM LOGGED INTERVAL
TLI1.FT                      SURFACE: TOP LOG INTERVAL
CDD1.IN_FT                          : CASING DRILLER
CDL1.FT                             : CASING LOGGER
BS1.IN                           N/A: BIT SIZE
DFT1.                            N/A: TYPE FLUID IN HOLE
DFDV1.GM/C3_CP                   N/A: DENSITY/VISCOSITY
DFPL1.C3                            : PH/FLUID LOSS
MSS1.                               : SOURCE OF SAMPLE
RMT1.OHHM_DEGF                      : RM@MEASURED TEMP
RMFT1.OHMM_DEGF                     : RMF@MEASURED TEMP
RMCT1.OHMM_DEGF                     : RMC@MEASURED TEMP
RMFS1.                              : SOURCE OF RMF/RMC
RMBT1.OHMM_DEGF                     : RM@BHT
TCS1.                               : TIME CIRCULATION STOPPED
TLOB1.                           N/A: TIME LOGGER ON BOTTOM
BHT1.DEGF                      385°F: MAXIMUM RECORDED TEMPERATURE
LUN1.                           WL 1: EQUIPMENT NUMBER
LUL1.                          FORGE: LOCATION
ENGI1.                    COREY BIHM: RECORDED BY
WITN1.                           N/A: WITNESSED BY
~Curve Information
DEPT.FT                  0 000 00 00: Depth
LSPD.FT/MIN                        0: Line Speed
PRES.PSI                           0: Pressure
DPRES.PSI/FT                       0: Differential of PRES
TEMP.DEGF                          0: Ext. Temp
DTEMP.DEGF/FT                      0: Differential of TEMP
~Parameter Information
~Other Information
LOG WAS MEASURED FROM GROUND LEVEL

TAG @ 7510'

MAX TEMP 385°F

MAX PRESSURE 2850PSI

PERFORATIONS N/A

"THANK YOU FOR USING DI DRILL SURVEY SERVICES"

~A  Depth       LSPD        PRES       DPRES        TEMP       DTEMP    
# ...
  5370.0000     76.1200   2018.8043      0.4108    310.4143      0.0565
  5371.0000     75.6200   2019.2338      0.4238    310.4677      0.0439
  5372.0000     74.8700   2019.6519      0.4124    310.5020      0.0357
  5373.0000     75.5000   2020.0586      0.4061    310.5390      0.0409
  5374.0000     75.5000   2020.4640      0.4047    310.5838      0.0446
  5375.0000     75.6200   2020.8680      0.3537    310.6282      0.0438
  5376.0000     76.1200   2021.1714      0.3544    310.6714      0.0378
  5377.0000     77.1200   2021.5768      0.4074    310.7038      0.0352
  5378.0000     76.8700   2021.9862      0.4154    310.7418      0.0380
  5379.0000     76.8700   2022.4076      0.4191    310.7798      0.0332
  5380.0000     76.7500   2022.8245      0.4100    310.8082      0.0284
  5381.0000     76.1200   2023.2275      0.4026    310.8365      0.0227
  5382.0000     76.2500   2023.6298      0.4012    310.8536      0.0171
  5383.0000     76.2500   2024.0299      0.3985    310.8707      0.0207
  5384.0000     76.7500   2024.4268      0.3921    310.8950      0.0243
  5385.0000     77.0000   2024.8141      0.3389    310.9193      0.0246
  5386.0000     77.7500   2025.1046      0.3646    310.9443      0.0249
  5387.0000     77.7500   2025.5432      0.4386    310.9692      0.0263
  5388.0000     77.7500   2025.9818      0.4173    310.9968      0.0322
  5389.0000     77.3700   2026.3778      0.3960    311.0336      0.0380
  5390.0000     77.1200   2026.7738      0.4000    311.0728      0.0396
  5391.0000     76.7500   2027.1777      0.4040    311.1129      0.0345
  5392.0000     76.7500   2027.5818      0.3664    311.1419      0.0272
  5393.0000     76.5000   2027.9105      0.3836    311.1672      0.0272
  5394.0000     76.3700   2028.3490      0.4225    311.1962      0.0371
  5395.0000     76.7500   2028.7555      0.4011    311.2415      0.0519
  5396.0000     77.1200   2029.1512      0.3969    311.3000      0.0652
  5397.0000     77.1200   2029.5492      0.3983    311.3718      0.0695
  5398.0000     77.5000   2029.9478      0.3907    311.4390      0.0649
  5399.0000     78.0000   2030.3307      0.3804    311.5016      0.0565
  5400.0000     77.3700   2030.7085      0.4048    311.5520      0.0443
  5401.0000     77.3700   2031.1404      0.4410    311.5903      0.0349
  5402.0000     77.1200   2031.5905      0.3774    311.6218      0.0281
  5403.0000     76.7500   2031.8951      0.3445    311.6465      0.0226
  5404.0000     76.5000   2032.2795      0.3882    311.6669      0.0262
  5405.0000     77.0000   2032.6715      0.3956    311.6989      0.0325
  5406.0000     77.0000   2033.0708      0.4083    311.7319      0.0344
  5407.0000     76.8700   2033.4882      0.4265    311.7678      0.0367
  5408.0000     77.3700   2033.9238      0.3744    311.8052      0.0399
  5409.0000     77.5000   2034.2369      0.3473    311.8475      0.0370
  5410.0000     77.5000   2034.6184      0.3864    311.8792      0.0313
  5411.0000     77.6200   2035.0096      0.4058    311.9100      0.0308
  5412.0000     77.5000   2035.4299      0.4165    311.9408      0.0295
  5413.0000     76.8700   2035.8427      0.4012    311.9690      0.0282
  5414.0000     76.7500   2036.2323      0.3953    311.9972      0.0327
  5415.0000     76.7500   2036.6333      0.4180    312.0345      0.0373
  5416.0000     76.3700   2037.0682      0.3806    312.0717      0.0397
  5417.0000     76.8700   2037.3945      0.3622    312.1139      0.0421
  5418.0000     77.3700   2037.7926      0.3981    312.1560      0.0343
  5419.0000     77.3700   2038.1908      0.3982    312.1824      0.0309
  5420.0000     77.5000   2038.5890      0.3982    312.2177      0.0403
  5421.0000     77.8700   2038.9872      0.3939    312.2629      0.0469
  5422.0000     77.6200   2039.3768      0.3896    312.3115      0.0496
  5423.0000     77.1200   2039.7665      0.4066    312.3622      0.0510
  5424.0000     77.1200   2040.1901      0.4236    312.4135      0.0437
  5425.0000     76.8700   2040.6138      0.3672    312.4495      0.0334
  5426.0000     76.2500   2040.9246      0.3627    312.4804      0.0299
  5427.0000     76.2500   2041.3391      0.4084    312.5092      0.0356
  5428.0000     76.2500   2041.7415      0.4005    312.5516      0.0401
  5429.0000     76.6200   2042.1400      0.4003    312.5895      0.0357
  5430.0000     77.0000   2042.5421      0.4028    312.6230      0.0328
  5431.0000     77.6200   2042.9456      0.3939    312.6551      0.0315
  5432.0000     77.7500   2043.3298      0.3810    312.6860      0.0289
  5433.0000     77.7500   2043.7076      0.3934    312.7129      0.0249
  5434.0000     77.1200   2044.1167      0.4144    312.7359      0.0237
  5435.0000     76.6200   2044.5364      0.4127    312.7602      0.0250
  5436.0000     76.2500   2044.9420      0.4033    312.7858      0.0253
  5437.0000     76.2500   2045.3430      0.3566    312.8108      0.0247
  5438.0000     75.8700   2045.6552      0.3680    312.8352      0.0228
  5439.0000     76.2500   2046.0790      0.4072    312.8563      0.0284
  5440.0000     76.5000   2046.4695      0.3740    312.8920      0.0370
  5441.0000     76.8700   2046.8269      0.3718    312.9303      0.0420
  5442.0000     76.8700   2047.2130      0.4005    312.9760      0.0452
  5443.0000     77.1200   2047.6279      0.4052    313.0207      0.0429
  5444.0000     76.1200   2048.0234      0.3859    313.0619      0.0408
  5445.0000     75.8700   2048.3997      0.3873    313.1022      0.0391
  5446.0000     75.2500   2048.7981      0.4094    313.1401      0.0369
  5447.0000     75.2500   2049.2185      0.3682    313.1760      0.0326
  5448.0000     75.1200   2049.5344      0.3693    313.2054      0.0258
  5449.0000     76.1200   2049.9570      0.4215    313.2275      0.0334
  5450.0000     76.5000   2050.3774      0.4172    313.2721      0.0446
  5451.0000     76.5000   2050.7915      0.4117    313.3167      0.0562
  5452.0000     77.1200   2051.2009      0.4023    313.3846      0.0678
  5453.0000     77.2500   2051.5962      0.3975    313.4524      0.0666
  5454.0000     77.5000   2051.9958      0.4063    313.5178      0.0654
  5455.0000     77.7500   2052.4087      0.4087    313.5832      0.0492
  5456.0000     77.7500   2052.8132      0.3914    313.6161      0.0329
  5457.0000     77.1200   2053.1914      0.3309    313.6490      0.0299
  5458.0000     77.1200   2053.4751      0.3785    313.6759      0.0269
  5459.0000     76.7500   2053.9485      0.4735    313.7028      0.0284
  5460.0000     76.2500   2054.4221      0.4183    313.7328      0.0350
  5461.0000     76.2500   2054.7852      0.3630    313.7728      0.0331
  5462.0000     76.6200   2055.1482      0.3969    313.7990      0.0239
  5463.0000     76.7500   2055.5789      0.4307    313.8206      0.0239
  5464.0000     77.3700   2056.0095      0.3588    313.8467      0.0269
  5465.0000     77.3700   2056.2964      0.3346    313.8744      0.0276
  5466.0000     77.3700   2056.6787      0.3934    313.9019      0.0344
  5467.0000     77.8700   2057.0833      0.4081    313.9432      0.0404
  5468.0000     77.6200   2057.4949      0.3994    313.9827      0.0386
  5469.0000     77.6200   2057.8821      0.3831    314.0204      0.0373
  5470.0000     77.0000   2058.2610      0.3971    314.0573      0.0363
  5471.0000     77.1200   2058.6763      0.4215    314.0930      0.0335
  5472.0000     76.3700   2059.1040      0.3683    314.1243      0.0291
  5473.0000     76.7500   2059.4128      0.3563    314.1512      0.0264
  5474.0000     76.7500   2059.8167      0.4139    314.1772      0.0381
  5475.0000     77.0000   2060.2407      0.4340    314.2273      0.0503
  5476.0000     77.3700   2060.6846      0.4298    314.2777      0.0509
  5477.0000     77.8700   2061.1003      0.4014    314.3291      0.0486
  5478.0000     77.8700   2061.4873      0.3942    314.3748      0.0373
  5479.0000     77.5000   2061.8887      0.4087    314.4037      0.0308
  5480.0000     77.3700   2062.3047      0.3591    314.4365      0.0385
  5481.0000     76.8700   2062.6069      0.3397    314.4808      0.0387
