~Version Information
VERS.                            2.0: CWLS Log ASCII STANDARD - VERSION 2.0
WRAP.                             NO: One line per depth step
~Well Information
STRT.FT                      -6.0000: FIRST INDEX VALUE
STOP.FT                    7531.0000: LAST INDEX VALUE
STEP.FT                       1.0000: STEP
NULL.                      -999.2500: NULL VALUE
COMP.                UNIVERSITY OF UTAH: COMPANY
WELL.                          58-32: WELL
FLD.                           FORGE: FIELD
LOC.                                : LOCATION
CNTY.                         BEAVER: COUNTY
DATE.                       06/28/21: LOG DATE
STAT.                           UTAH: STATE
SECT.                               : SECTION
TOWN.                               : TOWNSHIP
RANG.                               : RANGE
API.                                : API#
OS.                                 : OTHER SERVICES
PDAT.FT                             : PERMANENT DATUM
EEL.FT                              : ELEVATION
LMF.FT                  GROUND LEVEL: LOG MEASURED FROM
DMF.FT                              : DRILLING MEASURED FROM
EKB.FT                              : KB
EDF.FT                              : DF
EGL.FT                              : GL
DATE1.                      06/28/21: DATE1
RUN1.                              1: RUN NUMBER
TDD1.FT                        7500': DEPTH DRILLER
TDL1.FT                        7510': DEPTH LOGGER
BLI1.FT                        7510': BOTTOM LOGGED INTERVAL
TLI1.FT                      SURFACE: TOP LOG INTERVAL
CDD1.IN_FT                          : CASING DRILLER
CDL1.FT                             : CASING LOGGER
BS1.IN                           N/A: BIT SIZE
DFT1.                            N/A: TYPE FLUID IN HOLE
DFDV1.GM/C3_CP                   N/A: DENSITY/VISCOSITY
DFPL1.C3                            : PH/FLUID LOSS
MSS1.                               : SOURCE OF SAMPLE
RMT1.OHHM_DEGF                      : RM@MEASURED TEMP
RMFT1.OHMM_DEGF                     : RMF@MEASURED TEMP
RMCT1.OHMM_DEGF                     : RMC@MEASURED TEMP
RMFS1.                              : SOURCE OF RMF/RMC
RMBT1.OHMM_DEGF                     : RM@BHT
TCS1.                               : TIME CIRCULATION STOPPED
TLOB1.                           N/A: TIME LOGGER ON BOTTOM
BHT1.DEGF                      385°F: MAXIMUM RECORDED TEMPERATURE
LUN1.                           WL 1: EQUIPMENT NUMBER
LUL1.                          FORGE: LOCATION
ENGI1.                    COREY BIHM: RECORDED BY
WITN1.                           N/A: WITNESSED BY
~Curve Information
DEPT.FT                  0 000 00 00: Depth
LSPD.FT/MIN                        0: Line Speed
PRES.PSI                           0: Pressure
DPRES.PSI/FT                       0: Differential of PRES
TEMP.DEGF                          0: Ext. Temp
DTEMP.DEGF/FT                      0: Differential of TEMP
~Parameter Information
~Other Information
LOG WAS MEASURED FROM GROUND LEVEL

TAG @ 7510'

MAX TEMP 385°F

MAX PRESSURE 2850PSI

PERFORATIONS N/A

"THANK YOU FOR USING DI DRILL SURVEY SERVICES"

~A  Depth       LSPD        PRES       DPRES        TEMP       DTEMP    
# ...
  5930.0000     74.5000   2239.0842      0.4028    329.8077      0.0286
  5931.0000     74.5000   2239.4893      0.4010    329.8343      0.0244
  5932.0000     75.2500   2239.8862      0.3956    329.8566      0.0246
  5933.0000     75.2500   2240.2805      0.3940    329.8835      0.0291
  5934.0000     75.2500   2240.6743      0.3936    329.9147      0.0358
  5935.0000     76.3700   2241.0676      0.3920    329.9550      0.0448
  5936.0000     75.5000   2241.4583      0.3901    330.0043      0.0424
  5937.0000     75.0000   2241.8479      0.4131    330.0399      0.0286
  5938.0000     75.0000   2242.2844      0.4442    330.0616      0.0186
  5939.0000     75.1200   2242.7363      0.3784    330.0771      0.0124
  5940.0000     75.7500   2243.0413      0.3445    330.0865      0.0093
  5941.0000     77.0000   2243.4253      0.3854    330.0958      0.0140
  5942.0000     77.0000   2243.8120      0.3882    330.1145      0.0200
  5943.0000     77.2500   2244.2017      0.3823    330.1359      0.0255
  5944.0000     77.2500   2244.5767      0.3676    330.1655      0.0317
  5945.0000     76.2500   2244.9368      0.3762    330.1992      0.0399
  5946.0000     75.7500   2245.3291      0.4083    330.2452      0.0457
  5947.0000     75.7500   2245.7534      0.4220    330.2906      0.0443
  5948.0000     75.1200   2246.1731      0.4171    330.3339      0.0436
  5949.0000     75.0000   2246.5876      0.3625    330.3778      0.0449
  5950.0000     75.8700   2246.8982      0.3619    330.4236      0.0401
  5951.0000     76.1200   2247.3115      0.4102    330.4580      0.0359
  5952.0000     76.1200   2247.7185      0.3972    330.4955      0.0375
  5953.0000     77.0000   2248.1060      0.3909    330.5331      0.0292
  5954.0000     77.1200   2248.5002      0.4050    330.5540      0.0209
  5955.0000     76.6200   2248.9160      0.4088    330.5750      0.0234
  5956.0000     76.1200   2249.3179      0.3807    330.6009      0.0259
  5957.0000     76.1200   2249.6775      0.3693    330.6268      0.0207
  5958.0000     75.3700   2250.0564      0.4081    330.6424      0.0155
  5959.0000     75.5000   2250.4937      0.4304    330.6579      0.0317
  5960.0000     75.6200   2250.9172      0.4034    330.7058      0.0479
  5961.0000     76.0000   2251.3005      0.3866    330.7537      0.0482
  5962.0000     76.0000   2251.6904      0.3999    330.8023      0.0486
  5963.0000     76.2500   2252.1003      0.4061    330.8508      0.0424
  5964.0000     76.2500   2252.5027      0.3905    330.8871      0.0363
  5965.0000     76.5000   2252.8813      0.3314    330.9234      0.0272
  5966.0000     76.5000   2253.1655      0.3424    330.9415      0.0181
  5967.0000     76.7500   2253.5662      0.4006    330.9595      0.0153
  5968.0000     76.6200   2253.9668      0.3901    330.9720      0.0145
  5969.0000     76.3700   2254.3464      0.3798    330.9886      0.0240
  5970.0000     76.3700   2254.7263      0.3976    331.0200      0.0338
  5971.0000     76.3700   2255.1416      0.4153    331.0563      0.0361
  5972.0000     75.8700   2255.5569      0.4109    331.0921      0.0358
  5973.0000     76.0000   2255.9634      0.4065    331.1278      0.0360
  5974.0000     75.6200   2256.3699      0.3479    331.1642      0.0364
  5975.0000     75.7500   2256.6592      0.3375    331.2007      0.0344
  5976.0000     75.7500   2257.0449      0.3855    331.2329      0.0393
  5977.0000     76.2500   2257.4302      0.3850    331.2792      0.0523
  5978.0000     76.5000   2257.8149      0.3969    331.3375      0.0642
  5979.0000     77.5000   2258.2239      0.4128    331.4077      0.0693
  5980.0000     77.5000   2258.6406      0.4094    331.4760      0.0674
  5981.0000     76.6200   2259.0427      0.3995    331.5424      0.0657
  5982.0000     76.1200   2259.4397      0.3956    331.6073      0.0641
  5983.0000     75.6200   2259.8340      0.3938    331.6707      0.0575
  5984.0000     75.1200   2260.2273      0.4060    331.7223      0.0457
  5985.0000     75.1200   2260.6460      0.4230    331.7622      0.0351
  5986.0000     75.7500   2261.0732      0.4191    331.7925      0.0256
  5987.0000     76.0000   2261.4841      0.4083    331.8133      0.0194
  5988.0000     76.6200   2261.8899      0.3976    331.8313      0.0166
  5989.0000     77.0000   2262.2793      0.3867    331.8464      0.0159
  5990.0000     77.0000   2262.6633      0.3834    331.8630      0.0173
  5991.0000     77.0000   2263.0461      0.3824    331.8811      0.0213
  5992.0000     76.6200   2263.4282      0.3431    331.9056      0.0277
  5993.0000     76.0000   2263.7324      0.3608    331.9366      0.0282
  5994.0000     75.6200   2264.1499      0.4431    331.9619      0.0324
  5995.0000     75.6200   2264.6187      0.4077    332.0014      0.0480
  5996.0000     75.3700   2264.9653      0.3291    332.0579      0.0550
  5997.0000     75.7500   2265.2769      0.3806    332.1115      0.0447
  5998.0000     75.5000   2265.7266      0.4354    332.1472      0.0356
  5999.0000     75.5000   2266.1477      0.4070    332.1827      0.0359
  6000.0000     75.0000   2266.5405      0.3881    332.2191      0.0375
  6001.0000     75.0000   2266.9238      0.3785    332.2577      0.0382
  6002.0000     75.2500   2267.2976      0.3829    332.2954      0.0362
  6003.0000     76.1200   2267.6897      0.4012    332.3301      0.0369
  6004.0000     76.1200   2268.1001      0.4150    332.3693      0.0458
  6005.0000     76.6200   2268.5198      0.4243    332.4217      0.0499
  6006.0000     76.5000   2268.9487      0.3710    332.4691      0.0399
  6007.0000     76.0000   2269.2617      0.3536    332.5015      0.0284
  6008.0000     75.7500   2269.6560      0.3973    332.5259      0.0152
  6009.0000     75.7500   2270.0564      0.4098    332.5319      0.0060
  6010.0000     75.5000   2270.4756      0.4152    332.5379      0.0100
  6011.0000     76.1200   2270.8867      0.3994    332.5519      0.0139
  6012.0000     76.6200   2271.2744      0.3849    332.5658      0.0249
  6013.0000     76.6200   2271.6565      0.3733    332.6018      0.0360
  6014.0000     76.8700   2272.0210      0.3693    332.6378      0.0441
  6015.0000     77.6200   2272.3950      0.3883    332.6900      0.0522
  6016.0000     77.1200   2272.7976      0.4045    332.7422      0.0520
  6017.0000     76.6200   2273.2041      0.4126    332.7940      0.0518
  6018.0000     76.6200   2273.6228      0.3663    332.8458      0.0572
  6019.0000     75.6200   2273.9368      0.3682    332.9085      0.0626
  6020.0000     75.3700   2274.3591      0.4224    332.9711      0.0452
  6021.0000     75.7500   2274.7815      0.3960    332.9989      0.0324
  6022.0000     76.3700   2275.1511      0.3698    333.0359      0.0281
  6023.0000     76.3700   2275.5210      0.3733    333.0550      0.0161
  6024.0000     77.5000   2275.8977      0.3767    333.0681      0.0167
  6025.0000     77.1200   2276.2744      0.3998    333.0884      0.0215
  6026.0000     77.2500   2276.6973      0.4229    333.1111      0.0344
  6027.0000     77.2500   2277.1201      0.4008    333.1573      0.0500
  6028.0000     76.5000   2277.4988      0.3789    333.2112      0.0499
  6029.0000     76.0000   2277.8779      0.3446    333.2570      0.0444
  6030.0000     76.2500   2278.1880      0.3617    333.3001      0.0379
  6031.0000     75.8700   2278.6013      0.4139    333.3328      0.0383
  6032.0000     75.8700   2279.0159      0.4147    333.3768      0.0503
  6033.0000     76.3700   2279.4307      0.4171    333.4335      0.0632
  6034.0000     76.5000   2279.8501      0.4202    333.5031      0.0645
  6035.0000     76.6200   2280.2710      0.4047    333.5626      0.0544
  6036.0000     76.6200   2280.6594      0.3828    333.6119      0.0454
  6037.0000     76.6200   2281.0366      0.3889    333.6534      0.0375
  6038.0000     76.8700   2281.4373      0.4044    333.6869      0.0264
  6039.0000     76.7500   2281.8455      0.4050    333.7062      0.0121
  6040.0000     76.7500   2282.2473      0.4009    333.7112      0.0070
  6041.0000     76.7500   2282.6472      0.3409    333.7203      0.0111
