~Version Information
VERS.                            2.0: CWLS Log ASCII STANDARD - VERSION 2.0
WRAP.                             NO: One line per depth step
~Well Information
STRT.FT                      -6.0000: FIRST INDEX VALUE
STOP.FT                    7531.0000: LAST INDEX VALUE
STEP.FT                       1.0000: STEP
NULL.                      -999.2500: NULL VALUE
COMP.                UNIVERSITY OF UTAH: COMPANY
WELL.                          58-32: WELL
FLD.                           FORGE: FIELD
LOC.                                : LOCATION
CNTY.                         BEAVER: COUNTY
DATE.                       06/28/21: LOG DATE
STAT.                           UTAH: STATE
SECT.                               : SECTION
TOWN.                               : TOWNSHIP
RANG.                               : RANGE
API.                                : API#
OS.                                 : OTHER SERVICES
PDAT.FT                             : PERMANENT DATUM
EEL.FT                              : ELEVATION
LMF.FT                  GROUND LEVEL: LOG MEASURED FROM
DMF.FT                              : DRILLING MEASURED FROM
EKB.FT                              : KB
EDF.FT                              : DF
EGL.FT                              : GL
DATE1.                      06/28/21: DATE1
RUN1.                              1: RUN NUMBER
TDD1.FT                        7500': DEPTH DRILLER
TDL1.FT                        7510': DEPTH LOGGER
BLI1.FT                        7510': BOTTOM LOGGED INTERVAL
TLI1.FT                      SURFACE: TOP LOG INTERVAL
CDD1.IN_FT                          : CASING DRILLER
CDL1.FT                             : CASING LOGGER
BS1.IN                           N/A: BIT SIZE
DFT1.                            N/A: TYPE FLUID IN HOLE
DFDV1.GM/C3_CP                   N/A: DENSITY/VISCOSITY
DFPL1.C3                            : PH/FLUID LOSS
MSS1.                               : SOURCE OF SAMPLE
RMT1.OHHM_DEGF                      : RM@MEASURED TEMP
RMFT1.OHMM_DEGF                     : RMF@MEASURED TEMP
RMCT1.OHMM_DEGF                     : RMC@MEASURED TEMP
RMFS1.                              : SOURCE OF RMF/RMC
RMBT1.OHMM_DEGF                     : RM@BHT
TCS1.                               : TIME CIRCULATION STOPPED
TLOB1.                           N/A: TIME LOGGER ON BOTTOM
BHT1.DEGF                      385°F: MAXIMUM RECORDED TEMPERATURE
LUN1.                           WL 1: EQUIPMENT NUMBER
LUL1.                          FORGE: LOCATION
ENGI1.                    COREY BIHM: RECORDED BY
WITN1.                           N/A: WITNESSED BY
~Curve Information
DEPT.FT                  0 000 00 00: Depth
LSPD.FT/MIN                        0: Line Speed
PRES.PSI                           0: Pressure
DPRES.PSI/FT                       0: Differential of PRES
TEMP.DEGF                          0: Ext. Temp
DTEMP.DEGF/FT                      0: Differential of TEMP
~Parameter Information
~Other Information
LOG WAS MEASURED FROM GROUND LEVEL

TAG @ 7510'

MAX TEMP 385°F

MAX PRESSURE 2850PSI

PERFORATIONS N/A

"THANK YOU FOR USING DI DRILL SURVEY SERVICES"

~A  Depth       LSPD        PRES       DPRES        TEMP       DTEMP    
# ...
  2906.0000     79.6200   1018.9164      0.3876    203.6318      0.0432
  2907.0000     79.2500   1019.3601      0.4456    203.6688      0.0415
  2908.0000     79.7500   1019.8077      0.4535    203.7148      0.0460
  2909.0000     79.7500   1020.2671      0.4019    203.7609      0.0427
  2910.0000     80.1200   1020.6116      0.4005    203.8001      0.0393
  2911.0000     80.6200   1021.0680      0.4564    203.8394      0.0365
  2912.0000     81.3700   1021.5244      0.4417    203.8732      0.0394
  2913.0000     81.3700   1021.9513      0.4269    203.9183      0.0459
  2914.0000     80.8700   1022.3782      0.3823    203.9650      0.0470
  2915.0000     80.6200   1022.7159      0.3941    204.0122      0.0417
  2916.0000     80.1200   1023.1663      0.4495    204.0483      0.0423
  2917.0000     80.1200   1023.6150      0.4483    204.0969      0.0517
  2918.0000     79.7500   1024.0630      0.3983    204.1517      0.0579
  2919.0000     79.8700   1024.4115      0.4108    204.2127      0.0522
  2920.0000     79.8700   1024.8845      0.4099    204.2560      0.0474
  2921.0000     79.8700   1025.2312      0.3936    204.3074      0.0450
  2922.0000     80.2500   1025.6718      0.4427    204.3460      0.0430
  2923.0000     80.7500   1026.1166      0.4512    204.3934      0.0474
  2924.0000     81.2500   1026.5741      0.4003    204.4409      0.0498
  2925.0000     81.2500   1026.9172      0.3887    204.4930      0.0521
  2926.0000     81.3700   1027.3516      0.4343    204.5450      0.0437
  2927.0000     80.7500   1027.7859      0.3863    204.5803      0.0411
  2928.0000     80.2500   1028.1241      0.3947    204.6272      0.0413
  2929.0000     80.2500   1028.5752      0.4479    204.6628      0.0416
  2930.0000     79.7500   1029.0200      0.4438    204.7104      0.0485
  2931.0000     79.7500   1029.4628      0.3907    204.7598      0.0502
  2932.0000     80.3700   1029.8015      0.3974    204.8109      0.0455
  2933.0000     80.3700   1030.2576      0.3995    204.8508      0.0487
  2934.0000     80.3700   1030.6006      0.4013    204.9083      0.0503
  2935.0000     80.8700   1031.0602      0.4578    204.9514      0.0477
  2936.0000     81.1200   1031.5161      0.4505    205.0037      0.0523
  2937.0000     81.1200   1031.9612      0.4418    205.0560      0.0497
  2938.0000     80.8700   1032.3997      0.4283    205.1031      0.0472
  2939.0000     80.7500   1032.8179      0.3659    205.1503      0.0469
  2940.0000     80.2500   1033.1315      0.4028    205.1970      0.0467
  2941.0000     80.2500   1033.6235      0.4921    205.2437      0.0431
  2942.0000     79.6200   1034.1156      0.4012    205.2832      0.0461
  2943.0000     79.3700   1034.4259      0.3621    205.3358      0.0480
  2944.0000     79.8700   1034.8397      0.4327    205.3791      0.0517
  2945.0000     79.8700   1035.2913      0.4578    205.4393      0.0572
  2946.0000     80.2500   1035.7554      0.3950    205.4935      0.0512
  2947.0000     80.8700   1036.0812      0.3726    205.5417      0.0421
  2948.0000     80.8700   1036.5006      0.4172    205.5777      0.0418
  2949.0000     81.1200   1036.9155      0.4126    205.6252      0.0488
  2950.0000     80.3700   1037.3258      0.3666    205.6753      0.0540
  2951.0000     80.1200   1037.6488      0.3971    205.7332      0.0506
  2952.0000     79.1200   1038.1200      0.4700    205.7766      0.0498
  2953.0000     79.1200   1038.5889      0.4653    205.8328      0.0562
  2954.0000     78.2500   1039.0507      0.4041    205.8890      0.0469
  2955.0000     77.7500   1039.3971      0.3890    205.9266      0.0376
  2956.0000     78.5000   1039.8286      0.4315    205.9642      0.0331
  2957.0000     78.5000   1040.2601      0.3757    205.9929      0.0335
  2958.0000     79.1200   1040.5800      0.3732    206.0312      0.0350
  2959.0000     80.5000   1041.0065      0.4376    206.0629      0.0380
  2960.0000     81.6200   1041.4552      0.4525    206.1072      0.0458
  2961.0000     81.6200   1041.9115      0.3939    206.1546      0.0490
  2962.0000     80.6200   1042.2430      0.3832    206.2052      0.0452
  2963.0000     80.7500   1042.6780      0.4510    206.2449      0.0488
  2964.0000     80.1200   1043.1451      0.4832    206.3027      0.0552
  2965.0000     80.1200   1043.6444      0.4285    206.3554      0.0450
  2966.0000     79.8700   1044.0022      0.3953    206.3927      0.0326
  2967.0000     80.1200   1044.4349      0.3787    206.4207      0.0426
  2968.0000     80.3700   1044.7595      0.3829    206.4779      0.0573
  2969.0000     80.3700   1045.2008      0.4413    206.5352      0.0512
  2970.0000     80.8700   1045.6422      0.3900    206.5803      0.0526
  2971.0000     81.2500   1045.9807      0.3950    206.6405      0.0529
  2972.0000     81.2500   1046.4321      0.4540    206.6861      0.0534
  2973.0000     81.7500   1046.8887      0.4575    206.7472      0.0604
  2974.0000     81.5000   1047.3470      0.4554    206.8069      0.0589
  2975.0000     80.7500   1047.7996      0.4516    206.8651      0.0559
  2976.0000     80.7500   1048.2502      0.3959    206.9187      0.0514
  2977.0000     80.5000   1048.5914      0.3990    206.9679      0.0424
  2978.0000     80.0000   1049.0483      0.3971    207.0035      0.0399
  2979.0000     80.0000   1049.3856      0.3860    207.0477      0.0387
  2980.0000     80.0000   1049.8203      0.3804    207.0809      0.0408
  2981.0000     80.7500   1050.1465      0.3830    207.1294      0.0485
  2982.0000     80.8700   1050.5863      0.4398    207.1779      0.0458
  2983.0000     81.3700   1051.0261      0.4531    207.2209      0.0502
  2984.0000     81.3700   1051.4926      0.4664    207.2783      0.0533
  2985.0000     81.7500   1051.9590      0.4039    207.3274      0.0478
  2986.0000     81.3700   1052.3004      0.3983    207.3738      0.0374
  2987.0000     81.0000   1052.7556      0.4581    207.4023      0.0311
  2988.0000     81.0000   1053.2167      0.4620    207.4360      0.0347
  2989.0000     80.5000   1053.6797      0.3942    207.4717      0.0367
  2990.0000     80.0000   1054.0050      0.3724    207.5094      0.0350
  2991.0000     80.0000   1054.4244      0.3706    207.5416      0.0428
  2992.0000     80.0000   1054.7462      0.3851    207.5950      0.0467
  2993.0000     80.5000   1055.1947      0.4492    207.6351      0.0527
  2994.0000     80.8700   1055.6445      0.4515    207.7005      0.0654
  2995.0000     81.3700   1056.0977      0.3965    207.7659      0.0589
  2996.0000     81.3700   1056.4376      0.3982    207.8182      0.0523
  2997.0000     81.6200   1056.8940      0.4565    207.8705      0.0445
  2998.0000     81.1200   1057.3506      0.3951    207.9073      0.0430
  2999.0000     80.6200   1057.6842      0.3893    207.9564      0.0408
  3000.0000     80.6200   1058.1292      0.4450    207.9889      0.0365
  3001.0000     80.2500   1058.5742      0.4451    208.0293      0.0406
  3002.0000     79.7500   1059.0194      0.3893    208.0702      0.0411
  3003.0000     79.8700   1059.3528      0.3888    208.1114      0.0390
  3004.0000     79.8700   1059.7970      0.3927    208.1482      0.0505
  3005.0000     80.3700   1060.1382      0.4089    208.2125      0.0563
  3006.0000     80.7500   1060.6147      0.4711    208.2607      0.0494
  3007.0000     80.7500   1061.0804      0.4497    208.3114      0.0507
  3008.0000     81.2500   1061.5142      0.3795    208.3620      0.0481
  3009.0000     81.5000   1061.8394      0.3726    208.4077      0.0456
  3010.0000     81.1200   1062.2594      0.4200    208.4533      0.0426
  3011.0000     81.1200   1062.6794      0.4399    208.4930      0.0462
  3012.0000     80.6200   1063.1393      0.4599    208.5458      0.0553
  3013.0000     80.2500   1063.5992      0.4064    208.6035      0.0586
  3014.0000     79.6200   1063.9520      0.4116    208.6629      0.0516
  3015.0000     79.6200   1064.4225      0.4086    208.7067      0.0508
  3016.0000     79.6200   1064.7693      0.4025    208.7646      0.0499
  3017.0000     80.1200   1065.2274      0.4500    208.8065      0.0470
