~Version Information
VERS.                            2.0: CWLS Log ASCII STANDARD - VERSION 2.0
WRAP.                             NO: One line per depth step
~Well Information
STRT.FT                      -6.0000: FIRST INDEX VALUE
STOP.FT                    7531.0000: LAST INDEX VALUE
STEP.FT                       1.0000: STEP
NULL.                      -999.2500: NULL VALUE
COMP.                UNIVERSITY OF UTAH: COMPANY
WELL.                          58-32: WELL
FLD.                           FORGE: FIELD
LOC.                                : LOCATION
CNTY.                         BEAVER: COUNTY
DATE.                       06/28/21: LOG DATE
STAT.                           UTAH: STATE
SECT.                               : SECTION
TOWN.                               : TOWNSHIP
RANG.                               : RANGE
API.                                : API#
OS.                                 : OTHER SERVICES
PDAT.FT                             : PERMANENT DATUM
EEL.FT                              : ELEVATION
LMF.FT                  GROUND LEVEL: LOG MEASURED FROM
DMF.FT                              : DRILLING MEASURED FROM
EKB.FT                              : KB
EDF.FT                              : DF
EGL.FT                              : GL
DATE1.                      06/28/21: DATE1
RUN1.                              1: RUN NUMBER
TDD1.FT                        7500': DEPTH DRILLER
TDL1.FT                        7510': DEPTH LOGGER
BLI1.FT                        7510': BOTTOM LOGGED INTERVAL
TLI1.FT                      SURFACE: TOP LOG INTERVAL
CDD1.IN_FT                          : CASING DRILLER
CDL1.FT                             : CASING LOGGER
BS1.IN                           N/A: BIT SIZE
DFT1.                            N/A: TYPE FLUID IN HOLE
DFDV1.GM/C3_CP                   N/A: DENSITY/VISCOSITY
DFPL1.C3                            : PH/FLUID LOSS
MSS1.                               : SOURCE OF SAMPLE
RMT1.OHHM_DEGF                      : RM@MEASURED TEMP
RMFT1.OHMM_DEGF                     : RMF@MEASURED TEMP
RMCT1.OHMM_DEGF                     : RMC@MEASURED TEMP
RMFS1.                              : SOURCE OF RMF/RMC
RMBT1.OHMM_DEGF                     : RM@BHT
TCS1.                               : TIME CIRCULATION STOPPED
TLOB1.                           N/A: TIME LOGGER ON BOTTOM
BHT1.DEGF                      385°F: MAXIMUM RECORDED TEMPERATURE
LUN1.                           WL 1: EQUIPMENT NUMBER
LUL1.                          FORGE: LOCATION
ENGI1.                    COREY BIHM: RECORDED BY
WITN1.                           N/A: WITNESSED BY
~Curve Information
DEPT.FT                  0 000 00 00: Depth
LSPD.FT/MIN                        0: Line Speed
PRES.PSI                           0: Pressure
DPRES.PSI/FT                       0: Differential of PRES
TEMP.DEGF                          0: Ext. Temp
DTEMP.DEGF/FT                      0: Differential of TEMP
~Parameter Information
~Other Information
LOG WAS MEASURED FROM GROUND LEVEL

TAG @ 7510'

MAX TEMP 385°F

MAX PRESSURE 2850PSI

PERFORATIONS N/A

"THANK YOU FOR USING DI DRILL SURVEY SERVICES"

~A  Depth       LSPD        PRES       DPRES        TEMP       DTEMP    
# ...
  3466.0000     78.6200   1251.2236      0.4397    230.2159      0.0400
  3467.0000     78.6200   1251.6633      0.3854    230.2551      0.0458
  3468.0000     80.0000   1251.9945      0.3864    230.3074      0.0451
  3469.0000     81.1200   1252.4362      0.4437    230.3453      0.0437
  3470.0000     81.1200   1252.8818      0.4463    230.3948      0.0503
  3471.0000     81.1200   1253.3287      0.3837    230.4460      0.0519
  3472.0000     81.3700   1253.6492      0.3690    230.4987      0.0466
  3473.0000     81.5000   1254.0667      0.3707    230.5392      0.0486
  3474.0000     80.8700   1254.3906      0.3927    230.5959      0.0496
  3475.0000     80.8700   1254.8521      0.4570    230.6384      0.0493
  3476.0000     80.6200   1255.3046      0.4393    230.6945      0.0560
  3477.0000     80.2500   1255.7307      0.3729    230.7505      0.0551
  3478.0000     80.0000   1256.0504      0.4026    230.8046      0.0541
  3479.0000     80.0000   1256.5360      0.4856    230.8587      0.0504
  3480.0000     80.3700   1257.0216      0.4063    230.9055      0.0545
  3481.0000     80.8700   1257.3485      0.3813    230.9678      0.0575
  3482.0000     81.2500   1257.7843      0.4436    231.0205      0.0635
  3483.0000     81.2500   1258.2357      0.4540    231.0948      0.0662
  3484.0000     81.8700   1258.6923      0.3973    231.1529      0.0500
  3485.0000     81.3700   1259.0303      0.3927    231.1948      0.0374
  3486.0000     80.8700   1259.4777      0.3899    231.2276      0.0402
  3487.0000     80.8700   1259.8101      0.3832    231.2752      0.0416
  3488.0000     80.7500   1260.2441      0.4359    231.3108      0.0438
  3489.0000     80.2500   1260.6818      0.4428    231.3627      0.0519
  3490.0000     80.2500   1261.1298      0.3920    231.4146      0.0528
  3491.0000     80.6200   1261.4658      0.4011    231.4683      0.0537
  3492.0000     80.8700   1261.9319      0.4661    231.5220      0.0424
  3493.0000     81.1200   1262.3979      0.3917    231.5532      0.0364
  3494.0000     81.1200   1262.7153      0.3704    231.5948      0.0388
  3495.0000     81.5000   1263.1387      0.4352    231.6307      0.0435
  3496.0000     81.7500   1263.5857      0.4509    231.6818      0.0515
  3497.0000     81.5000   1264.0405      0.3997    231.7338      0.0525
  3498.0000     81.5000   1264.3851      0.4032    231.7868      0.0461
  3499.0000     80.8700   1264.8469      0.3990    231.8260      0.0448
  3500.0000     80.5000   1265.1831      0.3785    231.8765      0.0442
  3501.0000     80.1200   1265.6040      0.4230    231.9144      0.0517
  3502.0000     80.1200   1266.0292      0.4317    231.9799      0.0654
  3503.0000     80.5000   1266.4674      0.3834    232.0453      0.0576
  3504.0000     81.0000   1266.7960      0.3902    232.0950      0.0497
  3505.0000     81.2500   1267.2478      0.4518    232.1447      0.0459
  3506.0000     81.2500   1267.6997      0.4002    232.1869      0.0492
  3507.0000     81.6200   1268.0482      0.4066    232.2431      0.0456
  3508.0000     81.5000   1268.5129      0.4478    232.2781      0.0385
  3509.0000     81.1200   1268.9438      0.4253    232.3201      0.0464
  3510.0000     81.1200   1269.3635      0.3788    232.3710      0.0553
  3511.0000     80.7500   1269.7015      0.4022    232.4307      0.0504
  3512.0000     80.1200   1270.1678      0.4086    232.4718      0.0431
  3513.0000     79.8700   1270.5188      0.4111    232.5168      0.0394
  3514.0000     79.8700   1270.9900      0.4645    232.5506      0.0414
  3515.0000     80.1200   1271.4478      0.4376    232.5997      0.0490
  3516.0000     80.6200   1271.8651      0.3652    232.6487      0.0590
  3517.0000     80.6200   1272.1782      0.3857    232.7176      0.0689
  3518.0000     81.2500   1272.6366      0.4584    232.7865      0.0538
  3519.0000     81.7500   1273.0950      0.4410    232.8252      0.0452
  3520.0000     81.5000   1273.5186      0.4235    232.8769      0.0433
  3521.0000     81.5000   1273.9420      0.3782    232.9118      0.0321
  3522.0000     80.7500   1274.2750      0.3884    232.9411      0.0286
  3523.0000     80.3700   1274.7189      0.4416    232.9690      0.0346
  3524.0000     80.0000   1275.1582      0.4385    233.0102      0.0440
  3525.0000     80.0000   1275.5959      0.3920    233.0569      0.0495
  3526.0000     80.0000   1275.9421      0.4099    233.1092      0.0463
  3527.0000     80.6200   1276.4156      0.4082    233.1496      0.0488
  3528.0000     80.8700   1276.7585      0.3839    233.2068      0.0500
  3529.0000     80.8700   1277.1833      0.4245    233.2497      0.0571
  3530.0000     81.1200   1277.6075      0.4232    233.3210      0.0714
  3531.0000     81.6200   1278.0297      0.3694    233.3925      0.0611
  3532.0000     80.8700   1278.3463      0.3827    233.4432      0.0507
  3533.0000     80.8700   1278.7950      0.4487    233.4939      0.0396
  3534.0000     79.0000   1279.2438      0.3890    233.5223      0.0332
  3535.0000     78.7500   1279.5731      0.3842    233.5602      0.0363
  3536.0000     78.7500   1280.0122      0.4561    233.5950      0.0427
  3537.0000     78.7500   1280.4854      0.4789    233.6455      0.0518
  3538.0000     78.8700   1280.9701      0.4103    233.6985      0.0542
  3539.0000     80.7500   1281.3060      0.3828    233.7540      0.0484
  3540.0000     81.3700   1281.7357      0.3766    233.7953      0.0479
  3541.0000     81.3700   1282.0593      0.3793    233.8498      0.0476
  3542.0000     81.1200   1282.4943      0.4330    233.8906      0.0435
  3543.0000     81.7500   1282.9254      0.4255    233.9368      0.0462
  3544.0000     81.6200   1283.3453      0.3674    233.9830      0.0361
  3545.0000     81.6200   1283.6603      0.3911    234.0090      0.0260
  3546.0000     80.5000   1284.1274      0.4672    234.0350      0.0302
  3547.0000     80.5000   1284.5946      0.4658    234.0694      0.0401
  3548.0000     80.2500   1285.0590      0.4643    234.1152      0.0415
  3549.0000     80.2500   1285.5232      0.3934    234.1524      0.0357
  3550.0000     80.1200   1285.8457      0.3762    234.1867      0.0338
  3551.0000     81.1200   1286.2756      0.3801    234.2199      0.0413
  3552.0000     81.2500   1286.6060      0.3881    234.2693      0.0441
  3553.0000     81.2500   1287.0518      0.4388    234.3080      0.0475
  3554.0000     81.7500   1287.4836      0.4250    234.3643      0.0573
  3555.0000     81.6200   1287.9019      0.3673    234.4226      0.0614
  3556.0000     80.5000   1288.2183      0.3730    234.4871      0.0565
  3557.0000     80.5000   1288.6479      0.4308    234.5355      0.0609
  3558.0000     79.7500   1289.0800      0.4358    234.6090      0.0735
  3559.0000     78.6200   1289.5195      0.4430    234.6825      0.0583
  3560.0000     78.3700   1289.9659      0.4564    234.7256      0.0431
  3561.0000     78.3700   1290.4324      0.4081    234.7687      0.0573
  3562.0000     78.7500   1290.7822      0.3915    234.8401      0.0714
  3563.0000     79.1200   1291.2153      0.4331    234.9116      0.0571
  3564.0000     79.7500   1291.6484      0.3830    234.9543      0.0499
  3565.0000     79.7500   1291.9813      0.3883    235.0114      0.0477
  3566.0000     80.0000   1292.4250      0.4315    235.0498      0.0434
  3567.0000     79.6200   1292.8442      0.4150    235.0982      0.0413
  3568.0000     79.5000   1293.2551      0.4170    235.1324      0.0270
  3569.0000     79.5000   1293.6782      0.4252    235.1523      0.0288
  3570.0000     79.0000   1294.1056      0.3778    235.1900      0.0467
  3571.0000     78.6200   1294.4338      0.3856    235.2457      0.0481
  3572.0000     78.8700   1294.8768      0.3893    235.2862      0.0458
  3573.0000     78.8700   1295.2124      0.3958    235.3373      0.0447
  3574.0000     78.7500   1295.6685      0.4529    235.3756      0.0447
  3575.0000     79.3700   1296.1183      0.4405    235.4267      0.0511
  3576.0000     79.8700   1296.5494      0.4323    235.4778      0.0493
  3577.0000     79.8700   1296.9828      0.4365    235.5253      0.0476
