~Version Information
VERS.                            2.0: CWLS Log ASCII STANDARD - VERSION 2.0
WRAP.                             NO: One line per depth step
~Well Information
STRT.FT                      -6.0000: FIRST INDEX VALUE
STOP.FT                    7531.0000: LAST INDEX VALUE
STEP.FT                       1.0000: STEP
NULL.                      -999.2500: NULL VALUE
COMP.                UNIVERSITY OF UTAH: COMPANY
WELL.                          58-32: WELL
FLD.                           FORGE: FIELD
LOC.                                : LOCATION
CNTY.                         BEAVER: COUNTY
DATE.                       06/28/21: LOG DATE
STAT.                           UTAH: STATE
SECT.                               : SECTION
TOWN.                               : TOWNSHIP
RANG.                               : RANGE
API.                                : API#
OS.                                 : OTHER SERVICES
PDAT.FT                             : PERMANENT DATUM
EEL.FT                              : ELEVATION
LMF.FT                  GROUND LEVEL: LOG MEASURED FROM
DMF.FT                              : DRILLING MEASURED FROM
EKB.FT                              : KB
EDF.FT                              : DF
EGL.FT                              : GL
DATE1.                      06/28/21: DATE1
RUN1.                              1: RUN NUMBER
TDD1.FT                        7500': DEPTH DRILLER
TDL1.FT                        7510': DEPTH LOGGER
BLI1.FT                        7510': BOTTOM LOGGED INTERVAL
TLI1.FT                      SURFACE: TOP LOG INTERVAL
CDD1.IN_FT                          : CASING DRILLER
CDL1.FT                             : CASING LOGGER
BS1.IN                           N/A: BIT SIZE
DFT1.                            N/A: TYPE FLUID IN HOLE
DFDV1.GM/C3_CP                   N/A: DENSITY/VISCOSITY
DFPL1.C3                            : PH/FLUID LOSS
MSS1.                               : SOURCE OF SAMPLE
RMT1.OHHM_DEGF                      : RM@MEASURED TEMP
RMFT1.OHMM_DEGF                     : RMF@MEASURED TEMP
RMCT1.OHMM_DEGF                     : RMC@MEASURED TEMP
RMFS1.                              : SOURCE OF RMF/RMC
RMBT1.OHMM_DEGF                     : RM@BHT
TCS1.                               : TIME CIRCULATION STOPPED
TLOB1.                           N/A: TIME LOGGER ON BOTTOM
BHT1.DEGF                      385°F: MAXIMUM RECORDED TEMPERATURE
LUN1.                           WL 1: EQUIPMENT NUMBER
LUL1.                          FORGE: LOCATION
ENGI1.                    COREY BIHM: RECORDED BY
WITN1.                           N/A: WITNESSED BY
~Curve Information
DEPT.FT                  0 000 00 00: Depth
LSPD.FT/MIN                        0: Line Speed
PRES.PSI                           0: Pressure
DPRES.PSI/FT                       0: Differential of PRES
TEMP.DEGF                          0: Ext. Temp
DTEMP.DEGF/FT                      0: Differential of TEMP
~Parameter Information
~Other Information
LOG WAS MEASURED FROM GROUND LEVEL

TAG @ 7510'

MAX TEMP 385°F

MAX PRESSURE 2850PSI

PERFORATIONS N/A

"THANK YOU FOR USING DI DRILL SURVEY SERVICES"

~A  Depth       LSPD        PRES       DPRES        TEMP       DTEMP    
# ...
  3914.0000     80.3700   1435.0758      0.3811    251.8710      0.0471
  3915.0000     80.3700   1435.4067      0.3961    251.9242      0.0466
  3916.0000     80.6200   1435.8680      0.4037    251.9641      0.0456
  3917.0000     81.0000   1436.2141      0.3958    252.0154      0.0512
  3918.0000     81.0000   1436.6597      0.4456    252.0666      0.0429
  3919.0000     81.3700   1437.1053      0.4357    252.1012      0.0404
  3920.0000     81.8700   1437.5310      0.4257    252.1474      0.0466
  3921.0000     81.1200   1437.9567      0.3815    252.1943      0.0471
  3922.0000     81.1200   1438.2941      0.3936    252.2416      0.0401
  3923.0000     80.7500   1438.7438      0.4534    252.2745      0.0375
  3924.0000     80.3700   1439.2009      0.4584    252.3167      0.0448
  3925.0000     80.2500   1439.6605      0.3959    252.3641      0.0501
  3926.0000     80.2500   1439.9928      0.3836    252.4168      0.0483
  3927.0000     80.7500   1440.4277      0.3814    252.4607      0.0569
  3928.0000     80.7500   1440.7556      0.3848    252.5307      0.0613
  3929.0000     81.2500   1441.1974      0.4412    252.5832      0.0586
  3930.0000     81.2500   1441.6379      0.4387    252.6479      0.0647
  3931.0000     81.5000   1442.0748      0.3823    252.7127      0.0612
  3932.0000     81.5000   1442.4026      0.3715    252.7703      0.0577
  3933.0000     81.3700   1442.8179      0.4153    252.8280      0.0507
  3934.0000     81.3700   1443.2333      0.3787    252.8718      0.0511
  3935.0000     80.6200   1443.5753      0.3991    252.9302      0.0506
  3936.0000     80.1200   1444.0315      0.4483    252.9729      0.0495
  3937.0000     80.1200   1444.4719      0.4377    253.0292      0.0571
  3938.0000     80.1200   1444.9070      0.3896    253.0870      0.0587
  3939.0000     80.6200   1445.2511      0.4074    253.1466      0.0500
  3940.0000     81.2500   1445.7218      0.4036    253.1870      0.0416
  3941.0000     81.5000   1446.0583      0.3705    253.2298      0.0374
  3942.0000     81.5000   1446.4628      0.4105    253.2619      0.0368
  3943.0000     81.6200   1446.8794      0.4351    253.3034      0.0415
  3944.0000     81.3700   1447.3330      0.3969    253.3449      0.0398
  3945.0000     81.3700   1447.6732      0.3843    253.3830      0.0381
  3946.0000     80.8700   1448.1016      0.4284    253.4211      0.0315
  3947.0000     80.7500   1448.5300      0.3830    253.4459      0.0290
  3948.0000     80.2500   1448.8676      0.3939    253.4791      0.0283
  3949.0000     80.2500   1449.3179      0.3954    253.5026      0.0270
  3950.0000     80.5000   1449.6584      0.3983    253.5330      0.0256
  3951.0000     81.0000   1450.1145      0.4496    253.5538      0.0215
  3952.0000     81.3700   1450.5577      0.4368    253.5760      0.0219
  3953.0000     81.3700   1450.9880      0.3793    253.5977      0.0209
  3954.0000     82.0000   1451.3163      0.3902    253.6177      0.0175
  3955.0000     81.6200   1451.7684      0.4507    253.6327      0.0136
  3956.0000     81.1200   1452.2178      0.4452    253.6449      0.0122
  3957.0000     81.1200   1452.6588      0.3859    253.6572      0.0102
  3958.0000     80.7500   1452.9896      0.3887    253.6653      0.0082
  3959.0000     80.2500   1453.4363      0.4467    253.6736      0.0254
  3960.0000     80.3700   1453.8829      0.3918    253.7162      0.0498
  3961.0000     80.3700   1454.2200      0.3932    253.7731      0.0498
  3962.0000     80.7500   1454.6693      0.3914    253.8159      0.0500
  3963.0000     81.1200   1455.0028      0.3879    253.8731      0.0476
  3964.0000     81.6200   1455.4452      0.4427    253.9110      0.0376
  3965.0000     81.6200   1455.8883      0.4435    253.9482      0.0433
  3966.0000     82.0000   1456.3323      0.3871    253.9976      0.0677
  3967.0000     81.7500   1456.6625      0.3816    254.0837      0.0753
  3968.0000     81.0000   1457.0955      0.4312    254.1482      0.0620
  3969.0000     81.0000   1457.5248      0.4237    254.2077      0.0595
  3970.0000     80.5000   1457.9429      0.3658    254.2672      0.0555
  3971.0000     80.0000   1458.2565      0.3779    254.3188      0.0516
  3972.0000     80.0000   1458.6987      0.4423    254.3704      0.0439
  3973.0000     80.0000   1459.1410      0.3752    254.4065      0.0421
  3974.0000     80.5000   1459.4491      0.3595    254.4547      0.0423
  3975.0000     80.0000   1459.8600      0.4269    254.4911      0.0426
  3976.0000     80.0000   1460.3029      0.4482    254.5399      0.0470
  3977.0000     80.0000   1460.7563      0.3945    254.5850      0.0434
  3978.0000     80.5000   1461.0919      0.3900    254.6266      0.0394
  3979.0000     80.5000   1461.5363      0.3923    254.6638      0.0514
  3980.0000     80.5000   1461.8765      0.4059    254.7294      0.0573
  3981.0000     80.8700   1462.3481      0.4643    254.7785      0.0379
  3982.0000     80.8700   1462.8051      0.4344    254.8052      0.0267
  3983.0000     80.2500   1463.2170      0.3605    254.8318      0.0254
  3984.0000     80.2500   1463.5260      0.3778    254.8559      0.0241
  3985.0000     80.3700   1463.9727      0.4467    254.8801      0.0212
  3986.0000     81.1200   1464.4193      0.4036    254.8984      0.0214
  3987.0000     81.6200   1464.7799      0.4208    254.9229      0.0236
  3988.0000     81.6200   1465.2609      0.4498    254.9456      0.0280
  3989.0000     82.1200   1465.6796      0.4084    254.9789      0.0343
  3990.0000     81.8700   1466.0776      0.3622    255.0142      0.0364
  3991.0000     81.5000   1466.4041      0.3901    255.0517      0.0328
  3992.0000     81.5000   1466.8579      0.3964    255.0799      0.0331
  3993.0000     80.8700   1467.1969      0.3935    255.1179      0.0333
  3994.0000     80.7500   1467.6449      0.4468    255.1464      0.0371
  3995.0000     80.8700   1468.0906      0.4421    255.1920      0.0457
  3996.0000     80.8700   1468.5291      0.3837    255.2377      0.0397
  3997.0000     80.8700   1468.8579      0.3306    255.2714      0.0336
  3998.0000     81.5000   1469.1902      0.3877    255.3050      0.0330
  3999.0000     81.5000   1469.6333      0.4403    255.3373      0.0485
  4000.0000     81.8700   1470.0708      0.4366    255.4020      0.0629
  4001.0000     82.1200   1470.5065      0.3876    255.4631      0.0592
  4002.0000     82.0000   1470.8459      0.4003    255.5205      0.0455
  4003.0000     82.0000   1471.3071      0.4525    255.5540      0.0265
  4004.0000     81.5000   1471.7509      0.4350    255.5734      0.0162
  4005.0000     81.0000   1472.1771      0.3793    255.5865      0.0035
  4006.0000     80.8700   1472.5094      0.4044    255.5804     -0.0053
  4007.0000     80.8700   1472.9860      0.4169    255.5759      0.0016
  4008.0000     81.0000   1473.3433      0.3844    255.5836      0.0077
  4009.0000     81.5000   1473.7548      0.4115    255.5913     -0.0009
  4010.0000     81.6200   1474.1663      0.3654    255.5818     -0.0110
  4011.0000     81.6200   1474.4855      0.3724    255.5692      0.0008
  4012.0000     81.8700   1474.9111      0.4343    255.5835      0.0246
  4013.0000     82.2500   1475.3540      0.4457    255.6184      0.0354
  4014.0000     81.7500   1475.8026      0.3949    255.6543      0.0363
  4015.0000     81.7500   1476.1438      0.3995    255.6910      0.0379
  4016.0000     81.5000   1476.6017      0.3961    255.7301      0.0611
  4017.0000     80.8700   1476.9360      0.3780    255.8132      0.0727
  4018.0000     80.6200   1477.3577      0.4247    255.8755      0.0949
  4019.0000     80.6200   1477.7854      0.4370    256.0030      0.1275
  4020.0000     80.6200   1478.2317      0.3905    256.1306      0.1134
  4021.0000     80.7500   1478.5664      0.3947    256.2298      0.0992
  4022.0000     80.7500   1479.0210      0.4547    256.3290      0.0787
  4023.0000     81.0000   1479.4758      0.4238    256.3871      0.0678
  4024.0000     80.5000   1479.8685      0.3928    256.4646      0.0546
  4025.0000     80.5000   1480.2614      0.3544    256.4963      0.0241
