~Version Information
VERS.                            2.0: CWLS Log ASCII STANDARD - VERSION 2.0
WRAP.                             NO: One line per depth step
~Well Information
STRT.FT                      -6.0000: FIRST INDEX VALUE
STOP.FT                    7531.0000: LAST INDEX VALUE
STEP.FT                       1.0000: STEP
NULL.                      -999.2500: NULL VALUE
COMP.                UNIVERSITY OF UTAH: COMPANY
WELL.                          58-32: WELL
FLD.                           FORGE: FIELD
LOC.                                : LOCATION
CNTY.                         BEAVER: COUNTY
DATE.                       06/28/21: LOG DATE
STAT.                           UTAH: STATE
SECT.                               : SECTION
TOWN.                               : TOWNSHIP
RANG.                               : RANGE
API.                                : API#
OS.                                 : OTHER SERVICES
PDAT.FT                             : PERMANENT DATUM
EEL.FT                              : ELEVATION
LMF.FT                  GROUND LEVEL: LOG MEASURED FROM
DMF.FT                              : DRILLING MEASURED FROM
EKB.FT                              : KB
EDF.FT                              : DF
EGL.FT                              : GL
DATE1.                      06/28/21: DATE1
RUN1.                              1: RUN NUMBER
TDD1.FT                        7500': DEPTH DRILLER
TDL1.FT                        7510': DEPTH LOGGER
BLI1.FT                        7510': BOTTOM LOGGED INTERVAL
TLI1.FT                      SURFACE: TOP LOG INTERVAL
CDD1.IN_FT                          : CASING DRILLER
CDL1.FT                             : CASING LOGGER
BS1.IN                           N/A: BIT SIZE
DFT1.                            N/A: TYPE FLUID IN HOLE
DFDV1.GM/C3_CP                   N/A: DENSITY/VISCOSITY
DFPL1.C3                            : PH/FLUID LOSS
MSS1.                               : SOURCE OF SAMPLE
RMT1.OHHM_DEGF                      : RM@MEASURED TEMP
RMFT1.OHMM_DEGF                     : RMF@MEASURED TEMP
RMCT1.OHMM_DEGF                     : RMC@MEASURED TEMP
RMFS1.                              : SOURCE OF RMF/RMC
RMBT1.OHMM_DEGF                     : RM@BHT
TCS1.                               : TIME CIRCULATION STOPPED
TLOB1.                           N/A: TIME LOGGER ON BOTTOM
BHT1.DEGF                      385°F: MAXIMUM RECORDED TEMPERATURE
LUN1.                           WL 1: EQUIPMENT NUMBER
LUL1.                          FORGE: LOCATION
ENGI1.                    COREY BIHM: RECORDED BY
WITN1.                           N/A: WITNESSED BY
~Curve Information
DEPT.FT                  0 000 00 00: Depth
LSPD.FT/MIN                        0: Line Speed
PRES.PSI                           0: Pressure
DPRES.PSI/FT                       0: Differential of PRES
TEMP.DEGF                          0: Ext. Temp
DTEMP.DEGF/FT                      0: Differential of TEMP
~Parameter Information
~Other Information
LOG WAS MEASURED FROM GROUND LEVEL

TAG @ 7510'

MAX TEMP 385°F

MAX PRESSURE 2850PSI

PERFORATIONS N/A

"THANK YOU FOR USING DI DRILL SURVEY SERVICES"

~A  Depth       LSPD        PRES       DPRES        TEMP       DTEMP    
# ...
  4474.0000     79.5000   1661.5710      0.4307    275.6823      0.0684
  4475.0000     79.1200   1661.9973      0.4268    275.7507      0.0800
  4476.0000     79.1200   1662.4246      0.4288    275.8422      0.0916
  4477.0000     79.1200   1662.8550      0.3766    275.9338      0.0573
  4478.0000     79.2500   1663.1777      0.3649    275.9568      0.0229
  4479.0000     78.8700   1663.5847      0.4070    275.9797      0.0126
  4480.0000     79.1200   1663.9917      0.4135    275.9820      0.0027
  4481.0000     78.5000   1664.4116      0.4199    275.9850      0.0209
  4482.0000     78.5000   1664.8314      0.4199    276.0237      0.0447
  4483.0000     78.0000   1665.2513      0.4199    276.0744      0.0481
  4484.0000     78.0000   1665.6713      0.3758    276.1199      0.0447
  4485.0000     77.3700   1666.0029      0.3869    276.1637      0.0490
  4486.0000     77.3700   1666.4451      0.4312    276.2178      0.0702
  4487.0000     77.7500   1666.8654      0.4166    276.3042      0.0875
  4488.0000     78.0000   1667.2783      0.3612    276.3929      0.0899
  4489.0000     78.2500   1667.5878      0.3610    276.4840      0.0739
  4490.0000     78.2500   1668.0002      0.4096    276.5407      0.0506
  4491.0000     78.7500   1668.4070      0.4039    276.5853      0.0421
  4492.0000     78.6200   1668.8081      0.4030    276.6248      0.0319
  4493.0000     78.6200   1669.2129      0.4065    276.6491      0.0248
  4494.0000     77.8700   1669.6211      0.4036    276.6745      0.0270
  4495.0000     77.8700   1670.0200      0.3942    276.7032      0.0251
  4496.0000     76.5000   1670.4094      0.3455    276.7247      0.0109
  4497.0000     76.5000   1670.7111      0.3646    276.7249      0.0002
  4498.0000     76.2500   1671.1385      0.4333    276.7251      0.0168
  4499.0000     76.2500   1671.5778      0.4566    276.7585      0.0334
  4500.0000     76.8700   1672.0518      0.4148    276.7919      0.0589
  4501.0000     78.3700   1672.4073      0.3901    276.8762      0.0843
  4502.0000     78.6200   1672.8320      0.4247    276.9605      0.0634
  4503.0000     78.6200   1673.2568      0.4169    277.0030      0.0495
  4504.0000     79.2500   1673.6658      0.4089    277.0596      0.0494
  4505.0000     79.2500   1674.0746      0.3958    277.1019      0.0398
  4506.0000     79.0000   1674.4574      0.3828    277.1393      0.0461
  4507.0000     78.7500   1674.8402      0.3576    277.1940      0.0576
  4508.0000     78.7500   1675.1726      0.3878    277.2544      0.0418
  4509.0000     78.1200   1675.6158      0.4319    277.2775      0.0195
  4510.0000     78.2500   1676.0364      0.4168    277.2935      0.0183
  4511.0000     78.0000   1676.4495      0.3691    277.3142      0.0231
  4512.0000     78.0000   1676.7745      0.3845    277.3396      0.0158
  4513.0000     78.1200   1677.2184      0.4357    277.3457     -0.0103
  4514.0000     78.7500   1677.6460      0.4196    277.3191     -0.0290
  4515.0000     78.8700   1678.0576      0.3613    277.2877     -0.0387
  4516.0000     78.8700   1678.3685      0.3657    277.2417     -0.0402
  4517.0000     79.5000   1678.7889      0.4226    277.2072     -0.0128
  4518.0000     79.5000   1679.2137      0.4312    277.2161      0.0089
  4519.0000     79.0000   1679.6514      0.4321    277.2250      0.0374
  4520.0000     79.0000   1680.0780      0.4099    277.2908      0.0658
  4521.0000     78.6200   1680.4711      0.3440    277.3566      0.0513
  4522.0000     78.2500   1680.7660      0.3644    277.3934      0.0369
  4523.0000     78.3700   1681.1998      0.4338    277.4303      0.0443
  4524.0000     78.2500   1681.6337      0.4268    277.4819      0.0602
  4525.0000     78.2500   1682.0535      0.4198    277.5508      0.0608
  4526.0000     78.3700   1682.4733      0.3801    277.6035      0.0500
  4527.0000     78.6200   1682.8137      0.3973    277.6508      0.0352
  4528.0000     78.7500   1683.2678      0.4512    277.6739      0.0228
  4529.0000     78.7500   1683.7161      0.4474    277.6964      0.0139
  4530.0000     79.3700   1684.1626      0.4179    277.7017     -0.0032
  4531.0000     79.3700   1684.5519      0.3798    277.6899     -0.0103
  4532.0000     78.8700   1684.9222      0.3329    277.6811     -0.0072
  4533.0000     78.8700   1685.2177      0.3505    277.6754     -0.0024
  4534.0000     78.5000   1685.6233      0.4197    277.6763      0.0079
  4535.0000     77.8700   1686.0571      0.4479    277.6911      0.0195
  4536.0000     78.0000   1686.5190      0.3958    277.7153      0.0383
  4537.0000     78.0000   1686.8486      0.3620    277.7676      0.0458
  4538.0000     78.0000   1687.2430      0.4042    277.8069      0.0436
  4539.0000     78.2500   1687.6571      0.4436    277.8548      0.0479
  4540.0000     78.7500   1688.1302      0.4635    277.9027      0.0619
  4541.0000     78.7500   1688.5841      0.4249    277.9787      0.0759
  4542.0000     78.8700   1688.9801      0.3465    278.0546      0.0740
  4543.0000     79.3700   1689.2771      0.3403    278.1267      0.0721
  4544.0000     79.2500   1689.6606      0.3835    278.1989      0.0575
  4545.0000     78.8700   1690.0442      0.4249    278.2417      0.0500
  4546.0000     78.8700   1690.5105      0.4663    278.2988      0.0570
  4547.0000     78.6200   1690.9768      0.3859    278.3558      0.0570
  4548.0000     78.1200   1691.2823      0.3565    278.4128      0.0534
  4549.0000     78.2500   1691.6898      0.4203    278.4626      0.0605
  4550.0000     78.2500   1692.1229      0.4373    278.5338      0.0784
  4551.0000     78.1200   1692.5645      0.3823    278.6194      0.0927
  4552.0000     78.3700   1692.8876      0.3743    278.7192      0.0819
  4553.0000     78.8700   1693.3130      0.4121    278.7832      0.0601
  4554.0000     78.8700   1693.7118      0.3855    278.8394      0.0481
  4555.0000     79.0000   1694.0840      0.3882    278.8795      0.0159
  4556.0000     79.6200   1694.4883      0.4202    278.8711     -0.0051
  4557.0000     78.8700   1694.9244      0.3790    278.8693      0.0080
  4558.0000     78.8700   1695.2463      0.3685    278.8872      0.0157
  4559.0000     78.5000   1695.6614      0.4147    278.9006      0.0269
  4560.0000     78.0000   1696.0758      0.4136    278.9410      0.0404
  4561.0000     77.3700   1696.4885      0.4141    278.9814      0.0509
  4562.0000     78.0000   1696.9039      0.4197    279.0428      0.0614
  4563.0000     78.0000   1697.3279      0.3709    279.1042      0.0604
  4564.0000     78.0000   1697.6458      0.3723    279.1637      0.0595
  4565.0000     78.5000   1698.0725      0.4267    279.2232      0.0401
  4566.0000     77.8700   1698.4991      0.3956    279.2440      0.0242
  4567.0000     77.8700   1698.8638      0.3647    279.2716      0.0312
  4568.0000     78.0000   1699.2285      0.3575    279.3064      0.0360
  4569.0000     78.1200   1699.5789      0.4088    279.3436      0.0592
  4570.0000     77.5000   1700.0461      0.4595    279.4247      0.1124
  4571.0000     77.5000   1700.4979      0.4492    279.5684      0.1265
  4572.0000     78.2500   1700.9446      0.4267    279.6777      0.0922
  4573.0000     78.0000   1701.3513      0.4001    279.7527      0.0552
  4574.0000     78.1200   1701.7448      0.3494    279.7881      0.0155
  4575.0000     78.6200   1702.0500      0.3595    279.7837     -0.0078
  4576.0000     78.6200   1702.4637      0.4239    279.7725     -0.0235
  4577.0000     78.8700   1702.8978      0.4443    279.7366     -0.0342
  4578.0000     79.1200   1703.3523      0.3937    279.7040     -0.0277
  4579.0000     79.3700   1703.6852      0.3778    279.6813     -0.0199
  4580.0000     79.3700   1704.1079      0.4211    279.6643      0.0095
  4581.0000     79.3700   1704.5273      0.4147    279.7003      0.0361
  4582.0000     79.2500   1704.9373      0.4083    279.7364      0.0573
  4583.0000     78.8700   1705.3440      0.4023    279.8149      0.0785
  4584.0000     78.8700   1705.7419      0.3481    279.8933      0.0658
  4585.0000     78.3700   1706.0403      0.3629    279.9464      0.0531
