~Version Information
VERS.                            2.0: CWLS Log ASCII STANDARD - VERSION 2.0
WRAP.                             NO: One line per depth step
~Well Information
STRT.FT                      -6.0000: FIRST INDEX VALUE
STOP.FT                    7531.0000: LAST INDEX VALUE
STEP.FT                       1.0000: STEP
NULL.                      -999.2500: NULL VALUE
COMP.                UNIVERSITY OF UTAH: COMPANY
WELL.                          58-32: WELL
FLD.                           FORGE: FIELD
LOC.                                : LOCATION
CNTY.                         BEAVER: COUNTY
DATE.                       06/28/21: LOG DATE
STAT.                           UTAH: STATE
SECT.                               : SECTION
TOWN.                               : TOWNSHIP
RANG.                               : RANGE
API.                                : API#
OS.                                 : OTHER SERVICES
PDAT.FT                             : PERMANENT DATUM
EEL.FT                              : ELEVATION
LMF.FT                  GROUND LEVEL: LOG MEASURED FROM
DMF.FT                              : DRILLING MEASURED FROM
EKB.FT                              : KB
EDF.FT                              : DF
EGL.FT                              : GL
DATE1.                      06/28/21: DATE1
RUN1.                              1: RUN NUMBER
TDD1.FT                        7500': DEPTH DRILLER
TDL1.FT                        7510': DEPTH LOGGER
BLI1.FT                        7510': BOTTOM LOGGED INTERVAL
TLI1.FT                      SURFACE: TOP LOG INTERVAL
CDD1.IN_FT                          : CASING DRILLER
CDL1.FT                             : CASING LOGGER
BS1.IN                           N/A: BIT SIZE
DFT1.                            N/A: TYPE FLUID IN HOLE
DFDV1.GM/C3_CP                   N/A: DENSITY/VISCOSITY
DFPL1.C3                            : PH/FLUID LOSS
MSS1.                               : SOURCE OF SAMPLE
RMT1.OHHM_DEGF                      : RM@MEASURED TEMP
RMFT1.OHMM_DEGF                     : RMF@MEASURED TEMP
RMCT1.OHMM_DEGF                     : RMC@MEASURED TEMP
RMFS1.                              : SOURCE OF RMF/RMC
RMBT1.OHMM_DEGF                     : RM@BHT
TCS1.                               : TIME CIRCULATION STOPPED
TLOB1.                           N/A: TIME LOGGER ON BOTTOM
BHT1.DEGF                      385°F: MAXIMUM RECORDED TEMPERATURE
LUN1.                           WL 1: EQUIPMENT NUMBER
LUL1.                          FORGE: LOCATION
ENGI1.                    COREY BIHM: RECORDED BY
WITN1.                           N/A: WITNESSED BY
~Curve Information
DEPT.FT                  0 000 00 00: Depth
LSPD.FT/MIN                        0: Line Speed
PRES.PSI                           0: Pressure
DPRES.PSI/FT                       0: Differential of PRES
TEMP.DEGF                          0: Ext. Temp
DTEMP.DEGF/FT                      0: Differential of TEMP
~Parameter Information
~Other Information
LOG WAS MEASURED FROM GROUND LEVEL

TAG @ 7510'

MAX TEMP 385°F

MAX PRESSURE 2850PSI

PERFORATIONS N/A

"THANK YOU FOR USING DI DRILL SURVEY SERVICES"

~A  Depth       LSPD        PRES       DPRES        TEMP       DTEMP    
    -6.0000   -999.2500     -1.5642      0.0000   -999.2500      0.0000
    -5.0000      0.0000     -1.5642     -0.0016     88.8735      0.0000
    -4.0000     10.7500     -1.5674     -0.0078     88.8735      0.0000
    -3.0000     25.2500     -1.5798     -0.0159     88.8735     -0.0137
    -2.0000     45.7500     -1.5992     -0.0298     88.8461     -0.0274
    -1.0000     45.7500     -1.6393     -0.0316     88.8187     -0.0167
     0.0000     67.0000     -1.6624     -0.0045     88.8127     -0.0077
     1.0000     75.6200     -1.6484      0.0140     88.8034     -0.0111
     2.0000     80.1200     -1.6345      0.0137     88.7905     -0.0140
     3.0000     76.0000     -1.6209      0.0083     88.7755     -0.0182
     4.0000     76.0000     -1.6179     -0.0023     88.7541     -0.0240
     5.0000     72.7500     -1.6255     -0.0063     88.7275     -0.0345
     6.0000     71.7500     -1.6305     -0.0037     88.6852     -0.0436
     7.0000     70.8700     -1.6329      0.0045     88.6404     -0.0486
     8.0000     74.0000     -1.6214      0.0142     88.5880     -0.0638
     9.0000     74.7500     -1.6045      0.0041     88.5128     -0.0735
    10.0000     74.7500     -1.6132     -0.0129     88.4409     -0.0733
    11.0000     73.6200     -1.6303     -0.0166     88.3662     -0.0763
    12.0000     72.1200     -1.6464     -0.0159     88.2884     -0.0811
    13.0000     70.5000     -1.6622     -0.0053     88.2039     -0.0879
    14.0000     68.8700     -1.6570      0.0071     88.1126     -0.0990
    15.0000     70.5000     -1.6480      0.0126     88.0060     -0.0940
    16.0000     70.5000     -1.6319      0.0160     87.9247     -0.0807
    17.0000     72.2500     -1.6159      0.0107     87.8446     -0.0798
    18.0000     71.7500     -1.6106      0.0053     87.7651     -0.0793
    19.0000     72.7500     -1.6054     -0.0013     87.6861     -0.0788
    20.0000     73.5000     -1.6131     -0.0080     87.6074     -0.0750
    21.0000     73.0000     -1.6213     -0.0048     87.5362     -0.0699
    22.0000     73.0000     -1.6227     -0.0057     87.4675     -0.0718
    23.0000     73.1200     -1.6326     -0.0229     87.3925     -0.0664
    24.0000     73.2500     -1.6684     -0.0273     87.3347     -0.0600
    25.0000     71.0000     -1.6873      0.0066     87.2725     -0.0622
    26.0000     71.1200     -1.6552      0.0250     87.2103     -0.0597
    27.0000     72.0000     -1.6373     -0.0034     87.1532     -0.0571
    28.0000     72.0000     -1.6621     -0.0182     87.0961     -0.0518
    29.0000     71.6200     -1.6736      0.0082     87.0496     -0.0465
    30.0000     71.8700     -1.6457      0.0239     87.0031     -0.0430
    31.0000     72.2500     -1.6258      0.0090     86.9635     -0.0443
    32.0000     72.7500     -1.6277     -0.0080     86.9144     -0.0436
    33.0000     72.7500     -1.6418     -0.0202     86.8762     -0.0384
    34.0000     72.7500     -1.6681     -0.0055     86.8375     -0.0395
    35.0000     72.8700     -1.6528      0.0266     86.7973     -0.0433
    36.0000     72.8700     -1.6149      0.0169     86.7510     -0.0393
    37.0000     70.8700     -1.6189     -0.0111     86.7187     -0.0317
    38.0000     70.1200     -1.6370      0.0026     86.6877     -0.0305
    39.0000     70.6200     -1.6138      0.0254     86.6578     -0.0333
    40.0000     69.3700     -1.5861      0.0090     86.6210     -0.0329
    41.0000     69.3700     -1.5959     -0.0089     86.5920     -0.0288
    42.0000     70.0000     -1.6040     -0.0006     86.5635     -0.0284
    43.0000     70.6200     -1.5971     -0.0016     86.5352     -0.0294
    44.0000     70.6200     -1.6073     -0.0355     86.5047     -0.0270
    45.0000     71.2500     -1.6682     -0.0489     86.4813     -0.0234
    46.0000     71.7500     -1.7051     -0.0096     86.4580     -0.0267
    47.0000     71.7500     -1.6875      0.0162     86.4280     -0.0284
    48.0000     70.6200     -1.6727      0.0133     86.4012     -0.0270
    49.0000     69.1200     -1.6608      0.0212     86.3741     -0.0276
    50.0000     69.2500     -1.6304      0.0316     86.3459     -0.0321
    51.0000     68.8700     -1.5977      0.0111     86.3098     -0.0331
    52.0000     69.7500     -1.6081     -0.0176     86.2796     -0.0296
    53.0000     70.5000     -1.6328     -0.0176     86.2506     -0.0284
    54.0000     70.5000     -1.6434     -0.0081     86.2228     -0.0264
    55.0000     70.5000     -1.6491     -0.0021     86.1979     -0.0234
    56.0000     71.3700     -1.6475      0.0028     86.1759     -0.0204
    57.0000     71.8700     -1.6434      0.0104     86.1570     -0.0173
    58.0000     72.5000     -1.6267      0.0155     86.1412     -0.0205
    59.0000     72.7500     -1.6125      0.0040     86.1160     -0.0242
    60.0000     72.7500     -1.6186     -0.0063     86.0928     -0.0218
    61.0000     71.5000     -1.6250     -0.0068     86.0724     -0.0175
    62.0000     71.1200     -1.6322     -0.0094     86.0578     -0.0127
    63.0000     70.7500     -1.6439     -0.0185     86.0470     -0.0108
    64.0000     70.1200     -1.6691     -0.0134     86.0361     -0.0116
    65.0000     70.3700     -1.6708      0.0165     86.0237     -0.0144
    66.0000     70.5000     -1.6361      0.0208     86.0073     -0.0162
    67.0000     70.5000     -1.6292     -0.0070     85.9913     -0.0153
    68.0000     70.8700     -1.6502     -0.0185     85.9767     -0.0128
    69.0000     71.3700     -1.6662     -0.0136     85.9658     -0.0112
    70.0000     72.0000     -1.6774      0.0044     85.9544     -0.0124
    71.0000     72.7500     -1.6574      0.0272     85.9410     -0.0154
    72.0000     72.3700     -1.6231      0.0127     85.9235     -0.0162
    73.0000     72.3700     -1.6320     -0.0161     85.9086     -0.0142
    74.0000     71.7500     -1.6553     -0.0131     85.8951     -0.0129
    75.0000     71.3700     -1.6582      0.0005     85.8829     -0.0117
    76.0000     70.2500     -1.6543     -0.0037     85.8718     -0.0107
    77.0000     70.0000     -1.6655     -0.0118     85.8616     -0.0103
    78.0000     70.5000     -1.6778      0.0157     85.8511     -0.0089
    79.0000     70.5000     -1.6341      0.0437     85.8438     -0.0100
    80.0000     70.5000     -1.5904     -0.0045     85.8311     -0.0137
    81.0000     71.3700     -1.6431     -0.0520     85.8165     -0.0115
    82.0000     72.2500     -1.6944     -0.0229     85.8081     -0.0074
    83.0000     73.0000     -1.6889      0.0041     85.8016     -0.0110
    84.0000     73.6200     -1.6862     -0.0017     85.7860     -0.0149
    85.0000     73.6200     -1.6923     -0.0030     85.7719     -0.0119
    86.0000     73.1200     -1.6921      0.0096     85.7621     -0.0098
    87.0000     72.5000     -1.6732      0.0164     85.7524     -0.0114
    88.0000     71.6200     -1.6594      0.0062     85.7394     -0.0130
    89.0000     71.3700     -1.6609     -0.0025     85.7264     -0.0096
    90.0000     71.8700     -1.6644     -0.0065     85.7203     -0.0062
    91.0000     71.8700     -1.6738     -0.0069     85.7141     -0.0080
    92.0000     72.2500     -1.6781      0.0034     85.7043     -0.0098
    93.0000     72.5000     -1.6670      0.0094     85.6946     -0.0097
    94.0000     72.8700     -1.6592      0.0025     85.6849     -0.0096
    95.0000     74.1200     -1.6619      0.0012     85.6753     -0.0096
    96.0000     74.1200     -1.6569      0.0165     85.6658     -0.0095
    97.0000     75.0000     -1.6289      0.0192     85.6563     -0.0100
    98.0000     76.2500     -1.6186     -0.0161     85.6457     -0.0106
    99.0000     76.5000     -1.6612     -0.0340     85.6351     -0.0101
   100.0000     75.1200     -1.6866      0.0004     85.6255     -0.0096
   101.0000     75.1200     -1.6604      0.0206     85.6159     -0.0100
   102.0000     74.6200     -1.6454     -0.0018     85.6054     -0.0104
   103.0000     74.0000     -1.6640     -0.0143     85.5950     -0.0100
   104.0000     73.8700     -1.6739      0.0028     85.5854     -0.0096
   105.0000     74.2500     -1.6583      0.0097     85.5757     -0.0093
