~Version Information
VERS.                            2.0: CWLS Log ASCII STANDARD - VERSION 2.0
WRAP.                             NO: One line per depth step
~Well Information
STRT.FT                      -6.0000: FIRST INDEX VALUE
STOP.FT                    7531.0000: LAST INDEX VALUE
STEP.FT                       1.0000: STEP
NULL.                      -999.2500: NULL VALUE
COMP.                UNIVERSITY OF UTAH: COMPANY
WELL.                          58-32: WELL
FLD.                           FORGE: FIELD
LOC.                                : LOCATION
CNTY.                         BEAVER: COUNTY
DATE.                       06/28/21: LOG DATE
STAT.                           UTAH: STATE
SECT.                               : SECTION
TOWN.                               : TOWNSHIP
RANG.                               : RANGE
API.                                : API#
OS.                                 : OTHER SERVICES
PDAT.FT                             : PERMANENT DATUM
EEL.FT                              : ELEVATION
LMF.FT                  GROUND LEVEL: LOG MEASURED FROM
DMF.FT                              : DRILLING MEASURED FROM
EKB.FT                              : KB
EDF.FT                              : DF
EGL.FT                              : GL
DATE1.                      06/28/21: DATE1
RUN1.                              1: RUN NUMBER
TDD1.FT                        7500': DEPTH DRILLER
TDL1.FT                        7510': DEPTH LOGGER
BLI1.FT                        7510': BOTTOM LOGGED INTERVAL
TLI1.FT                      SURFACE: TOP LOG INTERVAL
CDD1.IN_FT                          : CASING DRILLER
CDL1.FT                             : CASING LOGGER
BS1.IN                           N/A: BIT SIZE
DFT1.                            N/A: TYPE FLUID IN HOLE
DFDV1.GM/C3_CP                   N/A: DENSITY/VISCOSITY
DFPL1.C3                            : PH/FLUID LOSS
MSS1.                               : SOURCE OF SAMPLE
RMT1.OHHM_DEGF                      : RM@MEASURED TEMP
RMFT1.OHMM_DEGF                     : RMF@MEASURED TEMP
RMCT1.OHMM_DEGF                     : RMC@MEASURED TEMP
RMFS1.                              : SOURCE OF RMF/RMC
RMBT1.OHMM_DEGF                     : RM@BHT
TCS1.                               : TIME CIRCULATION STOPPED
TLOB1.                           N/A: TIME LOGGER ON BOTTOM
BHT1.DEGF                      385°F: MAXIMUM RECORDED TEMPERATURE
LUN1.                           WL 1: EQUIPMENT NUMBER
LUL1.                          FORGE: LOCATION
ENGI1.                    COREY BIHM: RECORDED BY
WITN1.                           N/A: WITNESSED BY
~Curve Information
DEPT.FT                  0 000 00 00: Depth
LSPD.FT/MIN                        0: Line Speed
PRES.PSI                           0: Pressure
DPRES.PSI/FT                       0: Differential of PRES
TEMP.DEGF                          0: Ext. Temp
DTEMP.DEGF/FT                      0: Differential of TEMP
~Parameter Information
~Other Information
LOG WAS MEASURED FROM GROUND LEVEL

TAG @ 7510'

MAX TEMP 385°F

MAX PRESSURE 2850PSI

PERFORATIONS N/A

"THANK YOU FOR USING DI DRILL SURVEY SERVICES"

~A  Depth       LSPD        PRES       DPRES        TEMP       DTEMP    
# ...
   442.0000     78.8700     -1.8117      0.0065     86.9520      0.0195
   443.0000     78.8700     -1.8042      0.0115     86.9712      0.0238
   444.0000     79.0000     -1.7887      0.0215     86.9996      0.0259
   445.0000     79.8700     -1.7613      0.0196     87.0229      0.0298
   446.0000     80.3700     -1.7496      0.0039     87.0592      0.0341
   447.0000     80.3700     -1.7535     -0.0074     87.0910      0.0251
   448.0000     80.5000     -1.7643     -0.0230     87.1094      0.0161
   449.0000     80.7500     -1.7995     -0.0283     87.1232      0.0201
   450.0000     80.2500     -1.8209     -0.0006     87.1496      0.0264
   451.0000     80.2500     -1.8007      0.0166     87.1760      0.0350
   452.0000     79.5000     -1.7876      0.0023     87.2196      0.0436
   453.0000     79.0000     -1.7961     -0.0074     87.2631      0.0331
   454.0000     78.6200     -1.8024     -0.0162     87.2857      0.0225
   455.0000     78.6200     -1.8285     -0.0261     87.3082      0.0220
   456.0000     78.5000     -1.8545     -0.0104     87.3296      0.0250
   457.0000     79.1200     -1.8493      0.0061     87.3582      0.0194
   458.0000     79.8700     -1.8422      0.0103     87.3684      0.0082
   459.0000     79.8700     -1.8286      0.0148     87.3746      0.0082
   460.0000     80.0000     -1.8126      0.0122     87.3848      0.0122
   461.0000     80.7500     -1.8042      0.0088     87.3990      0.0120
   462.0000     80.5000     -1.7951      0.0068     87.4087      0.0101
   463.0000     80.5000     -1.7906      0.0023     87.4192      0.0092
   464.0000     79.6200     -1.7906      0.0000     87.4270      0.0039
   465.0000     79.6200     -1.7906      0.0000     87.4270      0.0000
   466.0000     78.8700     -1.7906     -0.0040     87.4270      0.0000
   467.0000     78.8700     -1.7986     -0.0199     87.4270      0.0000
   468.0000     78.7500     -1.8304     -0.0278     87.4270      0.0643
   469.0000     79.1200     -1.8542     -0.0062     87.5556      0.1286
   470.0000     79.5000     -1.8427      0.0115     87.6843      0.0754
   471.0000     79.5000     -1.8312      0.0134     87.7064      0.0258
   472.0000     80.0000     -1.8160      0.0152     87.7359      0.0237
   473.0000     80.2500     -1.8008      0.0115     87.7539      0.0160
   474.0000     79.6200     -1.7930      0.0077     87.7680      0.0151
   475.0000     78.1200     -1.7853      0.0030     87.7841      0.0164
   476.0000     78.1200     -1.7871     -0.0021     87.8008      0.0180
   477.0000     77.7500     -1.7895      0.0009     87.8201      0.0247
   478.0000     77.5000     -1.7853      0.0053     87.8503      0.0293
   479.0000     77.7500     -1.7788     -0.0017     87.8787      0.0275
   480.0000     77.7500     -1.7886     -0.0163     87.9053      0.0256
   481.0000     79.0000     -1.8113     -0.0160     87.9300      0.0352
   482.0000     79.1200     -1.8205     -0.0002     87.9756      0.0399
   483.0000     79.5000     -1.8118      0.0059     88.0098      0.0309
   484.0000     79.5000     -1.8087     -0.0052     88.0375      0.0276
   485.0000     80.3700     -1.8222     -0.0118     88.0651      0.0356
   486.0000     80.3700     -1.8323     -0.0021     88.1087      0.0436
   487.0000     80.8700     -1.8263      0.0060     88.1524      0.0370
   488.0000     80.8700     -1.8203      0.0008     88.1827      0.0354
   489.0000     80.6200     -1.8247     -0.0044     88.2231      0.0401
   490.0000     80.0000     -1.8291      0.0054     88.2628      0.0396
   491.0000     79.7500     -1.8139      0.0177     88.3022      0.0353
   492.0000     79.7500     -1.7936      0.0089     88.3334      0.0369
   493.0000     79.1200     -1.7962     -0.0063     88.3760      0.0416
   494.0000     79.0000     -1.8063     -0.0079     88.4166      0.0397
   495.0000     79.1200     -1.8120     -0.0060     88.4555      0.0348
   496.0000     79.1200     -1.8182     -0.0014     88.4863      0.0383
   497.0000     79.7500     -1.8148      0.0148     88.5321      0.0401
   498.0000     80.2500     -1.7886      0.0841     88.5665      0.3024
   499.0000     80.7500     -1.6466      0.3156     89.1369      0.5707
   500.0000     80.7500     -1.1574      0.4810     89.7078      1.0470
   501.0000     81.1200     -0.6847      0.4479     91.2309      1.5246
   502.0000     80.3700     -0.2616      0.3701     92.7571      1.2629
   503.0000     79.8700      0.0556      0.3574     93.7567      1.0003
   504.0000     79.8700      0.4532      0.3976     94.7577      0.8054
   505.0000     79.6200      0.8508      0.3329     95.3675      0.7118
   506.0000     78.8700      1.1190      0.3129     96.1814      0.6835
   507.0000     79.1200      1.4767      0.3826     96.7344      0.6262
   508.0000     79.1200      1.8843      0.4159     97.4338      0.6691
   509.0000     79.3700      2.3085      0.3687     98.0727      0.6086
   510.0000     79.6200      2.6217      0.3638     98.6509      0.4804
   511.0000     80.3700      3.0360      0.4281     99.0335      0.3778
   512.0000     80.3700      3.4780      0.4558     99.4066      0.3486
   513.0000     80.6200      3.9476      0.4116     99.7307      0.2505
   514.0000     80.7500      4.3011      0.4142     99.9077      0.1548
   515.0000     80.2500      4.7759      0.4715    100.0404      0.1937
   516.0000     80.2500      5.2441      0.4580    100.2951      0.2547
   517.0000     79.7500      5.6919      0.3919    100.5499      0.2597
   518.0000     79.3700      6.0278      0.3996    100.8145      0.2646
   519.0000     78.7500      6.4911      0.4633    101.0791      0.2561
   520.0000     78.7500      6.9544      0.4034    101.3267      0.2889
   521.0000     79.0000      7.2980      0.4009    101.6570      0.2653
   522.0000     79.2500      7.7562      0.4660    101.8574      0.2180
   523.0000     79.8700      8.2301      0.4766    102.0931      0.2313
   524.0000     79.8700      8.7094      0.4085    102.3200      0.2225
   525.0000     80.7500      9.0472      0.3869    102.5382      0.1957
   526.0000     80.7500      9.4832      0.4406    102.7115      0.2151
   527.0000     81.0000      9.9283      0.4496    102.9683      0.2584
   528.0000     81.0000     10.3825      0.3965    103.2282      0.2644
   529.0000     80.5000     10.7213      0.3929    103.4972      0.2354
   530.0000     79.7500     11.1682      0.4508    103.6989      0.2335
   531.0000     79.6200     11.6230      0.4665    103.9641      0.2652
   532.0000     79.6200     12.1012      0.4184    104.2294      0.2637
   533.0000     79.1200     12.4598      0.3927    104.4915      0.2621
   534.0000     79.0000     12.8866      0.4268    104.7536      0.2053
   535.0000     79.2500     13.3134      0.4507    104.9020      0.1731
   536.0000     79.2500     13.7880      0.4746    105.0999      0.1849
   537.0000     79.5000     14.2625      0.4058    105.2718      0.1676
   538.0000     79.8700     14.5996      0.3932    105.4351      0.1412
   539.0000     80.2500     15.0489      0.4546    105.5543      0.1380
   540.0000     80.2500     15.5089      0.4617    105.7110      0.1525
   541.0000     80.6200     15.9723      0.3998    105.8594      0.1441
   542.0000     80.8700     16.3085      0.3884    105.9993      0.1201
   543.0000     80.6200     16.7491      0.3910    106.0996      0.1110
   544.0000     80.6200     17.0906      0.4131    106.2213      0.1064
   545.0000     80.3700     17.5753      0.4756    106.3125      0.0990
   546.0000     79.6200     18.0419      0.4395    106.4193      0.1068
   547.0000     79.1200     18.4542      0.4134    106.5261      0.0989
   548.0000     79.1200     18.8686      0.4173    106.6171      0.0910
   549.0000     79.1200     19.2888      0.4269    106.7080      0.0887
   550.0000     78.3700     19.7223      0.4533    106.7945      0.0865
   551.0000     77.6200     20.1955      0.4140    106.8809      0.0852
   552.0000     77.8700     20.5503      0.4181    106.9649      0.0840
   553.0000     77.8700     21.0317      0.4814    107.0489      0.0688
