~Version Information
VERS.                            2.0: CWLS Log ASCII STANDARD - VERSION 2.0
WRAP.                             NO: One line per depth step
~Well Information
STRT.FT                      -6.0000: FIRST INDEX VALUE
STOP.FT                    7531.0000: LAST INDEX VALUE
STEP.FT                       1.0000: STEP
NULL.                      -999.2500: NULL VALUE
COMP.                UNIVERSITY OF UTAH: COMPANY
WELL.                          58-32: WELL
FLD.                           FORGE: FIELD
LOC.                                : LOCATION
CNTY.                         BEAVER: COUNTY
DATE.                       06/28/21: LOG DATE
STAT.                           UTAH: STATE
SECT.                               : SECTION
TOWN.                               : TOWNSHIP
RANG.                               : RANGE
API.                                : API#
OS.                                 : OTHER SERVICES
PDAT.FT                             : PERMANENT DATUM
EEL.FT                              : ELEVATION
LMF.FT                  GROUND LEVEL: LOG MEASURED FROM
DMF.FT                              : DRILLING MEASURED FROM
EKB.FT                              : KB
EDF.FT                              : DF
EGL.FT                              : GL
DATE1.                      06/28/21: DATE1
RUN1.                              1: RUN NUMBER
TDD1.FT                        7500': DEPTH DRILLER
TDL1.FT                        7510': DEPTH LOGGER
BLI1.FT                        7510': BOTTOM LOGGED INTERVAL
TLI1.FT                      SURFACE: TOP LOG INTERVAL
CDD1.IN_FT                          : CASING DRILLER
CDL1.FT                             : CASING LOGGER
BS1.IN                           N/A: BIT SIZE
DFT1.                            N/A: TYPE FLUID IN HOLE
DFDV1.GM/C3_CP                   N/A: DENSITY/VISCOSITY
DFPL1.C3                            : PH/FLUID LOSS
MSS1.                               : SOURCE OF SAMPLE
RMT1.OHHM_DEGF                      : RM@MEASURED TEMP
RMFT1.OHMM_DEGF                     : RMF@MEASURED TEMP
RMCT1.OHMM_DEGF                     : RMC@MEASURED TEMP
RMFS1.                              : SOURCE OF RMF/RMC
RMBT1.OHMM_DEGF                     : RM@BHT
TCS1.                               : TIME CIRCULATION STOPPED
TLOB1.                           N/A: TIME LOGGER ON BOTTOM
BHT1.DEGF                      385°F: MAXIMUM RECORDED TEMPERATURE
LUN1.                           WL 1: EQUIPMENT NUMBER
LUL1.                          FORGE: LOCATION
ENGI1.                    COREY BIHM: RECORDED BY
WITN1.                           N/A: WITNESSED BY
~Curve Information
DEPT.FT                  0 000 00 00: Depth
LSPD.FT/MIN                        0: Line Speed
PRES.PSI                           0: Pressure
DPRES.PSI/FT                       0: Differential of PRES
TEMP.DEGF                          0: Ext. Temp
DTEMP.DEGF/FT                      0: Differential of TEMP
~Parameter Information
~Other Information
LOG WAS MEASURED FROM GROUND LEVEL

TAG @ 7510'

MAX TEMP 385°F

MAX PRESSURE 2850PSI

PERFORATIONS N/A

"THANK YOU FOR USING DI DRILL SURVEY SERVICES"

~A  Depth       LSPD        PRES       DPRES        TEMP       DTEMP    
# ...
  6378.0000     75.2500   2414.0466      0.3812    345.7679      0.0191
  6379.0000     75.2500   2414.4368      0.3979    345.7896      0.0300
  6380.0000     74.8700   2414.8425      0.4135    345.8279      0.0393
  6381.0000     74.3700   2415.2637      0.4141    345.8683      0.0439
  6382.0000     74.8700   2415.6707      0.3999    345.9156      0.0468
  6383.0000     75.2500   2416.0635      0.3978    345.9620      0.0449
  6384.0000     75.2500   2416.4663      0.4078    346.0055      0.0406
  6385.0000     76.1200   2416.8792      0.4034    346.0433      0.0292
  6386.0000     76.7500   2417.2732      0.3844    346.0638      0.0219
  6387.0000     76.1200   2417.6479      0.3711    346.0872      0.0274
  6388.0000     75.2500   2418.0154      0.3638    346.1186      0.0339
  6389.0000     75.2500   2418.3755      0.3711    346.1550      0.0439
  6390.0000     74.6200   2418.7576      0.3932    346.2063      0.0496
  6391.0000     74.3700   2419.1619      0.3533    346.2541      0.0424
  6392.0000     74.7500   2419.4641      0.3518    346.2910      0.0323
  6393.0000     75.6200   2419.8655      0.4053    346.3188      0.0297
  6394.0000     75.6200   2420.2747      0.4211    346.3504      0.0316
  6395.0000     75.7500   2420.7078      0.4240    346.3820      0.0383
  6396.0000     75.8700   2421.1226      0.3873    346.4270      0.0450
  6397.0000     75.7500   2421.4824      0.3650    346.4720      0.0571
  6398.0000     75.3700   2421.8525      0.3855    346.5413      0.0692
  6399.0000     75.3700   2422.2534      0.3983    346.6105      0.0486
  6400.0000     75.1200   2422.6492      0.3878    346.6386      0.0280
  6401.0000     74.7500   2423.0291      0.3798    346.6666      0.0216
  6402.0000     75.1200   2423.4087      0.3788    346.6817      0.0151
  6403.0000     75.1200   2423.7866      0.3818    346.6968      0.0161
  6404.0000     75.1200   2424.1724      0.3977    346.7140      0.0172
  6405.0000     75.2500   2424.5820      0.4066    346.7312      0.0194
  6406.0000     75.3700   2424.9856      0.3944    346.7529      0.0217
  6407.0000     75.2500   2425.3708      0.3883    346.7745      0.0301
  6408.0000     75.6200   2425.7622      0.4004    346.8130      0.0385
  6409.0000     75.6200   2426.1716      0.4065    346.8514      0.0422
  6410.0000     76.0000   2426.5752      0.3950    346.8973      0.0459
  6411.0000     76.0000   2426.9617      0.3832    346.9432      0.0588
  6412.0000     75.2500   2427.3416      0.3700    347.0149      0.0716
  6413.0000     74.7500   2427.7017      0.3645    347.0865      0.0494
  6414.0000     74.7500   2428.0706      0.3820    347.1137      0.0272
  6415.0000     74.2500   2428.4656      0.3967    347.1409      0.0392
  6416.0000     74.1200   2428.8640      0.4032    347.1921      0.0512
  6417.0000     75.0000   2429.2720      0.4042    347.2434      0.0791
  6418.0000     74.7500   2429.6724      0.3885    347.3503      0.1069
  6419.0000     74.7500   2430.0491      0.3796    347.4573      0.0724
  6420.0000     74.6200   2430.4316      0.3907    347.4951      0.0379
  6421.0000     74.6200   2430.8306      0.3973    347.5330      0.0564
  6422.0000     74.6200   2431.2263      0.3911    347.6079      0.0749
  6423.0000     75.0000   2431.6128      0.3862    347.6827      0.0721
  6424.0000     75.0000   2431.9988      0.3854    347.7521      0.0694
  6425.0000     74.8700   2432.3835      0.3916    347.8215      0.0579
  6426.0000     75.1200   2432.7820      0.4194    347.8679      0.0464
  6427.0000     75.0000   2433.2224      0.4277    347.9142      0.0460
  6428.0000     75.1200   2433.6375      0.3763    347.9598      0.0455
  6429.0000     75.1200   2433.9751      0.3480    348.0053      0.0492
  6430.0000     75.5000   2434.3335      0.3887    348.0581      0.0528
  6431.0000     75.6200   2434.7524      0.4130    348.1109      0.0451
  6432.0000     75.6200   2435.1594      0.3888    348.1484      0.0375
  6433.0000     75.6200   2435.5300      0.3727    348.1859      0.0381
  6434.0000     76.0000   2435.9048      0.3812    348.2246      0.0387
  6435.0000     76.1200   2436.2925      0.3907    348.2633      0.0317
  6436.0000     75.7500   2436.6863      0.4032    348.2881      0.0247
  6437.0000     75.3700   2437.0989      0.3611    348.3127      0.0178
  6438.0000     74.6200   2437.4084      0.3497    348.3236      0.0109
  6439.0000     74.6200   2437.7983      0.3899    348.3345      0.0095
  6440.0000     74.6200   2438.1882      0.3822    348.3426      0.0095
  6441.0000     75.1200   2438.5627      0.3746    348.3535      0.0134
  6442.0000     75.6200   2438.9375      0.3938    348.3694      0.0168
  6443.0000     75.6200   2439.3503      0.4128    348.3871      0.0197
  6444.0000     76.3700   2439.7632      0.4067    348.4088      0.0223
  6445.0000     76.0000   2440.1638      0.4008    348.4318      0.0207
  6446.0000     75.8700   2440.5647      0.3950    348.4502      0.0176
  6447.0000     75.2500   2440.9539      0.3892    348.4670      0.0132
  6448.0000     75.2500   2441.3430      0.3816    348.4766      0.0084
  6449.0000     74.8700   2441.7170      0.3740    348.4839      0.0108
  6450.0000     75.5000   2442.0911      0.3907    348.4981      0.0154
  6451.0000     75.3700   2442.4985      0.4073    348.5147      0.0161
  6452.0000     75.7500   2442.9058      0.4023    348.5304      0.0155
  6453.0000     75.7500   2443.3032      0.3973    348.5457      0.0119
  6454.0000     75.6200   2443.7004      0.3490    348.5542      0.0073
  6455.0000     75.2500   2444.0012      0.3508    348.5604      0.0060
  6456.0000     75.1200   2444.4021      0.4408    348.5663      0.0073
  6457.0000     75.3700   2444.8828      0.4305    348.5750      0.0119
  6458.0000     75.3700   2445.2632      0.3248    348.5901      0.0147
  6459.0000     76.0000   2445.5325      0.3141    348.6044      0.0116
  6460.0000     76.1200   2445.8914      0.3812    348.6133      0.0098
  6461.0000     76.1200   2446.2949      0.4109    348.6239      0.0109
  6462.0000     75.5000   2446.7131      0.4049    348.6350      0.0113
  6463.0000     75.5000   2447.1047      0.3872    348.6465      0.0128
  6464.0000     74.5000   2447.4875      0.3860    348.6606      0.0153
  6465.0000     74.2500   2447.8767      0.3904    348.6772      0.0231
  6466.0000     74.7500   2448.2683      0.3962    348.7067      0.0359
  6467.0000     75.6200   2448.6692      0.4023    348.7491      0.0399
  6468.0000     75.6200   2449.0730      0.4020    348.7865      0.0349
  6469.0000     76.3700   2449.4731      0.3993    348.8189      0.0306
  6470.0000     76.7500   2449.8716      0.4135    348.8477      0.0271
  6471.0000     76.1200   2450.3000      0.4333    348.8731      0.0325
  6472.0000     75.5000   2450.7383      0.4032    348.9128      0.0468
  6473.0000     75.5000   2451.1064      0.3566    348.9667      0.0556
  6474.0000     75.0000   2451.4514      0.3568    349.0240      0.0590
  6475.0000     74.7500   2451.8201      0.3724    349.0847      0.0562
  6476.0000     75.0000   2452.1963      0.3818    349.1364      0.0470
  6477.0000     75.0000   2452.5837      0.3894    349.1788      0.0382
  6478.0000     75.2500   2452.9751      0.4041    349.2127      0.0296
  6479.0000     75.5000   2453.3918      0.4211    349.2380      0.0201
  6480.0000     75.5000   2453.8174      0.4063    349.2528      0.0094
  6481.0000     75.8700   2454.2043      0.3807    349.2568      0.0039
  6482.0000     75.8700   2454.5789      0.3809    349.2607      0.0037
  6483.0000     75.6200   2454.9661      0.3892    349.2643      0.0059
  6484.0000     75.5000   2455.3572      0.3888    349.2724      0.0103
  6485.0000     75.7500   2455.7437      0.3859    349.2850      0.0157
  6486.0000     75.1200   2456.1289      0.3827    349.3037      0.0219
  6487.0000     74.2500   2456.5090      0.3795    349.3287      0.0293
  6488.0000     74.2500   2456.8879      0.3850    349.3624      0.0381
  6489.0000     73.3700   2457.2791      0.3932    349.4048      0.0399
