~Version Information
VERS.                            2.0: CWLS Log ASCII STANDARD - VERSION 2.0
WRAP.                             NO: One line per depth step
~Well Information
STRT.FT                      -6.0000: FIRST INDEX VALUE
STOP.FT                    7531.0000: LAST INDEX VALUE
STEP.FT                       1.0000: STEP
NULL.                      -999.2500: NULL VALUE
COMP.                UNIVERSITY OF UTAH: COMPANY
WELL.                          58-32: WELL
FLD.                           FORGE: FIELD
LOC.                                : LOCATION
CNTY.                         BEAVER: COUNTY
DATE.                       06/28/21: LOG DATE
STAT.                           UTAH: STATE
SECT.                               : SECTION
TOWN.                               : TOWNSHIP
RANG.                               : RANGE
API.                                : API#
OS.                                 : OTHER SERVICES
PDAT.FT                             : PERMANENT DATUM
EEL.FT                              : ELEVATION
LMF.FT                  GROUND LEVEL: LOG MEASURED FROM
DMF.FT                              : DRILLING MEASURED FROM
EKB.FT                              : KB
EDF.FT                              : DF
EGL.FT                              : GL
DATE1.                      06/28/21: DATE1
RUN1.                              1: RUN NUMBER
TDD1.FT                        7500': DEPTH DRILLER
TDL1.FT                        7510': DEPTH LOGGER
BLI1.FT                        7510': BOTTOM LOGGED INTERVAL
TLI1.FT                      SURFACE: TOP LOG INTERVAL
CDD1.IN_FT                          : CASING DRILLER
CDL1.FT                             : CASING LOGGER
BS1.IN                           N/A: BIT SIZE
DFT1.                            N/A: TYPE FLUID IN HOLE
DFDV1.GM/C3_CP                   N/A: DENSITY/VISCOSITY
DFPL1.C3                            : PH/FLUID LOSS
MSS1.                               : SOURCE OF SAMPLE
RMT1.OHHM_DEGF                      : RM@MEASURED TEMP
RMFT1.OHMM_DEGF                     : RMF@MEASURED TEMP
RMCT1.OHMM_DEGF                     : RMC@MEASURED TEMP
RMFS1.                              : SOURCE OF RMF/RMC
RMBT1.OHMM_DEGF                     : RM@BHT
TCS1.                               : TIME CIRCULATION STOPPED
TLOB1.                           N/A: TIME LOGGER ON BOTTOM
BHT1.DEGF                      385°F: MAXIMUM RECORDED TEMPERATURE
LUN1.                           WL 1: EQUIPMENT NUMBER
LUL1.                          FORGE: LOCATION
ENGI1.                    COREY BIHM: RECORDED BY
WITN1.                           N/A: WITNESSED BY
~Curve Information
DEPT.FT                  0 000 00 00: Depth
LSPD.FT/MIN                        0: Line Speed
PRES.PSI                           0: Pressure
DPRES.PSI/FT                       0: Differential of PRES
TEMP.DEGF                          0: Ext. Temp
DTEMP.DEGF/FT                      0: Differential of TEMP
~Parameter Information
~Other Information
LOG WAS MEASURED FROM GROUND LEVEL

TAG @ 7510'

MAX TEMP 385°F

MAX PRESSURE 2850PSI

PERFORATIONS N/A

"THANK YOU FOR USING DI DRILL SURVEY SERVICES"

~A  Depth       LSPD        PRES       DPRES        TEMP       DTEMP    
# ...
  1450.0000     77.1200    404.3077      0.3910    128.8633      0.0275
  1451.0000     77.6200    404.7558      0.4480    128.8874      0.0295
  1452.0000     78.1200    405.2038      0.4481    128.9224      0.0350
  1453.0000     78.1200    405.6519      0.4465    128.9574      0.0351
  1454.0000     78.2500    406.0968      0.4432    128.9926      0.0343
  1455.0000     79.2500    406.5383      0.3869    129.0261      0.0308
  1456.0000     78.6200    406.8706      0.3892    129.0543      0.0247
  1457.0000     78.6200    407.3166      0.4463    129.0754      0.0282
  1458.0000     78.0000    407.7632      0.4475    129.1107      0.0352
  1459.0000     77.7500    408.2115      0.4467    129.1459      0.0342
  1460.0000     77.1200    408.6566      0.4401    129.1790      0.0331
  1461.0000     77.5000    409.0918      0.3808    129.2121      0.0302
  1462.0000     77.5000    409.4181      0.3903    129.2393      0.0272
  1463.0000     77.6200    409.8723      0.4542    129.2665      0.0252
  1464.0000     77.6200    410.3266      0.4379    129.2896      0.0269
  1465.0000     77.7500    410.7482      0.4216    129.3204      0.0311
  1466.0000     77.7500    411.1698      0.4394    129.3519      0.0316
  1467.0000     77.8700    411.6270      0.4573    129.3835      0.0332
  1468.0000     78.0000    412.0843      0.3952    129.4182      0.0352
  1469.0000     78.0000    412.4175      0.3887    129.4539      0.0305
  1470.0000     78.0000    412.8617      0.4345    129.4792      0.0291
  1471.0000     78.0000    413.2866      0.4216    129.5120      0.0313
  1472.0000     77.7500    413.7050      0.4422    129.5418      0.0283
  1473.0000     77.6200    414.1711      0.4740    129.5686      0.0269
  1474.0000     77.8700    414.6530      0.4106    129.5957      0.0271
  1475.0000     77.8700    414.9922      0.3883    129.6229      0.0237
  1476.0000     77.6200    415.4296      0.4383    129.6432      0.0234
  1477.0000     77.8700    415.8689      0.4402    129.6697      0.0269
  1478.0000     78.1200    416.3100      0.4391    129.6969      0.0284
  1479.0000     78.1200    416.7471      0.4352    129.7265      0.0301
  1480.0000     78.0000    417.1803      0.3842    129.7571      0.0322
  1481.0000     78.2500    417.5155      0.4049    129.7909      0.0296
  1482.0000     78.1200    417.9901      0.4680    129.8163      0.0277
  1483.0000     78.0000    418.4516      0.4420    129.8464      0.0301
  1484.0000     78.0000    418.8741      0.4283    129.8766      0.0314
  1485.0000     78.1200    419.3081      0.4512    129.9093      0.0327
  1486.0000     78.2500    419.7765      0.4098    129.9420      0.0293
  1487.0000     78.2500    420.1277      0.3998    129.9678      0.0258
  1488.0000     78.2500    420.5760      0.4483    129.9936      0.0225
  1489.0000     78.1200    421.0244      0.4387    130.0127      0.0223
  1490.0000     78.2500    421.4535      0.4291    130.0383      0.0278
  1491.0000     78.1200    421.8826      0.3961    130.0683      0.0308
  1492.0000     78.1200    422.2457      0.4236    130.0999      0.0265
  1493.0000     78.1200    422.7299      0.4522    130.1213      0.0242
  1494.0000     78.2500    423.1501      0.4095    130.1482      0.0279
  1495.0000     77.8700    423.5490      0.4184    130.1772      0.0299
  1496.0000     78.0000    423.9868      0.4443    130.2080      0.0302
  1497.0000     78.0000    424.4376      0.4498    130.2376      0.0289
  1498.0000     78.1200    424.8864      0.4484    130.2659      0.0282
  1499.0000     78.1200    425.3345      0.4414    130.2941      0.0282
  1500.0000     78.3700    425.7691      0.4324    130.3222      0.0290
  1501.0000     78.3700    426.1993      0.3786    130.3520      0.0307
  1502.0000     78.0000    426.5263      0.3830    130.3836      0.0273
  1503.0000     76.7500    426.9653      0.4385    130.4067      0.0260
  1504.0000     76.1200    427.4033      0.4375    130.4357      0.0287
  1505.0000     76.1200    427.8403      0.3827    130.4642      0.0277
  1506.0000     76.1200    428.1686      0.3837    130.4911      0.0236
  1507.0000     76.3700    428.6077      0.4412    130.5114      0.0265
  1508.0000     77.5000    429.0511      0.4498    130.5441      0.0327
  1509.0000     78.1200    429.5073      0.4567    130.5769      0.0328
  1510.0000     78.1200    429.9644      0.4585    130.6098      0.0329
  1511.0000     78.0000    430.4243      0.4024    130.6426      0.0337
  1512.0000     78.1200    430.7693      0.4029    130.6772      0.0346
  1513.0000     78.3700    431.2301      0.4608    130.7119      0.0288
  1514.0000     78.3700    431.6909      0.4483    130.7348      0.0268
  1515.0000     78.1200    432.1266      0.4357    130.7654      0.0321
  1516.0000     78.2500    432.5623      0.3836    130.7989      0.0340
  1517.0000     78.2500    432.8937      0.3867    130.8334      0.0293
  1518.0000     78.2500    433.3357      0.4468    130.8575      0.0275
  1519.0000     78.1200    433.7873      0.4532    130.8884      0.0326
  1520.0000     78.5000    434.2421      0.4488    130.9227      0.0361
  1521.0000     78.3700    434.6848      0.4407    130.9605      0.0382
  1522.0000     78.3700    435.1235      0.3862    130.9991      0.0390
  1523.0000     78.3700    435.4572      0.3909    131.0384      0.0344
  1524.0000     78.5000    435.9053      0.4493    131.0679      0.0344
  1525.0000     78.3700    436.3559      0.4518    131.1072      0.0386
  1526.0000     78.6200    436.8089      0.3977    131.1451      0.0360
  1527.0000     78.6200    437.1514      0.4032    131.1792      0.0298
  1528.0000     78.3700    437.6152      0.4576    131.2048      0.0300
  1529.0000     78.3700    438.0667      0.4329    131.2391      0.0344
  1530.0000     78.5000    438.4809      0.4201    131.2735      0.0350
  1531.0000     78.5000    438.9069      0.4434    131.3091      0.0357
  1532.0000     78.3700    439.3676      0.4032    131.3448      0.0345
  1533.0000     78.6200    439.7133      0.3988    131.3782      0.0334
  1534.0000     78.6200    440.1652      0.4519    131.4115      0.0305
  1535.0000     78.6200    440.6171      0.4482    131.4391      0.0322
  1536.0000     78.5000    441.0615      0.4444    131.4760      0.0368
  1537.0000     78.3700    441.5059      0.4019    131.5127      0.0367
  1538.0000     78.5000    441.8653      0.4193    131.5493      0.0313
  1539.0000     78.3700    442.3445      0.4599    131.5753      0.0298
  1540.0000     78.3700    442.7850      0.4341    131.6090      0.0336
  1541.0000     78.5000    443.2126      0.4304    131.6425      0.0333
  1542.0000     78.3700    443.6458      0.4341    131.6757      0.0333
  1543.0000     78.3700    444.0809      0.4398    131.7090      0.0333
  1544.0000     78.3700    444.5254      0.4461    131.7424      0.0340
  1545.0000     78.2500    444.9731      0.3930    131.7771      0.0353
  1546.0000     78.3700    445.3113      0.3955    131.8131      0.0313
  1547.0000     78.6200    445.7641      0.4487    131.8396      0.0304
  1548.0000     78.6200    446.2088      0.4407    131.8739      0.0345
  1549.0000     78.2500    446.6455      0.3864    131.9087      0.0356
  1550.0000     78.3700    446.9815      0.4033    131.9451      0.0319
  1551.0000     78.3700    447.4521      0.4645    131.9724      0.0325
  1552.0000     78.3700    447.9105      0.4399    132.0101      0.0377
  1553.0000     78.3700    448.3320      0.4279    132.0479      0.0369
  1554.0000     78.6200    448.7663      0.4534    132.0838      0.0360
  1555.0000     78.3700    449.2387      0.4134    132.1199      0.0333
  1556.0000     78.2500    449.5931      0.3844    132.1504      0.0305
  1557.0000     78.2500    450.0074      0.4144    132.1809      0.0272
  1558.0000     78.2500    450.4218      0.4356    132.2048      0.0279
  1559.0000     78.2500    450.8786      0.4568    132.2366      0.0346
  1560.0000     78.5000    451.3354      0.3910    132.2740      0.0383
  1561.0000     78.5000    451.6606      0.3794    132.3131      0.0328
