~Version Information
VERS.                            2.0: CWLS Log ASCII STANDARD - VERSION 2.0
WRAP.                             NO: One line per depth step
~Well Information
STRT.FT                      -6.0000: FIRST INDEX VALUE
STOP.FT                    7531.0000: LAST INDEX VALUE
STEP.FT                       1.0000: STEP
NULL.                      -999.2500: NULL VALUE
COMP.                UNIVERSITY OF UTAH: COMPANY
WELL.                          58-32: WELL
FLD.                           FORGE: FIELD
LOC.                                : LOCATION
CNTY.                         BEAVER: COUNTY
DATE.                       06/28/21: LOG DATE
STAT.                           UTAH: STATE
SECT.                               : SECTION
TOWN.                               : TOWNSHIP
RANG.                               : RANGE
API.                                : API#
OS.                                 : OTHER SERVICES
PDAT.FT                             : PERMANENT DATUM
EEL.FT                              : ELEVATION
LMF.FT                  GROUND LEVEL: LOG MEASURED FROM
DMF.FT                              : DRILLING MEASURED FROM
EKB.FT                              : KB
EDF.FT                              : DF
EGL.FT                              : GL
DATE1.                      06/28/21: DATE1
RUN1.                              1: RUN NUMBER
TDD1.FT                        7500': DEPTH DRILLER
TDL1.FT                        7510': DEPTH LOGGER
BLI1.FT                        7510': BOTTOM LOGGED INTERVAL
TLI1.FT                      SURFACE: TOP LOG INTERVAL
CDD1.IN_FT                          : CASING DRILLER
CDL1.FT                             : CASING LOGGER
BS1.IN                           N/A: BIT SIZE
DFT1.                            N/A: TYPE FLUID IN HOLE
DFDV1.GM/C3_CP                   N/A: DENSITY/VISCOSITY
DFPL1.C3                            : PH/FLUID LOSS
MSS1.                               : SOURCE OF SAMPLE
RMT1.OHHM_DEGF                      : RM@MEASURED TEMP
RMFT1.OHMM_DEGF                     : RMF@MEASURED TEMP
RMCT1.OHMM_DEGF                     : RMC@MEASURED TEMP
RMFS1.                              : SOURCE OF RMF/RMC
RMBT1.OHMM_DEGF                     : RM@BHT
TCS1.                               : TIME CIRCULATION STOPPED
TLOB1.                           N/A: TIME LOGGER ON BOTTOM
BHT1.DEGF                      385°F: MAXIMUM RECORDED TEMPERATURE
LUN1.                           WL 1: EQUIPMENT NUMBER
LUL1.                          FORGE: LOCATION
ENGI1.                    COREY BIHM: RECORDED BY
WITN1.                           N/A: WITNESSED BY
~Curve Information
DEPT.FT                  0 000 00 00: Depth
LSPD.FT/MIN                        0: Line Speed
PRES.PSI                           0: Pressure
DPRES.PSI/FT                       0: Differential of PRES
TEMP.DEGF                          0: Ext. Temp
DTEMP.DEGF/FT                      0: Differential of TEMP
~Parameter Information
~Other Information
LOG WAS MEASURED FROM GROUND LEVEL

TAG @ 7510'

MAX TEMP 385°F

MAX PRESSURE 2850PSI

PERFORATIONS N/A

"THANK YOU FOR USING DI DRILL SURVEY SERVICES"

~A  Depth       LSPD        PRES       DPRES        TEMP       DTEMP    
# ...
  7386.0000     64.5000   2803.2993      0.3938    380.5276     -0.0029
  7387.0000     64.5000   2803.5906      0.3425    380.5198      0.0010
  7388.0000     63.7500   2803.9844      0.3622    380.5296      0.0244
  7389.0000     62.7500   2804.3149      0.3652    380.5687      0.0493
  7390.0000     62.7500   2804.7148      0.4011    380.6281      0.0536
  7391.0000     62.6200   2805.1172      0.3719    380.6759      0.0359
  7392.0000     63.2500   2805.4587      0.4203    380.7000      0.0451
  7393.0000     63.6200   2805.9578      0.4113    380.7662      0.0877
  7394.0000     63.6200   2806.2813      0.3500    380.8755      0.1038
  7395.0000     64.1200   2806.6577      0.3834    380.9738      0.0919
  7396.0000     63.3700   2807.0481      0.3845    381.0593      0.0671
  7397.0000     63.0000   2807.4268      0.3969    381.1079      0.0356
  7398.0000     62.8700   2807.8418      0.3384    381.1306      0.0182
  7399.0000     62.6200   2808.1035      0.3319    381.1444      0.0136
  7400.0000     62.8700   2808.5056      0.4185    381.1577      0.0202
  7401.0000     63.0000   2808.9404      0.4099    381.1848      0.0306
  7402.0000     63.2500   2809.3254      0.3843    381.2190      0.0525
  7403.0000     63.5000   2809.7090      0.3541    381.2898      0.0638
  7404.0000     63.8700   2810.0337      0.3678    381.3466      0.0347
  7405.0000     63.6200   2810.4446      0.4064    381.3591      0.0035
  7406.0000     63.1200   2810.8464      0.3833    381.3536     -0.0176
  7407.0000     63.1200   2811.2112      0.3763    381.3240     -0.0150
  7408.0000     62.8700   2811.5991      0.3704    381.3236      0.0105
  7409.0000     62.5000   2811.9519      0.3879    381.3450      0.0244
  7410.0000     62.7500   2812.3750      0.3760    381.3724      0.0377
  7411.0000     63.1200   2812.7039      0.3723    381.4203      0.0513
  7412.0000     63.1200   2813.1196      0.4144    381.4749      0.0505
  7413.0000     63.2500   2813.5327      0.3657    381.5214      0.0359
  7414.0000     63.5000   2813.8511      0.3890    381.5468      0.0275
  7415.0000     63.3700   2814.3108      0.3771    381.5763      0.0414
  7416.0000     63.3700   2814.6052      0.3724    381.6296      0.0568
  7417.0000     63.0000   2815.0557      0.4506    381.6899      0.0673
  7418.0000     62.7500   2815.5063      0.3730    381.7642      0.0666
  7419.0000     62.7500   2815.8018      0.3396    381.8231      0.0594
  7420.0000     62.8700   2816.1855      0.3542    381.8829      0.0554
  7421.0000     63.3700   2816.5103      0.3759    381.9339      0.0373
  7422.0000     63.3700   2816.9373      0.4207    381.9575      0.0169
  7423.0000     63.5000   2817.3516      0.3741    381.9677     -0.0025
  7424.0000     63.3700   2817.6855      0.3424    381.9525      0.0013
  7425.0000     63.1200   2818.0364      0.3419    381.9704      0.0251
  7426.0000     63.1200   2818.3694      0.4041    382.0027      0.0299
  7427.0000     63.1200   2818.8445      0.4368    382.0301      0.0344
  7428.0000     62.7500   2819.2429      0.3793    382.0715      0.0345
  7429.0000     62.6200   2819.6030      0.3958    382.0992      0.0237
  7430.0000     62.6200   2820.0344      0.3771    382.1188      0.0186
  7431.0000     61.8700   2820.3572      0.3708    382.1364      0.0185
  7432.0000     62.3700   2820.7761      0.4210    382.1558      0.0254
  7433.0000     62.5000   2821.1992      0.4143    382.1871      0.0324
  7434.0000     62.6200   2821.6047      0.3877    382.2206      0.0577
  7435.0000     63.3700   2821.9746      0.3151    382.3025      0.0804
  7436.0000     63.1200   2822.2349      0.3239    382.3813      0.0667
  7437.0000     63.1200   2822.6223      0.3652    382.4358      0.0499
  7438.0000     62.7500   2822.9653      0.4001    382.4810      0.0270
  7439.0000     62.8700   2823.4226      0.4523    382.4898      0.0132
  7440.0000     63.1200   2823.8699      0.3754    382.5075      0.0178
  7441.0000     63.2500   2824.1733      0.3701    382.5254      0.0251
  7442.0000     63.8700   2824.6101      0.3580    382.5578      0.0370
  7443.0000     63.8700   2824.8894      0.3425    382.5993      0.0344
  7444.0000     63.3700   2825.2952      0.4098    382.6266      0.0193
  7445.0000     63.2500   2825.7090      0.3632    382.6380      0.0043
  7446.0000     62.8700   2826.0215      0.4020    382.6351      0.0081
  7447.0000     62.7500   2826.5129      0.4171    382.6543      0.0247
  7448.0000     62.7500   2826.8557      0.3312    382.6845      0.0255
  7449.0000     63.1200   2827.1753      0.3571    382.7053      0.0154
  7450.0000     63.0000   2827.5698      0.4015    382.7153      0.0045
  7451.0000     63.2500   2827.9783      0.4089    382.7144      0.0191
  7452.0000     63.5000   2828.3877      0.3665    382.7534      0.0442
  7453.0000     63.3700   2828.7112      0.3546    382.8027      0.0441
  7454.0000     63.5000   2829.0969      0.3856    382.8416      0.0392
  7455.0000     63.1200   2829.4824      0.4036    382.8812      0.0302
  7456.0000     62.6200   2829.9041      0.4115    382.9019      0.0184
  7457.0000     62.7500   2830.3054      0.3417    382.9179      0.0132
  7458.0000     62.8700   2830.5874      0.3792    382.9283      0.0148
  7459.0000     63.1200   2831.0637      0.4691    382.9475      0.0350
  7460.0000     62.7500   2831.5256      0.3577    382.9983      0.0560
  7461.0000     61.8700   2831.7791      0.3333    383.0595      0.0622
  7462.0000     60.5000   2832.1921      0.4474    383.1226      0.0694
  7463.0000     58.6200   2832.6738      0.4054    383.1982      0.0740
  7464.0000     57.5000   2833.0029      0.3351    383.2706      0.0649
  7465.0000     55.6200   2833.3440      0.3950    383.3280      0.0502
  7466.0000     54.8700   2833.7930      0.4358    383.3710      0.0412
  7467.0000     53.0000   2834.2156      0.3628    383.4103      0.0394
  7468.0000     52.8700   2834.5186      0.3289    383.4497      0.0371
  7469.0000     51.6200   2834.8733      0.3646    383.4846      0.0419
  7470.0000     51.1200   2835.2478      0.3770    383.5336      0.0554
  7471.0000     49.8700   2835.6272      0.3910    383.5953      0.0529
  7472.0000     47.2500   2836.0298      0.3934    383.6395      0.0406
  7473.0000     45.5000   2836.4141      0.4089    383.6765      0.0409
  7474.0000     43.7500   2836.8477      0.4064    383.7212      0.0490
  7475.0000     43.3700   2837.2268      0.3809    383.7745      0.0581
  7476.0000     43.1200   2837.6094      0.3776    383.8374      0.0793
  7477.0000     42.2500   2837.9819      0.3684    383.9332      0.0951
  7478.0000     41.8700   2838.3462      0.3770    384.0276      0.0851
  7479.0000     41.7500   2838.7358      0.3790    384.1034      0.0660
  7480.0000     41.6200   2839.1042      0.3818    384.1596      0.0437
  7481.0000     41.7500   2839.4995      0.3894    384.1907      0.0339
  7482.0000     41.7500   2839.8831      0.3810    384.2274      0.0295
  7483.0000     42.1200   2840.2615      0.3744    384.2497      0.0089
  7484.0000     42.0000   2840.6318      0.3732    384.2452     -0.0071
  7485.0000     42.0000   2841.0078      0.3643    384.2354      0.0040
  7486.0000     41.7500   2841.3604      0.3654    384.2531      0.0319
  7487.0000     41.7500   2841.7385      0.3965    384.2993      0.0567
  7488.0000     42.2500   2842.1533      0.3971    384.3664      0.0723
  7489.0000     42.3700   2842.5327      0.4050    384.4439      0.0805
  7490.0000     42.6200   2842.9634      0.4312    384.5274      0.0947
  7491.0000     42.1200   2843.3950      0.4163    384.6333      0.0948
  7492.0000     42.0000   2843.7959      0.3800    384.7171      0.0641
  7493.0000     42.2500   2844.1550      0.3392    384.7616      0.0416
  7494.0000     42.0000   2844.4744      0.3457    384.8004      0.0441
  7495.0000     42.3700   2844.8464      0.4037    384.8497      0.0482
  7496.0000     42.5000   2845.2817      0.4048    384.8968      0.0396
  7497.0000     42.6200   2845.6560      0.3827    384.9288      0.0294
