~Version Information
VERS.                            2.0: CWLS Log ASCII STANDARD - VERSION 2.0
WRAP.                             NO: One line per depth step
~Well Information
STRT.FT                      -6.0000: FIRST INDEX VALUE
STOP.FT                    7531.0000: LAST INDEX VALUE
STEP.FT                       1.0000: STEP
NULL.                      -999.2500: NULL VALUE
COMP.                UNIVERSITY OF UTAH: COMPANY
WELL.                          58-32: WELL
FLD.                           FORGE: FIELD
LOC.                                : LOCATION
CNTY.                         BEAVER: COUNTY
DATE.                       06/28/21: LOG DATE
STAT.                           UTAH: STATE
SECT.                               : SECTION
TOWN.                               : TOWNSHIP
RANG.                               : RANGE
API.                                : API#
OS.                                 : OTHER SERVICES
PDAT.FT                             : PERMANENT DATUM
EEL.FT                              : ELEVATION
LMF.FT                  GROUND LEVEL: LOG MEASURED FROM
DMF.FT                              : DRILLING MEASURED FROM
EKB.FT                              : KB
EDF.FT                              : DF
EGL.FT                              : GL
DATE1.                      06/28/21: DATE1
RUN1.                              1: RUN NUMBER
TDD1.FT                        7500': DEPTH DRILLER
TDL1.FT                        7510': DEPTH LOGGER
BLI1.FT                        7510': BOTTOM LOGGED INTERVAL
TLI1.FT                      SURFACE: TOP LOG INTERVAL
CDD1.IN_FT                          : CASING DRILLER
CDL1.FT                             : CASING LOGGER
BS1.IN                           N/A: BIT SIZE
DFT1.                            N/A: TYPE FLUID IN HOLE
DFDV1.GM/C3_CP                   N/A: DENSITY/VISCOSITY
DFPL1.C3                            : PH/FLUID LOSS
MSS1.                               : SOURCE OF SAMPLE
RMT1.OHHM_DEGF                      : RM@MEASURED TEMP
RMFT1.OHMM_DEGF                     : RMF@MEASURED TEMP
RMCT1.OHMM_DEGF                     : RMC@MEASURED TEMP
RMFS1.                              : SOURCE OF RMF/RMC
RMBT1.OHMM_DEGF                     : RM@BHT
TCS1.                               : TIME CIRCULATION STOPPED
TLOB1.                           N/A: TIME LOGGER ON BOTTOM
BHT1.DEGF                      385°F: MAXIMUM RECORDED TEMPERATURE
LUN1.                           WL 1: EQUIPMENT NUMBER
LUL1.                          FORGE: LOCATION
ENGI1.                    COREY BIHM: RECORDED BY
WITN1.                           N/A: WITNESSED BY
~Curve Information
DEPT.FT                  0 000 00 00: Depth
LSPD.FT/MIN                        0: Line Speed
PRES.PSI                           0: Pressure
DPRES.PSI/FT                       0: Differential of PRES
TEMP.DEGF                          0: Ext. Temp
DTEMP.DEGF/FT                      0: Differential of TEMP
~Parameter Information
~Other Information
LOG WAS MEASURED FROM GROUND LEVEL

TAG @ 7510'

MAX TEMP 385°F

MAX PRESSURE 2850PSI

PERFORATIONS N/A

"THANK YOU FOR USING DI DRILL SURVEY SERVICES"

~A  Depth       LSPD        PRES       DPRES        TEMP       DTEMP    
# ...
  2010.0000     77.5000    642.6343      0.3950    155.6417      0.0499
  2011.0000     77.7500    643.0858      0.4434    155.6879      0.0559
  2012.0000     77.7500    643.5212      0.4327    155.7536      0.0672
  2013.0000     77.7500    643.9512      0.3828    155.8223      0.0702
  2014.0000     78.1200    644.2869      0.3959    155.8940      0.0621
  2015.0000     79.6200    644.7430      0.4565    155.9464      0.0594
  2016.0000     79.5000    645.1999      0.4572    156.0127      0.0657
  2017.0000     79.5000    645.6574      0.3997    156.0778      0.0632
  2018.0000     79.5000    645.9993      0.3973    156.1391      0.0537
  2019.0000     79.3700    646.4520      0.4509    156.1851      0.0528
  2020.0000     79.6200    646.9011      0.4438    156.2447      0.0596
  2021.0000     79.6200    647.3395      0.3836    156.3042      0.0627
  2022.0000     79.6200    647.6683      0.3883    156.3701      0.0659
  2023.0000     79.5000    648.1162      0.4479    156.4361      0.0540
  2024.0000     79.7500    648.5641      0.4600    156.4781      0.0491
  2025.0000     79.7500    649.0362      0.4721    156.5342      0.0587
  2026.0000     79.6200    649.5084      0.4037    156.5954      0.0621
  2027.0000     79.6200    649.8437      0.3913    156.6584      0.0552
  2028.0000     79.3700    650.2909      0.4410    156.7059      0.0555
  2029.0000     79.3700    650.7258      0.4328    156.7694      0.0631
  2030.0000     79.3700    651.1565      0.3828    156.8321      0.0623
  2031.0000     79.5000    651.4913      0.3944    156.8940      0.0545
  2032.0000     79.7500    651.9454      0.3948    156.9412      0.0561
  2033.0000     79.7500    652.2808      0.3846    157.0061      0.0568
  2034.0000     79.8700    652.7146      0.4386    157.0548      0.0641
  2035.0000     79.7500    653.1581      0.4580    157.1342      0.0794
  2036.0000     79.8700    653.6306      0.4716    157.2137      0.0765
  2037.0000     79.8700    654.1014      0.4682    157.2872      0.0736
  2038.0000     79.6200    654.5670      0.4074    157.3608      0.0657
  2039.0000     79.8700    654.9161      0.4056    157.4187      0.0579
  2040.0000     80.0000    655.3782      0.4621    157.4765      0.0527
  2041.0000     80.0000    655.8404      0.3932    157.5242      0.0555
  2042.0000     79.6200    656.1647      0.3784    157.5876      0.0561
  2043.0000     79.6200    656.5972      0.4459    157.6363      0.0571
  2044.0000     79.7500    657.0566      0.4639    157.7019      0.0651
  2045.0000     79.7500    657.5250      0.3959    157.7665      0.0640
  2046.0000     79.7500    657.8484      0.3680    157.8300      0.0556
  2047.0000     80.0000    658.2609      0.4305    157.8777      0.0557
  2048.0000     80.0000    658.7095      0.4665    157.9414      0.0637
  2049.0000     80.0000    659.1940      0.4192    158.0051      0.0639
  2050.0000     79.7500    659.5479      0.4003    158.0691      0.0560
  2051.0000     79.8700    659.9945      0.4491    158.1171      0.0542
  2052.0000     79.8700    660.4461      0.4592    158.1775      0.0604
  2053.0000     79.8700    660.9128      0.4084    158.2379      0.0618
  2054.0000     80.1200    661.2629      0.3882    158.3012      0.0633
  2055.0000     80.1200    661.6893      0.4265    158.3644      0.0575
  2056.0000     80.0000    662.1158      0.3846    158.4162      0.0604
  2057.0000     80.0000    662.4584      0.3997    158.4853      0.0593
  2058.0000     80.0000    662.9152      0.4642    158.5348      0.0570
  2059.0000     80.0000    663.3869      0.4742    158.5993      0.0660
  2060.0000     80.1200    663.8636      0.4013    158.6668      0.0690
  2061.0000     80.1200    664.1896      0.3698    158.7372      0.0613
  2062.0000     80.0000    664.6033      0.4288    158.7894      0.0600
  2063.0000     80.1200    665.0472      0.4590    158.8573      0.0680
  2064.0000     80.0000    665.5212      0.4132    158.9254      0.0683
  2065.0000     80.0000    665.8736      0.4067    158.9939      0.0599
  2066.0000     80.0000    666.3347      0.4594    159.0452      0.0572
  2067.0000     80.1200    666.7923      0.4523    159.1083      0.0631
  2068.0000     79.8700    667.2393      0.3911    159.1714      0.0606
  2069.0000     79.8700    667.5745      0.4043    159.2296      0.0582
  2070.0000     79.7500    668.0479      0.4734    159.2879      0.0501
  2071.0000     79.6200    668.5213      0.4543    159.3298      0.0490
  2072.0000     79.7500    668.9565      0.4352    159.3858      0.0604
  2073.0000     79.7500    669.3917      0.3907    159.4505      0.0662
  2074.0000     79.8700    669.7380      0.4040    159.5182      0.0621
  2075.0000     79.7500    670.1996      0.4512    159.5747      0.0678
  2076.0000     79.8700    670.6404      0.4373    159.6537      0.0780
  2077.0000     79.8700    671.0743      0.4295    159.7306      0.0758
  2078.0000     79.6200    671.4995      0.4237    159.8053      0.0734
  2079.0000     79.3700    671.9218      0.3796    159.8773      0.0707
  2080.0000     79.6200    672.2588      0.3998    159.9467      0.0587
  2081.0000     79.6200    672.7214      0.4033    159.9947      0.0506
  2082.0000     78.5000    673.0654      0.3973    160.0479      0.0465
  2083.0000     77.7500    673.5160      0.4534    160.0878      0.0531
  2084.0000     78.1200    673.9722      0.4646    160.1541      0.0664
  2085.0000     78.1200    674.4453      0.4140    160.2205      0.0659
  2086.0000     78.2500    674.8001      0.3827    160.2860      0.0655
  2087.0000     79.3700    675.2106      0.4105    160.3515      0.0567
  2088.0000     80.1200    675.6211      0.3745    160.3995      0.0560
  2089.0000     80.1200    675.9596      0.3949    160.4635      0.0611
  2090.0000     80.1200    676.4109      0.4530    160.5218      0.0714
  2091.0000     80.1200    676.8655      0.4551    160.6063      0.0777
  2092.0000     80.2500    677.3212      0.4552    160.6773      0.0641
  2093.0000     80.2500    677.7759      0.4545    160.7346      0.0570
  2094.0000     80.3700    678.2302      0.3982    160.7913      0.0563
  2095.0000     80.0000    678.5722      0.3994    160.8472      0.0495
  2096.0000     80.1200    679.0290      0.4009    160.8903      0.0518
  2097.0000     80.1200    679.3741      0.4059    160.9507      0.0529
  2098.0000     79.8700    679.8407      0.4651    160.9960      0.0558
  2099.0000     80.0000    680.3043      0.4590    161.0622      0.0662
  2100.0000     80.3700    680.7586      0.3976    161.1284      0.0663
  2101.0000     80.3700    681.0994      0.3974    161.1948      0.0664
  2102.0000     80.0000    681.5534      0.4540    161.2612      0.0547
  2103.0000     80.2500    682.0074      0.4468    161.3043      0.0502
  2104.0000     80.0000    682.4470      0.4397    161.3617      0.0577
  2105.0000     80.0000    682.8867      0.3821    161.4196      0.0581
  2106.0000     79.6200    683.2112      0.3786    161.4778      0.0511
  2107.0000     79.3700    683.6439      0.4397    161.5218      0.0514
  2108.0000     78.7500    684.0906      0.4492    161.5806      0.0544
  2109.0000     78.5000    684.5422      0.4463    161.6306      0.0457
  2110.0000     78.5000    684.9832      0.4392    161.6719      0.0454
  2111.0000     78.5000    685.4206      0.3900    161.7215      0.0536
  2112.0000     78.6200    685.7631      0.4043    161.7792      0.0504
  2113.0000     78.8700    686.2292      0.4573    161.8222      0.0497
  2114.0000     78.8700    686.6777      0.4396    161.8786      0.0565
  2115.0000     78.6200    687.1085      0.3822    161.9352      0.0570
  2116.0000     78.5000    687.4421      0.4033    161.9926      0.0502
  2117.0000     78.6200    687.9151      0.4652    162.0356      0.0546
  2118.0000     78.6200    688.3725      0.4341    162.1017      0.0662
  2119.0000     78.6200    688.7834      0.4152    162.1679      0.0669
  2120.0000     78.7500    689.2029      0.4327    162.2355      0.0676
  2121.0000     78.8700    689.6487      0.3900    162.3031      0.0628
