~Version Information
VERS.                            2.0: CWLS Log ASCII STANDARD - VERSION 2.0
WRAP.                             NO: One line per depth step
~Well Information
STRT.FT                      -6.0000: FIRST INDEX VALUE
STOP.FT                    7531.0000: LAST INDEX VALUE
STEP.FT                       1.0000: STEP
NULL.                      -999.2500: NULL VALUE
COMP.                UNIVERSITY OF UTAH: COMPANY
WELL.                          58-32: WELL
FLD.                           FORGE: FIELD
LOC.                                : LOCATION
CNTY.                         BEAVER: COUNTY
DATE.                       06/28/21: LOG DATE
STAT.                           UTAH: STATE
SECT.                               : SECTION
TOWN.                               : TOWNSHIP
RANG.                               : RANGE
API.                                : API#
OS.                                 : OTHER SERVICES
PDAT.FT                             : PERMANENT DATUM
EEL.FT                              : ELEVATION
LMF.FT                  GROUND LEVEL: LOG MEASURED FROM
DMF.FT                              : DRILLING MEASURED FROM
EKB.FT                              : KB
EDF.FT                              : DF
EGL.FT                              : GL
DATE1.                      06/28/21: DATE1
RUN1.                              1: RUN NUMBER
TDD1.FT                        7500': DEPTH DRILLER
TDL1.FT                        7510': DEPTH LOGGER
BLI1.FT                        7510': BOTTOM LOGGED INTERVAL
TLI1.FT                      SURFACE: TOP LOG INTERVAL
CDD1.IN_FT                          : CASING DRILLER
CDL1.FT                             : CASING LOGGER
BS1.IN                           N/A: BIT SIZE
DFT1.                            N/A: TYPE FLUID IN HOLE
DFDV1.GM/C3_CP                   N/A: DENSITY/VISCOSITY
DFPL1.C3                            : PH/FLUID LOSS
MSS1.                               : SOURCE OF SAMPLE
RMT1.OHHM_DEGF                      : RM@MEASURED TEMP
RMFT1.OHMM_DEGF                     : RMF@MEASURED TEMP
RMCT1.OHMM_DEGF                     : RMC@MEASURED TEMP
RMFS1.                              : SOURCE OF RMF/RMC
RMBT1.OHMM_DEGF                     : RM@BHT
TCS1.                               : TIME CIRCULATION STOPPED
TLOB1.                           N/A: TIME LOGGER ON BOTTOM
BHT1.DEGF                      385°F: MAXIMUM RECORDED TEMPERATURE
LUN1.                           WL 1: EQUIPMENT NUMBER
LUL1.                          FORGE: LOCATION
ENGI1.                    COREY BIHM: RECORDED BY
WITN1.                           N/A: WITNESSED BY
~Curve Information
DEPT.FT                  0 000 00 00: Depth
LSPD.FT/MIN                        0: Line Speed
PRES.PSI                           0: Pressure
DPRES.PSI/FT                       0: Differential of PRES
TEMP.DEGF                          0: Ext. Temp
DTEMP.DEGF/FT                      0: Differential of TEMP
~Parameter Information
~Other Information
LOG WAS MEASURED FROM GROUND LEVEL

TAG @ 7510'

MAX TEMP 385°F

MAX PRESSURE 2850PSI

PERFORATIONS N/A

"THANK YOU FOR USING DI DRILL SURVEY SERVICES"

~A  Depth       LSPD        PRES       DPRES        TEMP       DTEMP    
# ...
  1002.0000     77.2500    212.7276      0.4297    114.0937      0.0136
  1003.0000     77.2500    213.1518      0.4242    114.1071      0.0130
  1004.0000     76.6200    213.5760      0.4343    114.1196      0.0124
  1005.0000     76.3700    214.0204      0.4444    114.1319      0.0132
  1006.0000     75.7500    214.4648      0.4323    114.1461      0.0145
  1007.0000     75.5000    214.8850      0.4202    114.1609      0.0145
  1008.0000     75.5000    215.3052      0.3784    114.1750      0.0141
  1009.0000     75.6200    215.6418      0.3928    114.1890      0.0117
  1010.0000     75.8700    216.0908      0.4871    114.1983      0.0105
  1011.0000     75.8700    216.6160      0.4691    114.2100      0.0159
  1012.0000     75.8700    217.0289      0.4252    114.2300      0.0194
  1013.0000     75.8700    217.4664      0.4375    114.2489      0.0158
  1014.0000     75.2500    217.9039      0.3861    114.2617      0.0118
  1015.0000     73.7500    218.2386      0.3905    114.2724      0.0092
  1016.0000     74.2500    218.6850      0.4453    114.2800      0.0087
  1017.0000     74.2500    219.1292      0.4439    114.2897      0.0111
  1018.0000     74.5000    219.5728      0.4447    114.3021      0.0136
  1019.0000     75.0000    220.0186      0.4462    114.3170      0.0135
  1020.0000     76.5000    220.4651      0.4339    114.3291      0.0106
  1021.0000     76.3700    220.8863      0.4170    114.3383      0.0104
  1022.0000     76.3700    221.2991      0.4222    114.3500      0.0129
  1023.0000     76.2500    221.7308      0.4349    114.3641      0.0136
  1024.0000     76.5000    222.1688      0.4354    114.3772      0.0126
  1025.0000     76.5000    222.6016      0.4319    114.3893      0.0125
  1026.0000     76.3700    223.0325      0.3778    114.4022      0.0133
  1027.0000     76.3700    223.3572      0.3793    114.4159      0.0120
  1028.0000     76.6200    223.7911      0.4361    114.4262      0.0120
  1029.0000     76.6200    224.2295      0.4407    114.4399      0.0140
  1030.0000     76.6200    224.6725      0.4425    114.4542      0.0153
  1031.0000     76.6200    225.1146      0.4416    114.4705      0.0159
  1032.0000     76.5000    225.5557      0.4432    114.4861      0.0143
  1033.0000     76.5000    226.0009      0.4474    114.4992      0.0147
  1034.0000     76.6200    226.4504      0.3956    114.5154      0.0209
  1035.0000     76.6200    226.7921      0.4047    114.5410      0.0224
  1036.0000     76.6200    227.2599      0.4591    114.5601      0.0194
  1037.0000     76.8700    227.7103      0.4243    114.5797      0.0195
  1038.0000     76.5000    228.1084      0.4047    114.5992      0.0193
  1039.0000     76.5000    228.5197      0.4308    114.6184      0.0191
  1040.0000     76.6200    228.9700      0.4546    114.6375      0.0166
  1041.0000     76.6200    229.4289      0.4716    114.6516      0.0141
  1042.0000     76.5000    229.9133      0.4729    114.6657      0.0151
  1043.0000     76.8700    230.3747      0.4270    114.6818      0.0161
  1044.0000     76.7500    230.7673      0.3969    114.6978      0.0161
  1045.0000     76.7500    231.1684      0.4138    114.7139      0.0161
  1046.0000     76.5000    231.5949      0.3732    114.7300      0.0200
  1047.0000     76.6200    231.9148      0.3880    114.7538      0.0239
  1048.0000     76.7500    232.3709      0.4561    114.7777      0.0219
  1049.0000     76.7500    232.8270      0.4499    114.7976      0.0232
  1050.0000     76.7500    233.2706      0.4436    114.8242      0.0258
  1051.0000     76.7500    233.7143      0.4439    114.8491      0.0247
  1052.0000     76.8700    234.1585      0.4442    114.8736      0.0228
  1053.0000     76.6200    234.6027      0.4417    114.8948      0.0207
  1054.0000     76.6200    235.0418      0.4391    114.9149      0.0213
  1055.0000     76.7500    235.4809      0.3809    114.9373      0.0228
  1056.0000     77.0000    235.8036      0.3764    114.9605      0.0216
  1057.0000     76.6200    236.2337      0.4316    114.9806      0.0243
  1058.0000     76.8700    236.6668      0.4336    115.0091      0.0291
  1059.0000     76.8700    237.1008      0.4476    115.0387      0.0302
  1060.0000     76.8700    237.5621      0.4657    115.0695      0.0301
  1061.0000     76.8700    238.0323      0.4524    115.0989      0.0288
  1062.0000     77.0000    238.4668      0.4285    115.1270      0.0295
  1063.0000     77.0000    238.8893      0.4343    115.1579      0.0323
  1064.0000     76.7500    239.3353      0.4499    115.1915      0.0332
  1065.0000     76.8700    239.7891      0.3922    115.2242      0.0321
  1066.0000     76.8700    240.1197      0.3825    115.2558      0.0273
  1067.0000     77.1200    240.5540      0.4311    115.2787      0.0257
  1068.0000     77.1200    240.9819      0.4246    115.3072      0.0287
  1069.0000     77.2500    241.4033      0.4331    115.3362      0.0297
  1070.0000     76.8700    241.8481      0.4565    115.3665      0.0303
  1071.0000     76.8700    242.3164      0.4028    115.3967      0.0300
  1072.0000     76.8700    242.6537      0.3750    115.4265      0.0261
  1073.0000     76.8700    243.0663      0.4168    115.4489      0.0275
  1074.0000     76.8700    243.4873      0.4334    115.4816      0.0327
  1075.0000     77.2500    243.9332      0.4463    115.5143      0.0317
  1076.0000     77.1200    244.3800      0.4481    115.5449      0.0306
  1077.0000     77.1200    244.8294      0.4487    115.5756      0.0322
  1078.0000     76.8700    245.2773      0.4459    115.6094      0.0339
  1079.0000     77.0000    245.7211      0.4419    115.6433      0.0325
  1080.0000     76.8700    246.1611      0.4342    115.6743      0.0311
  1081.0000     77.1200    246.5895      0.4256    115.7054      0.0342
  1082.0000     77.1200    247.0123      0.4142    115.7427      0.0374
  1083.0000     77.0000    247.4180      0.4129    115.7801      0.0341
  1084.0000     76.7500    247.8381      0.4417    115.8109      0.0308
  1085.0000     75.2500    248.3015      0.4611    115.8417      0.0316
  1086.0000     75.0000    248.7602      0.4518    115.8740      0.0323
  1087.0000     75.0000    249.2050      0.4416    115.9063      0.0314
  1088.0000     74.8700    249.6433      0.4285    115.9368      0.0305
  1089.0000     74.5000    250.0621      0.4197    115.9673      0.0348
  1090.0000     75.7500    250.4827      0.4231    116.0064      0.0391
  1091.0000     75.7500    250.9084      0.3725    116.0454      0.0380
  1092.0000     75.5000    251.2277      0.3757    116.0824      0.0370
  1093.0000     75.3700    251.6598      0.4321    116.1193      0.0317
  1094.0000     75.6200    252.0918      0.4405    116.1457      0.0308
  1095.0000     75.5000    252.5408      0.4490    116.1808      0.0367
  1096.0000     75.5000    252.9898      0.4290    116.2191      0.0388
  1097.0000     75.5000    253.3988      0.4090    116.2585      0.0372
  1098.0000     75.6200    253.8078      0.4388    116.2935      0.0343
  1099.0000     75.6200    254.2765      0.4687    116.3271      0.0343
  1100.0000     75.6200    254.7451      0.4385    116.3621      0.0352
  1101.0000     75.6200    255.1534      0.4083    116.3975      0.0356
  1102.0000     75.5000    255.5618      0.4280    116.4333      0.0358
  1103.0000     75.6200    256.0095      0.4478    116.4692      0.0374
  1104.0000     75.5000    256.4573      0.4300    116.5082      0.0395
  1105.0000     75.6200    256.8695      0.4122    116.5482      0.0407
  1106.0000     75.6200    257.2817      0.4163    116.5896      0.0415
  1107.0000     75.8700    257.7021      0.4204    116.6313      0.0430
  1108.0000     75.5000    258.1225      0.3856    116.6755      0.0446
  1109.0000     75.6200    258.4734      0.4094    116.7205      0.0364
  1110.0000     75.7500    258.9412      0.4609    116.7483      0.0305
  1111.0000     75.7500    259.3951      0.4516    116.7815      0.0342
  1112.0000     75.5000    259.8445      0.4352    116.8167      0.0361
  1113.0000     75.8700    260.2656      0.4164    116.8537      0.0381
