~Version Information
VERS.                            2.0: CWLS Log ASCII STANDARD - VERSION 2.0
WRAP.                             NO: One line per depth step
~Well Information
STRT.FT                      -6.0000: FIRST INDEX VALUE
STOP.FT                    7531.0000: LAST INDEX VALUE
STEP.FT                       1.0000: STEP
NULL.                      -999.2500: NULL VALUE
COMP.                UNIVERSITY OF UTAH: COMPANY
WELL.                          58-32: WELL
FLD.                           FORGE: FIELD
LOC.                                : LOCATION
CNTY.                         BEAVER: COUNTY
DATE.                       06/28/21: LOG DATE
STAT.                           UTAH: STATE
SECT.                               : SECTION
TOWN.                               : TOWNSHIP
RANG.                               : RANGE
API.                                : API#
OS.                                 : OTHER SERVICES
PDAT.FT                             : PERMANENT DATUM
EEL.FT                              : ELEVATION
LMF.FT                  GROUND LEVEL: LOG MEASURED FROM
DMF.FT                              : DRILLING MEASURED FROM
EKB.FT                              : KB
EDF.FT                              : DF
EGL.FT                              : GL
DATE1.                      06/28/21: DATE1
RUN1.                              1: RUN NUMBER
TDD1.FT                        7500': DEPTH DRILLER
TDL1.FT                        7510': DEPTH LOGGER
BLI1.FT                        7510': BOTTOM LOGGED INTERVAL
TLI1.FT                      SURFACE: TOP LOG INTERVAL
CDD1.IN_FT                          : CASING DRILLER
CDL1.FT                             : CASING LOGGER
BS1.IN                           N/A: BIT SIZE
DFT1.                            N/A: TYPE FLUID IN HOLE
DFDV1.GM/C3_CP                   N/A: DENSITY/VISCOSITY
DFPL1.C3                            : PH/FLUID LOSS
MSS1.                               : SOURCE OF SAMPLE
RMT1.OHHM_DEGF                      : RM@MEASURED TEMP
RMFT1.OHMM_DEGF                     : RMF@MEASURED TEMP
RMCT1.OHMM_DEGF                     : RMC@MEASURED TEMP
RMFS1.                              : SOURCE OF RMF/RMC
RMBT1.OHMM_DEGF                     : RM@BHT
TCS1.                               : TIME CIRCULATION STOPPED
TLOB1.                           N/A: TIME LOGGER ON BOTTOM
BHT1.DEGF                      385°F: MAXIMUM RECORDED TEMPERATURE
LUN1.                           WL 1: EQUIPMENT NUMBER
LUL1.                          FORGE: LOCATION
ENGI1.                    COREY BIHM: RECORDED BY
WITN1.                           N/A: WITNESSED BY
~Curve Information
DEPT.FT                  0 000 00 00: Depth
LSPD.FT/MIN                        0: Line Speed
PRES.PSI                           0: Pressure
DPRES.PSI/FT                       0: Differential of PRES
TEMP.DEGF                          0: Ext. Temp
DTEMP.DEGF/FT                      0: Differential of TEMP
~Parameter Information
~Other Information
LOG WAS MEASURED FROM GROUND LEVEL

TAG @ 7510'

MAX TEMP 385°F

MAX PRESSURE 2850PSI

PERFORATIONS N/A

"THANK YOU FOR USING DI DRILL SURVEY SERVICES"

~A  Depth       LSPD        PRES       DPRES        TEMP       DTEMP    
# ...
  4922.0000     79.7500   1840.7567      0.4315    293.1292      0.0414
  4923.0000     78.6200   1841.1713      0.4150    293.1706      0.0433
  4924.0000     77.5000   1841.5867      0.4166    293.2157      0.0451
  4925.0000     77.2500   1842.0045      0.3657    293.2608      0.0429
  4926.0000     77.2500   1842.3180      0.3556    293.3014      0.0406
  4927.0000     77.2500   1842.7157      0.3978    293.3420      0.0336
  4928.0000     77.8700   1843.1135      0.4033    293.3687      0.0311
  4929.0000     78.0000   1843.5222      0.4088    293.4043      0.0422
  4930.0000     78.3700   1843.9310      0.3546    293.4532      0.0511
  4931.0000     78.3700   1844.2314      0.3505    293.5065      0.0406
  4932.0000     78.3700   1844.6321      0.4045    293.5343      0.0284
  4933.0000     78.0000   1845.0404      0.4096    293.5632      0.0306
  4934.0000     78.0000   1845.4513      0.4163    293.5956      0.0340
  4935.0000     77.3700   1845.8729      0.4233    293.6313      0.0398
  4936.0000     77.3700   1846.2980      0.4194    293.6751      0.0478
  4937.0000     77.1200   1846.7117      0.4117    293.7269      0.0503
  4938.0000     76.3700   1847.1215      0.3644    293.7758      0.0474
  4939.0000     76.7500   1847.4406      0.3761    293.8217      0.0398
  4940.0000     76.7500   1847.8737      0.4254    293.8555      0.0384
  4941.0000     77.3700   1848.2914      0.4102    293.8985      0.0420
  4942.0000     77.6200   1848.6940      0.4111    293.9395      0.0380
  4943.0000     78.5000   1849.1135      0.4280    293.9745      0.0380
  4944.0000     78.5000   1849.5500      0.3742    294.0156      0.0502
  4945.0000     78.0000   1849.8619      0.3434    294.0748      0.0518
  4946.0000     77.8700   1850.2369      0.3818    294.1193      0.0669
  4947.0000     77.7500   1850.6255      0.4088    294.2087      0.0894
  4948.0000     77.5000   1851.0546      0.4302    294.2981      0.0591
  4949.0000     77.5000   1851.4858      0.4346    294.3268      0.0288
  4950.0000     77.7500   1851.9237      0.3831    294.3556      0.0507
  4951.0000     77.8700   1852.2520      0.3651    294.4282      0.0726
  4952.0000     78.2500   1852.6539      0.4020    294.5008      0.0651
  4953.0000     78.2500   1853.0559      0.4121    294.5584      0.0671
  4954.0000     78.8700   1853.4781      0.4223    294.6351      0.0533
  4955.0000     78.7500   1853.9005      0.4166    294.6649      0.0219
  4956.0000     78.5000   1854.3113      0.4108    294.6790      0.0147
  4957.0000     78.5000   1854.7220      0.3676    294.6942      0.0155
  4958.0000     78.1200   1855.0464      0.3784    294.7099      0.0141
  4959.0000     77.6200   1855.4789      0.4265    294.7225      0.0150
  4960.0000     77.7500   1855.8993      0.4184    294.7400      0.0163
  4961.0000     77.6200   1856.3157      0.4150    294.7550      0.0139
  4962.0000     77.6200   1856.7292      0.4131    294.7678      0.0146
  4963.0000     77.8700   1857.1418      0.3574    294.7842      0.0183
  4964.0000     78.2500   1857.4441      0.3502    294.8044      0.0209
  4965.0000     78.6200   1857.8422      0.4060    294.8259      0.0337
  4966.0000     78.6200   1858.2561      0.4219    294.8718      0.0480
  4967.0000     79.0000   1858.6859      0.3758    294.9219      0.0566
  4968.0000     78.6200   1859.0077      0.3745    294.9850      0.0552
  4969.0000     78.1200   1859.4349      0.4276    295.0323      0.0604
  4970.0000     78.1200   1859.8629      0.4288    295.1057      0.0735
  4971.0000     77.6200   1860.2925      0.4270    295.1792      0.0786
  4972.0000     77.2500   1860.7169      0.4169    295.2629      0.0837
  4973.0000     77.3700   1861.1262      0.3582    295.3466      0.0767
  4974.0000     77.6200   1861.4332      0.3671    295.4164      0.0698
  4975.0000     77.6200   1861.8604      0.4271    295.4862      0.0585
  4976.0000     77.8700   1862.2875      0.4094    295.5334      0.0551
  4977.0000     78.2500   1862.6791      0.3916    295.5963      0.0613
  4978.0000     78.7500   1863.0707      0.3984    295.6560      0.0592
  4979.0000     78.7500   1863.4758      0.4052    295.7147      0.0547
  4980.0000     78.6200   1863.8811      0.3589    295.7655      0.0496
  4981.0000     78.1200   1864.1937      0.3648    295.8138      0.0363
  4982.0000     77.6200   1864.6107      0.4253    295.8382      0.0246
  4983.0000     77.6200   1865.0443      0.4365    295.8629      0.0266
  4984.0000     77.1200   1865.4836      0.4321    295.8914      0.0303
  4985.0000     77.2500   1865.9086      0.4226    295.9235      0.0321
  4986.0000     78.0000   1866.3289      0.3605    295.9556      0.0320
  4987.0000     78.3700   1866.6296      0.3460    295.9876      0.0287
  4988.0000     78.3700   1867.0209      0.4012    296.0129      0.0313
  4989.0000     78.7500   1867.4321      0.4213    296.0502      0.0361
  4990.0000     79.0000   1867.8635      0.4178    296.0852      0.0316
  4991.0000     78.3700   1868.2677      0.3907    296.1135      0.0293
  4992.0000     78.3700   1868.6450      0.3387    296.1437      0.0332
  4993.0000     77.8700   1868.9452      0.3734    296.1798      0.0316
  4994.0000     77.2500   1869.3918      0.4424    296.2069      0.0426
  4995.0000     76.7500   1869.8300      0.4252    296.2650      0.0581
  4996.0000     76.7500   1870.2422      0.4169    296.3231      0.0647
  4997.0000     77.1200   1870.6638      0.4359    296.3944      0.0713
  4998.0000     77.7500   1871.1140      0.3939    296.4657      0.0711
  4999.0000     78.3700   1871.4517      0.3541    296.5366      0.0709
  5000.0000     78.6200   1871.8223      0.3707    296.6075      0.0551
  5001.0000     78.6200   1872.1930      0.3961    296.6468      0.0459
  5002.0000     78.5000   1872.6145      0.4216    296.6992      0.0510
  5003.0000     78.0000   1873.0363      0.4231    296.7488      0.0490
  5004.0000     77.3700   1873.4607      0.4245    296.7973      0.0430
  5005.0000     77.3700   1873.8853      0.3734    296.8348      0.0356
  5006.0000     77.3700   1874.2075      0.3760    296.8686      0.0284
  5007.0000     77.0000   1874.6372      0.4139    296.8917      0.0262
  5008.0000     77.1200   1875.0353      0.3929    296.9209      0.0312
  5009.0000     77.6200   1875.4230      0.4053    296.9541      0.0350
  5010.0000     77.6200   1875.8458      0.4288    296.9910      0.0342
  5011.0000     76.7500   1876.2805      0.4188    297.0225      0.0287
  5012.0000     77.3700   1876.6835      0.3976    297.0484      0.0291
  5013.0000     77.5000   1877.0758      0.4079    297.0807      0.0355
  5014.0000     77.5000   1877.4993      0.4286    297.1195      0.0425
  5015.0000     77.1200   1877.9331      0.3693    297.1657      0.0499
  5016.0000     77.7500   1878.2379      0.3487    297.2193      0.0461
  5017.0000     77.3700   1878.6305      0.3969    297.2578      0.0424
  5018.0000     77.3700   1879.0317      0.4055    297.3042      0.0452
  5019.0000     77.5000   1879.4414      0.3588    297.3481      0.0403
  5020.0000     77.6200   1879.7494      0.3600    297.3847      0.0320
  5021.0000     77.7500   1880.1614      0.4161    297.4122      0.0343
  5022.0000     78.0000   1880.5817      0.4327    297.4533      0.0411
  5023.0000     78.0000   1881.0269      0.4407    297.4944      0.0444
  5024.0000     78.2500   1881.4630      0.4227    297.5422      0.0478
  5025.0000     78.6200   1881.8722      0.3580    297.5900      0.0504
  5026.0000     78.8700   1882.1791      0.3613    297.6429      0.0529
  5027.0000     78.8700   1882.5948      0.4158    297.6958      0.0408
  5028.0000     78.5000   1883.0107      0.4184    297.7246      0.0336
  5029.0000     78.0000   1883.4316      0.4210    297.7630      0.0370
  5030.0000     77.7500   1883.8527      0.3735    297.7986      0.0351
  5031.0000     77.7500   1884.1787      0.3803    297.8332      0.0278
  5032.0000     77.6200   1884.6133      0.4102    297.8542      0.0228
  5033.0000     78.0000   1884.9991      0.3777    297.8788      0.0279
