~Version Information
VERS.                            2.0: CWLS Log ASCII STANDARD - VERSION 2.0
WRAP.                             NO: One line per depth step
~Well Information
STRT.FT                      -6.0000: FIRST INDEX VALUE
STOP.FT                    7531.0000: LAST INDEX VALUE
STEP.FT                       1.0000: STEP
NULL.                      -999.2500: NULL VALUE
COMP.                UNIVERSITY OF UTAH: COMPANY
WELL.                          58-32: WELL
FLD.                           FORGE: FIELD
LOC.                                : LOCATION
CNTY.                         BEAVER: COUNTY
DATE.                       06/28/21: LOG DATE
STAT.                           UTAH: STATE
SECT.                               : SECTION
TOWN.                               : TOWNSHIP
RANG.                               : RANGE
API.                                : API#
OS.                                 : OTHER SERVICES
PDAT.FT                             : PERMANENT DATUM
EEL.FT                              : ELEVATION
LMF.FT                  GROUND LEVEL: LOG MEASURED FROM
DMF.FT                              : DRILLING MEASURED FROM
EKB.FT                              : KB
EDF.FT                              : DF
EGL.FT                              : GL
DATE1.                      06/28/21: DATE1
RUN1.                              1: RUN NUMBER
TDD1.FT                        7500': DEPTH DRILLER
TDL1.FT                        7510': DEPTH LOGGER
BLI1.FT                        7510': BOTTOM LOGGED INTERVAL
TLI1.FT                      SURFACE: TOP LOG INTERVAL
CDD1.IN_FT                          : CASING DRILLER
CDL1.FT                             : CASING LOGGER
BS1.IN                           N/A: BIT SIZE
DFT1.                            N/A: TYPE FLUID IN HOLE
DFDV1.GM/C3_CP                   N/A: DENSITY/VISCOSITY
DFPL1.C3                            : PH/FLUID LOSS
MSS1.                               : SOURCE OF SAMPLE
RMT1.OHHM_DEGF                      : RM@MEASURED TEMP
RMFT1.OHMM_DEGF                     : RMF@MEASURED TEMP
RMCT1.OHMM_DEGF                     : RMC@MEASURED TEMP
RMFS1.                              : SOURCE OF RMF/RMC
RMBT1.OHMM_DEGF                     : RM@BHT
TCS1.                               : TIME CIRCULATION STOPPED
TLOB1.                           N/A: TIME LOGGER ON BOTTOM
BHT1.DEGF                      385°F: MAXIMUM RECORDED TEMPERATURE
LUN1.                           WL 1: EQUIPMENT NUMBER
LUL1.                          FORGE: LOCATION
ENGI1.                    COREY BIHM: RECORDED BY
WITN1.                           N/A: WITNESSED BY
~Curve Information
DEPT.FT                  0 000 00 00: Depth
LSPD.FT/MIN                        0: Line Speed
PRES.PSI                           0: Pressure
DPRES.PSI/FT                       0: Differential of PRES
TEMP.DEGF                          0: Ext. Temp
DTEMP.DEGF/FT                      0: Differential of TEMP
~Parameter Information
~Other Information
LOG WAS MEASURED FROM GROUND LEVEL

TAG @ 7510'

MAX TEMP 385°F

MAX PRESSURE 2850PSI

PERFORATIONS N/A

"THANK YOU FOR USING DI DRILL SURVEY SERVICES"

~A  Depth       LSPD        PRES       DPRES        TEMP       DTEMP    
# ...
  6938.0000     78.5000   2630.9312      0.3807    363.9978      0.0455
  6939.0000     78.0000   2631.3269      0.3958    364.0463      0.0415
  6940.0000     77.7500   2631.7227      0.3538    364.0808      0.0322
  6941.0000     77.7500   2632.0344      0.3636    364.1107      0.0240
  6942.0000     77.3700   2632.4500      0.4110    364.1288      0.0197
  6943.0000     77.0000   2632.8564      0.4049    364.1502      0.0218
  6944.0000     77.1200   2633.2598      0.3950    364.1724      0.0226
  6945.0000     77.1200   2633.6465      0.3839    364.1955      0.0257
  6946.0000     77.2500   2634.0276      0.3915    364.2238      0.0309
  6947.0000     77.5000   2634.4294      0.4053    364.2574      0.0424
  6948.0000     78.0000   2634.8381      0.3568    364.3085      0.0600
  6949.0000     78.0000   2635.1431      0.3553    364.3774      0.0601
  6950.0000     78.5000   2635.5488      0.4103    364.4288      0.0597
  6951.0000     78.5000   2635.9636      0.4192    364.4968      0.0720
  6952.0000     78.0000   2636.3872      0.4119    364.5728      0.0882
  6953.0000     77.7500   2636.7874      0.3883    364.6731      0.1063
  6954.0000     77.7500   2637.1638      0.3325    364.7854      0.1304
  6955.0000     77.2500   2637.4524      0.3447    364.9339      0.1299
  6956.0000     77.0000   2637.8533      0.3983    365.0453      0.0863
  6957.0000     77.5000   2638.2490      0.3882    365.1066      0.0613
  6958.0000     77.5000   2638.6296      0.4233    365.1678      0.0725
  6959.0000     77.5000   2639.0957      0.4137    365.2516      0.0938
  6960.0000     77.2500   2639.4570      0.3983    365.3553      0.0918
  6961.0000     76.6200   2639.8923      0.3873    365.4352      0.0637
  6962.0000     75.1200   2640.2317      0.3638    365.4827      0.0113
  6963.0000     72.7500   2640.6199      0.3878    365.4578     -0.0335
  6964.0000     72.7500   2641.0073      0.3622    365.4156     -0.0410
  6965.0000     70.1200   2641.3442      0.4260    365.3759     -0.0122
  6966.0000     67.7500   2641.8594      0.4325    365.3912      0.0465
  6967.0000     65.3700   2642.2092      0.3445    365.4688      0.0910
  6968.0000     63.6200   2642.5483      0.3401    365.5733      0.1011
  6969.0000     63.0000   2642.8894      0.3500    365.6710      0.0790
  6970.0000     62.2500   2643.2483      0.4320    365.7314      0.0569
  6971.0000     62.1200   2643.7534      0.4102    365.7848      0.0610
  6972.0000     61.7500   2644.0686      0.3336    365.8534      0.0648
  6973.0000     61.2500   2644.4207      0.3923    365.9143      0.0570
  6974.0000     61.1200   2644.8533      0.3759    365.9674      0.0433
  6975.0000     60.8700   2645.1724      0.3857    366.0009      0.0273
  6976.0000     61.1200   2645.6248      0.4423    366.0220      0.0126
  6977.0000     60.5000   2646.0569      0.3551    366.0261     -0.0043
  6978.0000     59.3700   2646.3350      0.3739    366.0134     -0.0165
  6979.0000     58.5000   2646.8047      0.4696    365.9930     -0.0193
  6980.0000     57.5000   2647.2742      0.3737    365.9749     -0.0112
  6981.0000     57.2500   2647.5520      0.3666    365.9706      0.0004
  6982.0000     57.1200   2648.0073      0.4562    365.9757      0.0025
  6983.0000     56.7500   2648.4644      0.3695    365.9757     -0.0028
  6984.0000     56.3700   2648.7463      0.3196    365.9701     -0.0018
  6985.0000     56.3700   2649.1035      0.3573    365.9721      0.0017
  6986.0000     56.8700   2649.4609      0.3533    365.9734     -0.0009
  6987.0000     57.0000   2649.8101      0.3848    365.9703     -0.0008
  6988.0000     57.2500   2650.2305      0.3938    365.9719      0.0023
  6989.0000     57.3700   2650.5977      0.3861    365.9749      0.0015
  6990.0000     57.0000   2651.0027      0.4321    365.9749      0.0015
  6991.0000     56.7500   2651.4619      0.4027    365.9780      0.0044
  6992.0000     56.6200   2651.8081      0.3431    365.9836      0.0055
  6993.0000     56.5000   2652.1482      0.3793    365.9889      0.0091
  6994.0000     56.3700   2652.5667      0.3909    366.0018      0.0120
  6995.0000     56.6200   2652.9299      0.3694    366.0128      0.0063
  6996.0000     56.8700   2653.3054      0.4097    366.0143      0.0057
  6997.0000     57.1200   2653.7493      0.4028    366.0243      0.0090
  6998.0000     57.5000   2654.1111      0.3633    366.0323      0.0028
  6999.0000     56.6200   2654.4758      0.4001    366.0298      0.0015
  7000.0000     55.2500   2654.9114      0.4006    366.0352      0.0079
  7001.0000     54.5000   2655.2771      0.3738    366.0457      0.0092
  7002.0000     54.7500   2655.6589      0.4301    366.0535      0.0082
  7003.0000     55.0000   2656.1372      0.4271    366.0620      0.0083
  7004.0000     55.1200   2656.5132      0.3179    366.0701      0.0075
  7005.0000     55.5000   2656.7729      0.3385    366.0771      0.0090
  7006.0000     55.6200   2657.1902      0.4307    366.0881      0.0120
  7007.0000     55.3700   2657.6343      0.3788    366.1012      0.0124
  7008.0000     55.2500   2657.9478      0.3693    366.1128      0.0147
  7009.0000     54.7500   2658.3728      0.4238    366.1307      0.0180
  7010.0000     54.6200   2658.7954      0.3658    366.1489      0.0148
  7011.0000     54.8700   2659.1045      0.3650    366.1603      0.0130
  7012.0000     55.2500   2659.5254      0.4590    366.1748      0.0180
  7013.0000     55.3700   2660.0225      0.4364    366.1963      0.0222
  7014.0000     55.5000   2660.3982      0.3618    366.2192      0.0203
  7015.0000     55.2500   2660.7461      0.3762    366.2368      0.0198
  7016.0000     55.1200   2661.1506      0.3751    366.2589      0.0227
  7017.0000     54.8700   2661.4963      0.3612    366.2822      0.0198
  7018.0000     54.6200   2661.8730      0.3958    366.2984      0.0209
  7019.0000     54.7500   2662.2878      0.3701    366.3239      0.0264
  7020.0000     54.8700   2662.6133      0.3569    366.3512      0.0233
  7021.0000     55.1200   2663.0017      0.4076    366.3706      0.0226
  7022.0000     55.0000   2663.4285      0.3750    366.3963      0.0252
  7023.0000     54.6200   2663.7517      0.3557    366.4210      0.0211
  7024.0000     54.3700   2664.1399      0.4216    366.4384      0.0268
  7025.0000     54.2500   2664.5950      0.4047    366.4745      0.0372
  7026.0000     54.5000   2664.9492      0.3623    366.5128      0.0301
  7027.0000     54.6200   2665.3196      0.4391    366.5346      0.0287
  7028.0000     54.8700   2665.8274      0.4569    366.5702      0.0372
  7029.0000     55.0000   2666.2334      0.3264    366.6090      0.0324
  7030.0000     55.2500   2666.4802      0.3365    366.6350      0.0296
  7031.0000     55.6200   2666.9065      0.4608    366.6683      0.0338
  7032.0000     55.5000   2667.4019      0.4093    366.7025      0.0312
  7033.0000     55.1200   2667.7251      0.3270    366.7307      0.0272
  7034.0000     54.2500   2668.0559      0.3632    366.7570      0.0293
  7035.0000     53.6200   2668.4514      0.3672    366.7892      0.0316
  7036.0000     53.0000   2668.7903      0.3586    366.8202      0.0252
  7037.0000     52.6200   2669.1687      0.4214    366.8396      0.0238
  7038.0000     52.8700   2669.6331      0.4457    366.8677      0.0338
  7039.0000     53.0000   2670.0601      0.3787    366.9073      0.0406
  7040.0000     52.1200   2670.3904      0.3322    366.9490      0.0380
  7041.0000     51.1200   2670.7244      0.3713    366.9832      0.0363
  7042.0000     50.2500   2671.1331      0.4124    367.0217      0.0390
  7043.0000     49.6200   2671.5491      0.3812    367.0612      0.0369
  7044.0000     49.8700   2671.8955      0.3450    367.0954      0.0343
  7045.0000     50.0000   2672.2390      0.4052    367.1298      0.0369
  7046.0000     50.1200   2672.7058      0.4585    367.1693      0.0421
  7047.0000     50.1200   2673.1560      0.3857    367.2140      0.0424
  7048.0000     50.5000   2673.4773      0.3314    367.2541      0.0367
  7049.0000     50.2500   2673.8188      0.3907    367.2874      0.0391
