~Version Information
VERS.                            2.0: CWLS Log ASCII STANDARD - VERSION 2.0
WRAP.                             NO: One line per depth step
~Well Information
STRT.FT                      -6.0000: FIRST INDEX VALUE
STOP.FT                    7531.0000: LAST INDEX VALUE
STEP.FT                       1.0000: STEP
NULL.                      -999.2500: NULL VALUE
COMP.                UNIVERSITY OF UTAH: COMPANY
WELL.                          58-32: WELL
FLD.                           FORGE: FIELD
LOC.                                : LOCATION
CNTY.                         BEAVER: COUNTY
DATE.                       06/28/21: LOG DATE
STAT.                           UTAH: STATE
SECT.                               : SECTION
TOWN.                               : TOWNSHIP
RANG.                               : RANGE
API.                                : API#
OS.                                 : OTHER SERVICES
PDAT.FT                             : PERMANENT DATUM
EEL.FT                              : ELEVATION
LMF.FT                  GROUND LEVEL: LOG MEASURED FROM
DMF.FT                              : DRILLING MEASURED FROM
EKB.FT                              : KB
EDF.FT                              : DF
EGL.FT                              : GL
DATE1.                      06/28/21: DATE1
RUN1.                              1: RUN NUMBER
TDD1.FT                        7500': DEPTH DRILLER
TDL1.FT                        7510': DEPTH LOGGER
BLI1.FT                        7510': BOTTOM LOGGED INTERVAL
TLI1.FT                      SURFACE: TOP LOG INTERVAL
CDD1.IN_FT                          : CASING DRILLER
CDL1.FT                             : CASING LOGGER
BS1.IN                           N/A: BIT SIZE
DFT1.                            N/A: TYPE FLUID IN HOLE
DFDV1.GM/C3_CP                   N/A: DENSITY/VISCOSITY
DFPL1.C3                            : PH/FLUID LOSS
MSS1.                               : SOURCE OF SAMPLE
RMT1.OHHM_DEGF                      : RM@MEASURED TEMP
RMFT1.OHMM_DEGF                     : RMF@MEASURED TEMP
RMCT1.OHMM_DEGF                     : RMC@MEASURED TEMP
RMFS1.                              : SOURCE OF RMF/RMC
RMBT1.OHMM_DEGF                     : RM@BHT
TCS1.                               : TIME CIRCULATION STOPPED
TLOB1.                           N/A: TIME LOGGER ON BOTTOM
BHT1.DEGF                      385°F: MAXIMUM RECORDED TEMPERATURE
LUN1.                           WL 1: EQUIPMENT NUMBER
LUL1.                          FORGE: LOCATION
ENGI1.                    COREY BIHM: RECORDED BY
WITN1.                           N/A: WITNESSED BY
~Curve Information
DEPT.FT                  0 000 00 00: Depth
LSPD.FT/MIN                        0: Line Speed
PRES.PSI                           0: Pressure
DPRES.PSI/FT                       0: Differential of PRES
TEMP.DEGF                          0: Ext. Temp
DTEMP.DEGF/FT                      0: Differential of TEMP
~Parameter Information
~Other Information
LOG WAS MEASURED FROM GROUND LEVEL

TAG @ 7510'

MAX TEMP 385°F

MAX PRESSURE 2850PSI

PERFORATIONS N/A

"THANK YOU FOR USING DI DRILL SURVEY SERVICES"

~A  Depth       LSPD        PRES       DPRES        TEMP       DTEMP    
# ...
  2458.0000     79.7500    831.5994      0.4074    180.8591      0.0574
  2459.0000     80.3700    831.9446      0.3932    180.9101      0.0446
  2460.0000     80.6200    832.3859      0.3862    180.9483      0.0558
  2461.0000     80.6200    832.7170      0.3722    181.0216      0.0733
  2462.0000     81.0000    833.1303      0.4134    181.0950      0.0563
  2463.0000     81.1200    833.5437      0.4618    181.1342      0.0457
  2464.0000     80.7500    834.0538      0.5102    181.1864      0.0522
  2465.0000     80.7500    834.5640      0.4195    181.2385      0.0520
  2466.0000     80.3700    834.8929      0.3837    181.2904      0.0444
  2467.0000     79.7500    835.3314      0.4417    181.3272      0.0421
  2468.0000     79.5000    835.7764      0.4460    181.3747      0.0494
  2469.0000     79.5000    836.2235      0.3940    181.4259      0.0530
  2470.0000     79.6200    836.5643      0.3994    181.4807      0.0474
  2471.0000     80.0000    837.0222      0.3996    181.5208      0.0453
  2472.0000     80.7500    837.3634      0.3949    181.5714      0.0442
  2473.0000     80.7500    837.8120      0.4482    181.6093      0.0459
  2474.0000     80.8700    838.2598      0.4466    181.6632      0.0539
  2475.0000     81.0000    838.7052      0.3897    181.7171      0.0583
  2476.0000     81.1200    839.0392      0.3924    181.7799      0.0628
  2477.0000     81.1200    839.4899      0.4507    181.8427      0.0567
  2478.0000     80.3700    839.9406      0.4404    181.8932      0.0590
  2479.0000     80.2500    840.3708      0.4302    181.9607      0.0594
  2480.0000     79.6200    840.8010      0.3867    182.0120      0.0487
  2481.0000     79.6200    841.1442      0.4004    182.0580      0.0395
  2482.0000     79.2500    841.6018      0.4706    182.0910      0.0379
  2483.0000     79.5000    842.0854      0.4880    182.1338      0.0433
  2484.0000     79.8700    842.5778      0.4202    182.1775      0.0442
  2485.0000     79.8700    842.9259      0.3991    182.2221      0.0410
  2486.0000     80.5000    843.3760      0.3930    182.2595      0.0489
  2487.0000     80.8700    843.7119      0.3896    182.3198      0.0528
  2488.0000     81.1200    844.1552      0.4406    182.3651      0.0527
  2489.0000     81.1200    844.5930      0.4295    182.4252      0.0602
  2490.0000     80.5000    845.0142      0.3686    182.4854      0.0535
  2491.0000     80.1200    845.3301      0.3830    182.5323      0.0469
  2492.0000     79.7500    845.7803      0.4502    182.5791      0.0372
  2493.0000     79.7500    846.2305      0.4626    182.6067      0.0321
  2494.0000     79.1200    846.7054      0.4750    182.6433      0.0402
  2495.0000     79.2500    847.1805      0.4063    182.6871      0.0449
  2496.0000     79.6200    847.5181      0.3939    182.7332      0.0436
  2497.0000     79.6200    847.9683      0.4459    182.7743      0.0502
  2498.0000     80.1200    848.4099      0.4402    182.8336      0.0647
  2499.0000     80.8700    848.8488      0.3917    182.9037      0.0756
  2500.0000     81.1200    849.1932      0.4070    182.9848      0.0683
  2501.0000     81.1200    849.6627      0.4049    183.0403      0.0577
  2502.0000     80.7500    850.0030      0.3812    183.1003      0.0524
  2503.0000     80.1200    850.4251      0.4231    183.1452      0.0614
  2504.0000     79.5000    850.8492      0.4272    183.2231      0.0779
  2505.0000     79.5000    851.2795      0.3765    183.3011      0.0637
  2506.0000     79.1200    851.6022      0.4004    183.3506      0.0495
  2507.0000     78.8700    852.0804      0.4781    183.4000      0.0477
  2508.0000     79.3700    852.5585      0.4693    183.4460      0.0536
  2509.0000     79.3700    853.0190      0.4605    183.5072      0.0635
  2510.0000     79.8700    853.4796      0.3947    183.5730      0.0666
  2511.0000     80.2500    853.8084      0.3837    183.6404      0.0592
  2512.0000     81.0000    854.2469      0.4363    183.6914      0.0598
  2513.0000     81.0000    854.6810      0.4333    183.7599      0.0645
  2514.0000     80.3700    855.1135      0.3819    183.8204      0.0566
  2515.0000     79.7500    855.4448      0.3888    183.8732      0.0458
  2516.0000     79.5000    855.8911      0.4481    183.9121      0.0447
  2517.0000     79.5000    856.3410      0.4518    183.9626      0.0499
  2518.0000     78.8700    856.7947      0.3933    184.0119      0.0474
  2519.0000     78.8700    857.1276      0.3784    184.0574      0.0399
  2520.0000     77.8700    857.5516      0.4276    184.0916      0.0427
  2521.0000     77.8700    857.9828      0.4420    184.1429      0.0513
  2522.0000     78.2500    858.4355      0.3961    184.1942      0.0539
  2523.0000     78.7500    858.7750      0.4020    184.2506      0.0564
  2524.0000     79.5000    859.2395      0.4645    184.3071      0.0494
  2525.0000     79.5000    859.7040      0.4542    184.3494      0.0494
  2526.0000     81.1200    860.1478      0.4439    184.4058      0.0594
  2527.0000     80.7500    860.5917      0.3878    184.4682      0.0634
  2528.0000     80.2500    860.9234      0.3870    184.5326      0.0534
  2529.0000     80.2500    861.3657      0.4446    184.5750      0.0474
  2530.0000     79.6200    861.8127      0.4478    184.6274      0.0486
  2531.0000     79.3700    862.2614      0.3942    184.6722      0.0410
  2532.0000     79.3700    862.6010      0.3973    184.7094      0.0338
  2533.0000     79.3700    863.0560      0.3989    184.7398      0.0388
  2534.0000     80.1200    863.3988      0.4019    184.7870      0.0413
  2535.0000     80.5000    863.8599      0.4581    184.8224      0.0412
  2536.0000     80.8700    864.3151      0.4464    184.8695      0.0471
  2537.0000     80.8700    864.7527      0.3830    184.9166      0.0481
  2538.0000     81.5000    865.0810      0.3935    184.9657      0.0492
  2539.0000     80.7500    865.5397      0.4587    185.0149      0.0445
  2540.0000     80.6200    865.9985      0.4552    185.0547      0.0465
  2541.0000     80.6200    866.4501      0.4516    185.1079      0.0573
  2542.0000     79.8700    866.9016      0.3975    185.1693      0.0628
  2543.0000     79.3700    867.2451      0.4007    185.2335      0.0587
  2544.0000     79.5000    867.7029      0.4002    185.2868      0.0638
  2545.0000     79.5000    868.0455      0.3994    185.3612      0.0647
  2546.0000     80.0000    868.5017      0.4546    185.4161      0.0629
  2547.0000     80.6200    868.9547      0.4514    185.4871      0.0713
  2548.0000     81.0000    869.4045      0.3922    185.5587      0.0726
  2549.0000     81.0000    869.7391      0.3865    185.6323      0.0645
  2550.0000     81.3700    870.1775      0.4355    185.6876      0.0582
  2551.0000     80.8700    870.6101      0.4238    185.7487      0.0611
  2552.0000     80.5000    871.0251      0.3631    185.8097      0.0597
  2553.0000     80.5000    871.3363      0.3936    185.8681      0.0583
  2554.0000     79.8700    871.8122      0.4759    185.9264      0.0531
  2555.0000     79.3700    872.2881      0.4057    185.9743      0.0558
  2556.0000     79.3700    872.6236      0.3913    186.0381      0.0549
  2557.0000     79.3700    873.0708      0.4702    186.0841      0.0531
  2558.0000     79.7500    873.5640      0.5009    186.1443      0.0610
  2559.0000     80.3700    874.0725      0.4217    186.2062      0.0628
  2560.0000     81.0000    874.4074      0.3752    186.2699      0.0533
  2561.0000     81.0000    874.8230      0.4230    186.3128      0.0437
  2562.0000     81.0000    875.2534      0.4377    186.3573      0.0458
  2563.0000     80.8700    875.6984      0.3897    186.4044      0.0511
  2564.0000     80.3700    876.0328      0.3909    186.4595      0.0482
  2565.0000     80.3700    876.4802      0.4479    186.5008      0.0479
  2566.0000     79.8700    876.9286      0.4501    186.5552      0.0544
  2567.0000     79.7500    877.3803      0.3952    186.6096      0.0455
  2568.0000     79.3700    877.7191      0.3938    186.6463      0.0367
  2569.0000     79.3700    878.1679      0.4489    186.6830      0.0404
